,정보공시 학교코드,학교명,학교도로명 주소,위도,경도,1학년 학급수,1학년 학생수,2학년 학급수,2학년 학생수,3학년 학급수,3학년 학생수,4학년 학급수,4학년 학생수,5학년 학급수,5학년 학생수,6학년 학급수,6학년 학생수,특수학급 학급수,특수학급 학생수,학급수(계),학생수(계),학급당 학생수(계),교사수,수업교원 1인당 학생수
0,S000003511,서울교육대학교부설초등학교,서울특별시 서초구 서초중앙로 96,37.4907391344019,127.01542351968901,4,95,4,95,4,95,5.0,104.0,5.0,108.0,5.0,110.0,1,5,28,612,21.9,31,19.7
1,S000003563,서울대학교사범대학부설초등학교,서울특별시 종로구 대학로 64,37.577017,127.003091,5,97,5,100,5,102,5.0,102.0,5.0,102.0,5.0,104.0,1,6,31,613,19.8,36,17.0
2,S010000738,서울개일초등학교,서울특별시 강남구 개포로 401,37.4862137836501,127.057741991082,5,183,5,163,5,176,6.0,186.0,6.0,177.0,6.0,193.0,0,0,33,1078,32.7,42,25.7
3,S010000741,서울구룡초등학교,서울특별시 강남구 개포로 263,37.48119253448,127.05175492524201,5,109,5,115,5,115,6.0,131.0,6.0,133.0,5.0,132.0,2,10,34,745,21.9,38,19.6
4,S010000742,서울논현초등학교,서울특별시 강남구 강남대로120길 33,37.5081699,127.0260317,3,34,2,47,2,34,2.0,46.0,2.0,46.0,2.0,46.0,2,13,15,266,17.7,18,14.8
5,S010000743,서울대곡초등학교,서울특별시 강남구 남부순환로 3022,37.4947119051009,127.065026466777,6,148,5,133,8,193,8.0,226.0,9.0,236.0,11.0,270.0,1,3,48,1209,25.2,59,20.5
6,S010000744,서울대도초등학교,서울특별시 강남구 선릉로 209,37.4927679777874,127.053346013247,7,223,8,277,10,310,12.0,419.0,12.0,393.0,13.0,403.0,0,0,62,2025,32.7,80,25.3
7,S010000745,서울대모초등학교,서울특별시 강남구 광평로20길 27,37.481536,127.08656200000001,5,123,5,135,5,143,5.0,150.0,6.0,186.0,7.0,183.0,0,0,33,920,27.9,43,21.4
8,S010000746,서울대왕초등학교,서울특별시 강남구 헌릉로618길 8,37.464621355712296,127.105589464202,5,91,4,86,4,103,4.0,94.0,6.0,133.0,8.0,160.0,2,5,33,672,20.4,42,16.0
9,S010000747,서울대진초등학교,서울특별시 강남구 개포로109길 74,37.4970105766855,127.07807847927401,3,50,2,44,3,47,2.0,48.0,3.0,48.0,2.0,33.0,2,5,17,275,16.2,20,13.8
10,S010000748,서울대청초등학교,서울특별시 강남구 양재대로55길 28,37.493133037807105,127.087785687416,2,16,2,21,1,16,2.0,20.0,2.0,21.0,2.0,15.0,1,7,12,116,9.7,15,7.7
11,S010000749,서울대치초등학교,서울특별시 강남구 양재천로 363,37.491311347410104,127.06196593006901,5,126,5,167,8,251,8.0,275.0,11.0,327.0,11.0,347.0,0,0,48,1493,31.1,62,24.1
12,S010000750,서울대현초등학교,서울특별시 강남구 역삼로98길 16,37.5,127.1,4,105,4,103,4,111,4.0,128.0,7.0,171.0,7.0,188.0,2,7,32,813,25.4,38,21.4
13,S010000751,서울도곡초등학교,서울특별시 강남구 선릉로64길 33,37.499507005641604,127.05444550723301,5,107,5,125,5,138,6.0,158.0,7.0,185.0,8.0,215.0,2,9,38,937,24.7,45,20.8
14,S010000752,서울도성초등학교,서울특별시 강남구 역삼로 313,37.501462823096496,127.048873762675,7,210,7,238,9,289,10.0,328.0,11.0,358.0,13.0,412.0,1,4,58,1839,31.7,79,23.3
15,S010000753,서울반원초등학교,서울특별시 서초구 잠원로3길 28,37.51020820000001,127.00390230000001,7,211,7,196,8,211,9.0,229.0,9.0,240.0,10.0,262.0,0,0,50,1349,27.0,60,22.5
16,S010000754,서울반포초등학교,서울특별시 서초구 신반포로 55-4,37.502916,126.991055,0,0,2,15,2,18,2.0,19.0,3.0,36.0,7.0,127.0,0,0,16,215,13.4,19,11.3
17,S010000755,서울방배초등학교,서울특별시 서초구 방배중앙로13길 26,37.486764194362,126.98713719477,5,123,5,123,4,115,7.0,167.0,6.0,138.0,7.0,185.0,2,10,36,861,23.9,42,20.5
18,S010000756,서울방일초등학교,서울특별시 서초구 방배로18길 52,37.4853425,126.9982024,7,186,6,163,6,148,6.0,156.0,6.0,153.0,6.0,168.0,1,5,38,979,25.8,45,21.8
19,S010000757,서울방현초등학교,서울특별시 서초구 효령로4길 58,37.4763718,126.99017849999998,2,34,2,24,2,35,2.0,46.0,3.0,47.0,3.0,53.0,0,0,14,239,17.1,16,14.9
20,S010000758,서울봉은초등학교,서울특별시 강남구 학동로 610,37.5200827812849,127.06093091295901,4,83,4,81,4,81,4.0,79.0,3.0,82.0,4.0,83.0,0,0,23,489,21.3,27,18.1
21,S010000759,서울삼릉초등학교,서울특별시 강남구 봉은사로63길 22,37.5132595599496,127.04694954188601,4,71,4,85,3,85,4.0,105.0,4.0,98.0,4.0,85.0,0,0,23,529,23.0,27,19.6
22,S010000760,서울서래초등학교,서울특별시 서초구 방배로 260,37.5,126.9,7,202,7,212,7,212,8.0,262.0,8.0,245.0,8.0,225.0,2,15,47,1373,29.2,54,25.4
23,S010000761,서울서원초등학교,서울특별시 서초구 고무래로 63,37.5,127.0,10,267,8,253,9,267,9.0,277.0,8.0,239.0,7.0,209.0,2,12,53,1524,28.8,69,22.1
24,S010000762,서울서이초등학교,서울특별시 서초구 서운로 35,37.5,127.0,10,270,8,242,7,208,8.0,258.0,7.0,221.0,7.0,231.0,0,0,47,1430,30.4,53,27.0
25,S010000763,서울서일초등학교,서울특별시 서초구 남부순환로339길 38,37.4852959747114,127.022161220784,4,86,4,88,3,80,4.0,94.0,4.0,89.0,4.0,105.0,1,6,24,548,22.8,28,19.6
26,S010000764,서울서초초등학교,서울특별시 서초구 서운로 178,37.499311,127.024064,6,169,6,162,6,172,6.0,171.0,6.0,204.0,6.0,174.0,1,5,37,1057,28.6,47,22.5
27,S010000765,서울수서초등학교,서울특별시 강남구 광평로51길 46,37.4,127.1,2,34,2,19,2,26,2.0,17.0,2.0,28.0,2.0,20.0,2,9,14,153,10.9,18,8.5
28,S010000766,서울신구초등학교,서울특별시 강남구 압구정로18길 28,37.5233612951904,127.023991523087,4,91,3,70,4,78,4.0,85.0,3.0,64.0,4.0,90.0,2,8,24,486,20.3,28,17.4
29,S010000767,서울신동초등학교,서울특별시 서초구 나루터로 15,37.517128241928894,127.01138846491502,7,160,7,186,7,190,8.0,230.0,9.0,242.0,11.0,271.0,0,0,49,1279,26.1,56,22.8
30,S010000768,서울신중초등학교,서울특별시 서초구 남부순환로317길 15,37.48001,127.009623,5,127,6,137,6,136,6.0,167.0,6.0,138.0,7.0,174.0,1,6,37,885,23.9,43,20.6
31,S010000769,서울압구정초등학교,서울특별시 강남구 압구정로39길 29,37.5316708,127.03116499999999,6,145,6,137,5,125,7.0,181.0,7.0,172.0,6.0,155.0,0,0,37,915,24.7,44,20.8
32,S010000770,서울양재초등학교,서울특별시 서초구 바우뫼로18길 14,37.4741644827927,127.031893858174,3,69,4,101,5,103,5.0,108.0,4.0,97.0,4.0,96.0,2,8,27,582,21.6,32,18.2
33,S010000771,서울양전초등학교,서울특별시 강남구 개포로 513,39.4903657,127.06947779999999,4,76,4,86,4,97,5.0,105.0,4.0,103.0,4.0,89.0,1,7,26,563,21.7,31,18.2
34,S010000772,서울언남초등학교,서울특별시 서초구 헌릉로8길 42,37.454144,127.0617,7,165,9,226,9,213,7.0,192.0,7.0,165.0,6.0,169.0,3,15,48,1145,23.9,60,19.1
35,S010000773,서울언북초등학교,서울특별시 강남구 삼성로135길 42,37.519926,127.0451,9,257,9,285,10,301,10.0,355.0,10.0,306.0,11.0,336.0,2,14,61,1854,30.4,75,24.7
36,S010000774,서울언주초등학교,서울특별시 강남구 남부순환로363길 19,37.4,127.0,7,212,7,232,9,277,9.0,251.0,10.0,299.0,9.0,293.0,2,13,53,1577,29.8,60,26.3
37,S010000775,서울역삼초등학교,서울특별시 강남구 강남대로66길 21,37.493161154263895,127.032603025966,3,58,3,58,2,57,2.0,58.0,3.0,61.0,3.0,61.0,2,11,18,364,20.2,22,16.5
38,S010000776,서울영희초등학교,서울특별시 강남구 일원로 21,37.492301660597896,127.081131205973,2,49,2,38,3,51,2.0,46.0,3.0,64.0,3.0,49.0,2,12,17,309,18.2,20,15.5
39,S010000777,서울왕북초등학교,서울특별시 강남구 광평로31길 74,37.486436702997686,127.08604059773049,6,150,5,133,5,148,6.0,167.0,5.0,134.0,6.0,170.0,2,8,35,910,26.0,42,21.7
40,S010000778,서울우암초등학교,서울특별시 서초구 바우뫼로7길 38,37.472295908787,127.023721964522,3,47,2,37,2,44,2.0,47.0,2.0,44.0,3.0,60.0,2,6,16,285,17.8,19,15.0
41,S010000779,서울원명초등학교,서울특별시 서초구 고무래로 90-6,37.500776175402606,127.016705771732,6,175,7,201,7,212,7.0,206.0,7.0,186.0,9.0,251.0,0,0,43,1231,28.6,56,22.0
42,S010000780,서울원촌초등학교,서울특별시 서초구 사평대로45길 26,37.5061857,127.01246119999999,7,205,6,175,6,169,8.0,203.0,8.0,188.0,7.0,169.0,2,12,44,1121,25.5,54,20.8
43,S010000781,서울이수초등학교,서울특별시 서초구 방배천로4길 23,37.478370068976396,126.98441622070601,4,97,4,84,4,94,3.0,79.0,5.0,112.0,4.0,97.0,2,6,26,569,21.9,30,19.0
44,S010000782,서울일원초등학교,서울특별시 강남구 영동대로4길 20,37.4897892510033,127.076325096662,8,191,6,161,7,193,7.0,197.0,7.0,196.0,8.0,200.0,1,4,44,1142,26.0,51,22.4
45,S010000783,서울잠원초등학교,서울특별시 서초구 신반포로16길 15-25,37.50188,126.99767,10,282,9,255,10,259,11.0,298.0,10.0,277.0,10.0,288.0,0,0,60,1659,27.7,74,22.4
46,S010000784,서울청담초등학교,서울특별시 강남구 압구정로71길 9,37.5279725,127.04527009999998,4,92,4,85,4,77,3.0,68.0,3.0,74.0,4.0,99.0,0,0,22,495,22.5,26,19.0
47,S010000785,서울포이초등학교,서울특별시 강남구 개포로22길 87,37.475962,127.052079,5,77,5,78,4,82,4.0,76.0,4.0,81.0,4.0,81.0,1,4,27,479,17.7,31,15.5
48,S010000786,서울학동초등학교,서울특별시 강남구 선릉로115길 42,37.51206564870029,127.039809428741,4,83,3,85,3,79,4.0,84.0,3.0,77.0,4.0,85.0,0,0,21,493,23.5,24,20.5
49,S010000897,서울가동초등학교,서울특별시 송파구 중대로20길 47,37.4974117311335,127.13001688270599,6,120,6,132,6,123,7.0,159.0,7.0,156.0,7.0,163.0,0,0,39,853,21.9,49,17.4
50,S010000898,서울가락초등학교,서울특별시 송파구 송파대로37길 45,37.500021962377204,127.107602527941,11,204,9,200,9,208,9.0,223.0,7.0,172.0,7.0,153.0,1,7,53,1167,22.0,64,18.2
51,S010000899,서울가원초등학교,서울특별시 송파구 중대로4길 8,37.4894409751686,127.11102931034401,5,94,5,116,5,121,4.0,99.0,5.0,111.0,5.0,98.0,0,0,29,639,22.0,34,18.8
52,S010000900,서울가주초등학교,서울특별시 송파구 오금로40길 37,37.496565586375496,127.129287152437,7,147,6,127,5,113,7.0,148.0,6.0,135.0,7.0,160.0,0,0,38,830,21.8,47,17.7
53,S010000901,서울강덕초등학교,서울특별시 강동구 동남로82길 94-54,37.5595469338186,127.160484033535,8,188,8,205,8,211,8.0,199.0,7.0,161.0,7.0,180.0,1,3,47,1147,24.4,56,20.5
54,S010000902,서울강동초등학교,서울특별시 강동구 상암로14길 77,37.5463647928489,127.13018785802099,5,95,3,71,4,80,4.0,94.0,5.0,100.0,4.0,91.0,2,9,27,540,20.0,28,19.3
55,S010000903,서울강일초등학교,서울특별시 강동구 아리수로98길 24,37.56535,127.17733,5,111,4,94,5,113,6.0,137.0,6.0,126.0,7.0,148.0,2,5,35,734,21.0,41,17.9
56,S010000904,서울거여초등학교,서울특별시 송파구 마천로25길 18,37.505165829279,127.140973626434,5,115,4,92,5,110,5.0,111.0,6.0,115.0,5.0,98.0,2,12,32,653,20.4,37,17.6
57,S010000905,서울거원초등학교,서울특별시 송파구 양산로2길 26,37.487601,127.144669,6,119,6,94,5,98,6.0,111.0,7.0,126.0,7.0,122.0,2,9,39,679,17.4,44,15.4
58,S010000906,서울고덕초등학교,서울특별시 강동구 아리수로82길 42,37.560722999999996,127.16655700000001,5,83,4,77,3,56,3.0,66.0,3.0,51.0,3.0,57.0,2,6,23,396,17.2,26,15.2
59,S010000907,서울고명초등학교,서울특별시 강동구 고덕로46길 53,37.5529722545558,127.14743733360201,8,136,6,151,6,126,5.0,124.0,5.0,122.0,5.0,107.0,0,0,35,766,21.9,40,19.2
60,S010000908,서울고일초등학교,서울특별시 강동구 구천면로93길 20,37.5515408195372,127.169411611068,12,331,13,351,11,281,11.0,275.0,9.0,247.0,8.0,223.0,1,5,65,1713,26.4,78,22.0
61,S010000909,서울길동초등학교,서울특별시 강동구 양재대로116길 69,37.5385917666321,127.144974074142,6,110,7,146,5,109,7.0,151.0,6.0,136.0,6.0,128.0,2,11,39,791,20.3,44,18.0
62,S010000910,서울남천초등학교,서울특별시 송파구 성내천로 207,37.501176,127.15073100000001,3,46,3,55,3,57,3.0,65.0,3.0,67.0,4.0,72.0,2,2,21,364,17.3,24,15.2
63,S010000911,서울대명초등학교,서울특별시 강동구 상암로 271,37.547292,127.15324299999999,6,117,5,119,6,126,6.0,147.0,6.0,143.0,7.0,175.0,1,4,37,831,22.5,45,18.5
64,S010000913,서울마천초등학교,서울특별시 송파구 마천로61다길 24,37.495506983106395,127.15263013173,7,135,5,121,6,125,7.0,152.0,8.0,180.0,8.0,160.0,2,11,43,884,20.6,50,17.7
65,S010000914,서울명덕초등학교,서울특별시 강동구 양재대로156길 11,37.5567629637976,127.145081702644,10,298,10,336,9,284,10.0,310.0,9.0,309.0,9.0,276.0,1,7,58,1820,31.4,66,27.6
66,S010000915,서울명원초등학교,서울특별시 강동구 명일로 364,37.5512889333165,127.15049857921998,4,125,4,113,4,117,6.0,155.0,5.0,136.0,7.0,164.0,1,7,31,817,26.4,39,20.9
67,S010000916,서울명일초등학교,서울특별시 강동구 고덕로38길 8,37.554542363652295,127.142569508391,10,192,8,174,7,150,8.0,184.0,7.0,170.0,7.0,158.0,2,13,49,1041,21.2,57,18.3
68,S010000917,서울묘곡초등학교,서울특별시 강동구 동남로79길 46,37.558201000000004,127.153231,9,199,10,259,10,244,11.0,267.0,11.0,274.0,12.0,290.0,1,5,64,1538,24.0,76,20.2
69,S010000918,서울문덕초등학교,서울특별시 송파구 송이로34길 60,37.485326,127.12739499999999,6,112,4,99,5,109,4.0,81.0,4.0,91.0,4.0,90.0,1,7,28,589,21.0,33,17.8
70,S010000919,서울문정초등학교,서울특별시 송파구 문정로5길 20,37.4890731161772,127.129011908759,5,109,4,93,5,118,6.0,142.0,6.0,132.0,6.0,117.0,2,8,34,719,21.1,40,18.0
71,S010000920,서울방산초등학교,서울특별시 송파구 오금로27길 42,37.509493,127.12106599999998,5,109,4,95,5,108,4.0,102.0,6.0,128.0,5.0,102.0,0,0,29,644,22.2,34,18.9
72,S010000921,서울방이초등학교,서울특별시 송파구 위례성대로10길 4,37.513554,127.12093999999999,6,115,5,93,3,68,4.0,93.0,5.0,93.0,5.0,94.0,2,10,30,566,18.9,35,16.2
73,S010000922,서울삼전초등학교,서울특별시 송파구 백제고분로28길 19,37.501622,127.092467,6,110,6,128,5,110,7.0,137.0,6.0,129.0,7.0,152.0,3,16,40,782,19.6,46,17.0
74,S010000923,서울상일초등학교,서울특별시 강동구 천호대로 1477,37.5475717228098,127.172661674027,2,34,2,23,1,22,2.0,27.0,2.0,34.0,3.0,49.0,1,2,13,191,14.7,15,12.7
75,S010000924,서울석촌초등학교,서울특별시 송파구 가락로11길 26,37.5027584,127.10487240000002,6,121,6,115,5,108,6.0,128.0,6.0,126.0,6.0,133.0,2,13,37,744,20.1,44,16.9
76,S010000925,서울선린초등학교,서울특별시 강동구 진황도로61길 29,37.52921,127.145793,4,78,4,79,3,61,4.0,79.0,3.0,65.0,3.0,58.0,1,6,22,426,19.4,24,17.8
77,S010000926,서울선사초등학교,서울특별시 강동구 올림픽로 837,37.5558490640718,127.128203441437,5,91,5,91,5,98,7.0,130.0,6.0,116.0,6.0,112.0,0,0,34,638,18.8,41,15.6
78,S010000927,서울성내초등학교,서울특별시 강동구 성내로3길 19,37.5313587603475,127.122500141465,8,154,7,138,6,128,7.0,135.0,6.0,132.0,5.0,128.0,2,12,41,827,20.2,48,17.2
79,S010000928,서울성일초등학교,서울특별시 강동구 성내로15길 33,37.529176299999996,127.12836029999998,9,173,9,179,8,177,8.0,182.0,9.0,190.0,9.0,187.0,2,8,54,1096,20.3,67,16.4
80,S010000929,서울세륜초등학교,서울특별시 송파구 양재대로 1264,37.518634000000006,127.13356399999999,5,78,5,88,4,99,5.0,107.0,5.0,118.0,6.0,136.0,2,11,32,637,19.9,37,17.2
81,S010000930,서울송전초등학교,서울특별시 송파구 석촌호수로 159,37.5088156601451,127.09513311629101,6,143,5,141,5,111,6.0,136.0,5.0,138.0,6.0,155.0,0,0,33,824,25.0,38,21.7
82,S010000931,서울송파초등학교,서울특별시 송파구 백제고분로 400,37.5071366477341,127.11111884941201,5,96,4,88,4,93,4.0,93.0,4.0,90.0,5.0,104.0,1,5,27,569,21.1,32,17.8
83,S010000932,서울신가초등학교,서울특별시 송파구 송이로 75,37.500363335404295,127.11988008026,6,128,5,114,5,104,6.0,121.0,6.0,121.0,5.0,87.0,1,11,34,686,20.2,40,17.2
84,S010000933,서울신명초등학교,서울특별시 강동구 명일로24길 33,37.5409425176229,127.14998896665399,4,77,3,51,3,73,4.0,91.0,3.0,64.0,5.0,89.0,1,5,23,450,19.6,30,15.0
85,S010000934,서울신암초등학교,서울특별시 강동구 올림픽로93길 33-16,37.5500218719991,127.124404692941,8,139,6,115,5,104,7.0,139.0,5.0,111.0,6.0,99.0,2,11,39,718,18.4,47,15.3
86,S010000935,서울신천초등학교,서울특별시 송파구 올림픽로 215,37.513998313956705,127.095035632517,4,61,4,69,3,61,5.0,68.0,4.0,71.0,4.0,77.0,2,12,26,419,16.1,32,13.1
87,S010000936,서울아주초등학교,서울특별시 송파구 올림픽로4길 59,37.5058275216473,127.075766881992,4,62,3,70,3,53,4.0,72.0,4.0,84.0,4.0,80.0,0,0,22,421,19.1,26,16.2
88,S010000937,서울영풍초등학교,서울특별시 송파구 오금로57길 15,37.4962217990649,127.143014937983,5,113,4,100,5,93,6.0,114.0,6.0,127.0,5.0,105.0,2,6,33,658,19.9,42,15.7
89,S010000938,서울오금초등학교,서울특별시 송파구 위례성대로22길 11,37.5093861683798,127.131571335424,6,129,5,103,5,113,4.0,87.0,5.0,111.0,5.0,108.0,1,3,31,654,21.1,36,18.2
90,S010000939,서울오륜초등학교,서울특별시 송파구 양재대로 1196,37.512424649219604,127.134508435765,3,68,3,61,4,80,6.0,106.0,5.0,107.0,5.0,105.0,0,0,26,527,20.3,31,17.0
91,S010000941,서울잠동초등학교,서울특별시 송파구 올림픽로35길 122,37.518515,127.10004099999999,6,160,5,123,6,149,5.0,136.0,5.0,147.0,6.0,151.0,0,0,33,866,26.2,42,20.6
92,S010000942,서울잠신초등학교,서울특별시 송파구 잠실로 32,37.5141479659787,127.08794602929,8,205,8,228,9,256,9.0,279.0,8.0,253.0,10.0,269.0,0,0,52,1490,28.7,62,24.0
93,S010000943,서울잠실초등학교,서울특별시 송파구 올림픽로35길 20,37.5201684001225,127.11150468070299,7,179,7,186,6,168,7.0,186.0,6.0,169.0,8.0,200.0,1,7,42,1095,26.1,54,20.3
94,S010000944,서울잠일초등학교,서울특별시 송파구 올림픽로 95,37.5147399506922,127.081635084002,9,269,8,247,9,288,11.0,337.0,10.0,307.0,10.0,288.0,1,6,58,1742,30.0,68,25.6
95,S010000945,서울잠전초등학교,서울특별시 송파구 올림픽로12길 51,37.5073393539262,127.083848321349,5,87,3,67,3,74,5.0,103.0,5.0,97.0,5.0,93.0,1,4,27,525,19.4,33,15.9
96,S010000946,서울중대초등학교,서울특별시 송파구 송파대로36길 8,37.499810913158704,127.113605004135,8,158,7,168,8,178,8.0,187.0,7.0,168.0,7.0,164.0,1,5,46,1028,22.3,56,18.4
97,S010000947,서울천동초등학교,서울특별시 강동구 성안로 200,37.5410150020629,127.137827594235,8,155,6,139,6,127,6.0,139.0,5.0,111.0,6.0,131.0,2,7,39,809,20.7,45,18.0
98,S010000948,서울천일초등학교,서울특별시 강동구 구천면로 266,37.5443609471346,127.13343875484699,3,53,2,48,2,36,3.0,51.0,3.0,50.0,3.0,54.0,2,6,18,298,16.6,21,14.2
99,S010000949,서울천호초등학교,서울특별시 강동구 구천면로 310-11,37.5477198694539,127.13659063451901,6,113,5,106,6,105,6.0,112.0,6.0,122.0,6.0,113.0,2,9,37,680,18.4,44,15.5
100,S010000950,서울토성초등학교,서울특별시 송파구 풍성로20길 44,37.5318810579336,127.115631275949,6,107,5,102,6,115,6.0,134.0,6.0,121.0,7.0,136.0,1,4,37,719,19.4,45,16.0
101,S010000951,서울평화초등학교,서울특별시 송파구 송파대로26길 22,37.491587,127.12266899999999,2,33,2,28,2,24,2.0,31.0,2.0,26.0,2.0,30.0,1,4,13,176,13.5,17,10.4
102,S010000952,서울풍납초등학교,서울특별시 송파구 풍성로 43,37.535086409160705,127.11786739536001,3,57,4,71,3,53,4.0,66.0,3.0,63.0,4.0,71.0,2,7,23,388,16.9,26,14.9
103,S010000953,서울풍성초등학교,서울특별시 송파구 강동대로2길 13,37.5262933266267,127.11348677058399,3,40,3,61,4,67,2.0,45.0,3.0,48.0,3.0,42.0,1,4,19,307,16.2,24,12.8
104,S010000954,서울한산초등학교,서울특별시 강동구 풍성로 261,37.5286962959474,127.14107672693899,7,126,5,103,6,139,6.0,122.0,6.0,126.0,6.0,126.0,1,5,37,747,20.2,43,17.4
105,S010001004,서울가곡초등학교,서울특별시 강서구 공항대로36길 74,37.555707603289704,126.836101829614,5,88,6,125,5,116,6.0,150.0,6.0,148.0,6.0,151.0,0,0,34,778,22.9,41,19.0
106,S010001005,서울가양초등학교,서울 강서구 허준로 186,37.5622165608739,126.85852054015801,3,43,2,33,2,34,3.0,27.0,2.0,33.0,3.0,34.0,2,8,17,212,12.5,23,9.2
107,S010001006,서울갈산초등학교,서울특별시 양천구 목동로 31,37.511989335412935,126.86979891843269,7,157,5,144,6,166,6.0,174.0,8.0,230.0,8.0,198.0,0,0,40,1069,26.7,47,22.7
108,S010001007,서울강서초등학교,서울특별시 양천구 오목로 31,37.522413354187705,126.840989217209,7,118,8,182,7,153,8.0,179.0,8.0,175.0,9.0,207.0,2,12,49,1026,20.9,57,18.0
109,S010001008,서울강신초등학교,서울특별시 양천구 월정로 280,37.543019,126.82927409999999,6,122,6,119,6,126,6.0,132.0,7.0,157.0,5.0,114.0,1,4,37,774,20.9,43,18.0
110,S010001009,서울강월초등학교,서울특별시 양천구 신월로 97,37.516340996115495,126.833432503062,4,69,5,101,4,89,6.0,114.0,5.0,83.0,6.0,104.0,1,5,31,565,18.2,37,15.3
111,S010001010,서울개화초등학교,서울특별시 강서구 양천로 11,37.573669,126.80433899999998,2,17,1,10,1,18,1.0,13.0,2.0,18.0,2.0,22.0,2,6,11,104,9.5,14,7.4
112,S010001011,서울경인초등학교,서울특별시 양천구 안양천로 1009,37.532869848463704,126.885697714193,5,163,4,140,6,176,7.0,213.0,7.0,210.0,8.0,236.0,0,0,37,1138,30.8,43,26.5
113,S010001012,서울계남초등학교,서울특별시 양천구 목동동로2길 54,37.5101693827234,126.860016811027,6,116,5,108,5,115,6.0,150.0,6.0,129.0,6.0,163.0,1,3,35,784,22.4,42,18.7
114,S010001013,서울공진초등학교,서울특별시 강서구 마곡서로 33,37.55782887296429,126.822611032387,12,309,11,346,14,372,10.0,306.0,10.0,299.0,8.0,228.0,2,6,67,1866,27.9,87,21.4
115,S010001014,서울공항초등학교,서울특별시 강서구 마곡서1로 68,37.5630892370354,126.821647808435,9,253,10,274,9,260,10.0,302.0,9.0,249.0,8.0,213.0,2,9,57,1560,27.4,67,23.3
116,S010001015,서울남명초등학교,서울특별시 양천구 중앙로23길 3,37.515683551524404,126.854083905291,5,102,4,83,4,68,4.0,87.0,3.0,72.0,3.0,64.0,2,13,25,489,19.6,29,16.9
117,S010001016,서울내발산초등학교,서울특별시 강서구 강서로46길 23,37.5508811022761,126.83816297305401,8,204,7,206,6,189,9.0,264.0,10.0,287.0,9.0,239.0,2,9,51,1398,27.4,64,21.8
118,S010001017,서울등명초등학교,서울특별시 강서구 강서로56나길 34,37.56088,126.842329,2,17,1,17,1,5,2.0,22.0,1.0,20.0,1.0,13.0,1,2,9,96,10.7,11,8.7
119,S010001018,서울등서초등학교,서울특별시 강서구 화곡로58길 86,37.5518833087335,126.855036397904,3,50,2,36,2,32,3.0,60.0,3.0,52.0,3.0,46.0,1,4,17,280,16.5,20,14.0
120,S010001019,서울등양초등학교,서울특별시 강서구 강서로56나길 140,37.5,126.8,2,36,2,25,2,26,2.0,23.0,2.0,20.0,2.0,24.0,1,3,13,157,12.1,16,9.8
121,S010001020,서울등원초등학교,서울특별시 강서구 화곡로65길 90,37.560326,126.850073,2,28,2,27,2,26,2.0,23.0,2.0,27.0,1.0,23.0,2,8,13,162,12.5,15,10.8
122,S010001021,서울등촌초등학교,서울특별시 강서구 등촌로39길 71,37.5476125061974,126.857941601296,6,89,4,82,3,63,4.0,87.0,4.0,77.0,4.0,90.0,1,2,26,490,18.8,32,15.3
123,S010001022,서울등현초등학교,서울특별시 강서구 화곡로65길 124,37.56136970000001,126.84803670000001,5,91,5,98,4,92,4.0,90.0,4.0,96.0,5.0,100.0,0,0,27,567,21.0,32,17.7
124,S010001023,서울목동초등학교,서울특별시 양천구 목동동로12길 12,37.5228079602599,126.872120089599,8,193,7,206,7,217,8.0,264.0,9.0,249.0,10.0,270.0,2,12,51,1411,27.7,62,22.8
125,S010001024,서울목원초등학교,서울특별시 양천구 목동중앙로 204,37.542936230761704,126.88244613233401,3,53,2,44,3,75,4.0,78.0,4.0,105.0,6.0,119.0,0,0,22,474,21.5,27,17.6
126,S010001025,서울발산초등학교,서울특별시 강서구 강서로45길 113,37.550352000000004,126.831075,7,147,6,150,7,175,8.0,210.0,9.0,206.0,9.0,207.0,2,11,48,1106,23.0,60,18.4
127,S010001026,서울방화초등학교,서울특별시 강서구 양천로6길 92,37.568847,126.806877,5,95,4,95,4,70,5.0,113.0,4.0,92.0,4.0,89.0,1,5,27,559,20.7,34,16.4
128,S010001027,서울백석초등학교,서울특별시 강서구 공항대로 491,37.55357,126.86221,5,84,5,88,4,73,4.0,82.0,4.0,76.0,4.0,74.0,1,5,27,482,17.9,32,15.1
129,S010001028,서울삼정초등학교,서울특별시 강서구 금낭화로 222,37.58050789323661,126.81049346118601,3,43,2,36,2,42,2.0,38.0,2.0,33.0,2.0,40.0,1,4,14,236,16.9,17,13.9
130,S010001029,서울서정초등학교,서울특별시 양천구 목동로8길 19,37.5234512930723,126.867236519411,6,116,5,129,5,128,6.0,155.0,6.0,159.0,6.0,157.0,1,3,35,847,24.2,42,20.2
131,S010001030,서울송정초등학교,서울특별시 강서구 공항대로3길 18,37.562177,126.810898,9,163,5,113,5,100,6.0,123.0,5.0,104.0,6.0,121.0,2,6,38,730,19.2,45,16.2
132,S010001031,서울송화초등학교,서울특별시 강서구 방화대로34길 2,37.5681509143848,126.81803169325,8,184,9,194,9,217,10.0,219.0,10.0,221.0,7.0,167.0,1,5,54,1207,22.4,63,19.2
133,S010001032,서울신강초등학교,서울특별시 양천구 중앙로55길 72,37.526092999999996,126.841651,4,65,4,76,3,62,3.0,61.0,4.0,95.0,4.0,86.0,2,4,24,449,18.7,28,16.0
134,S010001033,서울신곡초등학교,서울특별시 강서구 등촌로13자길 42-14,37.538577000000004,126.855847,5,96,5,99,4,90,6.0,128.0,6.0,128.0,5.0,107.0,2,9,33,657,19.9,39,16.8
135,S010001034,서울신남초등학교,서울특별시 양천구 남부순환로83길,37.515896999999995,126.844706,8,197,6,157,6,141,5.0,130.0,5.0,129.0,4.0,106.0,2,11,36,871,24.2,40,21.8
136,S010001035,서울신목초등학교,서울특별시 양천구 신목로5길 11-6,37.516832,126.872897,5,121,5,131,6,165,7.0,187.0,7.0,209.0,8.0,220.0,2,14,40,1047,26.2,50,20.9
137,S010001036,서울신서초등학교,서울특별시 양천구 목동서로10길 35,37.520558867669,126.86233221213699,6,134,7,195,8,208,7.0,193.0,7.0,189.0,9.0,224.0,0,0,44,1143,26.0,50,22.9
138,S010001037,서울신원초등학교,서울특별시 양천구 남부순환로58길 32,37.5295157615591,126.829864378,3,51,4,78,4,75,4.0,71.0,4.0,74.0,3.0,61.0,2,9,24,419,17.5,29,14.4
139,S010001038,서울신월초등학교,서울특별시 강서구 강서로31길 48,37.539986,126.83902900000001,5,97,5,95,5,101,5.0,102.0,6.0,111.0,5.0,95.0,2,13,33,614,18.6,41,15.0
140,S010001039,서울신정초등학교,서울특별시 강서구 곰달래로31가길 27,37.532072431415,126.85235943935699,12,229,9,196,12,244,13.0,262.0,12.0,240.0,11.0,221.0,3,16,72,1408,19.6,86,16.4
141,S010001040,서울양강초등학교,서울특별시 양천구 오목로 101,37.5236040288987,126.84748007275101,4,85,4,78,4,85,4.0,78.0,4.0,75.0,5.0,105.0,1,4,26,510,19.6,31,16.5
142,S010001041,서울양동초등학교,서울특별시 양천구 오목로23길 24,37.526146999999995,126.85111100000002,3,55,3,52,3,56,3.0,59.0,4.0,71.0,3.0,60.0,2,6,21,359,17.1,24,15.0
143,S010001042,서울양명초등학교,서울특별시 양천구 중앙로 204,37.516375041052704,126.856634416026,4,85,4,90,4,104,5.0,132.0,4.0,83.0,5.0,129.0,1,6,27,629,23.3,35,18.0
144,S010001043,서울양목초등학교,서울특별시 양천구 목동로11길 30,37.5239167960905,126.861470812414,5,101,6,103,6,111,6.0,120.0,6.0,116.0,6.0,129.0,2,7,37,687,18.6,44,15.6
145,S010001044,서울양원초등학교,서울특별시 양천구 화곡로 16,37.5382166977438,126.823105565143,3,41,2,36,2,38,2.0,34.0,3.0,50.0,2.0,37.0,2,7,16,243,15.2,22,11.0
146,S010001045,서울양천초등학교,서울특별시 강서구 양천로 329,37.570127,126.839551,4,54,3,49,2,45,4.0,79.0,4.0,77.0,3.0,63.0,0,0,20,367,18.4,23,16.0
147,S010001046,서울양화초등학교,서울특별시 양천구 목동중앙북로16길 57,37.543669928254104,126.87398547613199,7,121,5,105,5,110,4.0,99.0,5.0,100.0,4.0,93.0,2,7,32,635,19.8,37,17.2
148,S010001048,서울염동초등학교,서울특별시 강서구 양천로73길 17,37.552094307782895,126.87235072463899,6,147,6,171,6,147,7.0,175.0,6.0,156.0,7.0,175.0,1,5,39,976,25.0,48,20.3
149,S010001049,서울염창초등학교,서울특별시 강서구 양천로 646-28,37.5532243333035,126.867600187386,7,162,6,144,6,134,7.0,175.0,6.0,141.0,6.0,140.0,2,9,40,905,22.6,48,18.9
150,S010001050,서울영도초등학교,서울특별시 양천구 목동중앙로 70,37.5360085,126.87158670000001,7,162,6,165,7,190,9.0,231.0,8.0,203.0,9.0,237.0,0,0,46,1188,25.8,55,21.6
151,S010001051,서울우장초등학교,서울특별시 강서구 화곡로 263,37.5496373729163,126.84598306322701,8,169,6,141,7,161,6.0,144.0,7.0,157.0,6.0,131.0,0,0,40,903,22.6,47,19.2
152,S010001052,서울월정초등학교,서울특별시 강서구 월정로 176,37.534313,126.83618600000001,8,146,6,138,6,127,8.0,182.0,6.0,135.0,8.0,157.0,2,7,44,892,20.3,51,17.5
153,S010001053,서울월촌초등학교,서울특별시 양천구 목동중앙로 132,37.5406954304219,126.876258028149,6,131,6,152,6,155,8.0,190.0,8.0,193.0,9.0,231.0,0,0,43,1052,24.5,51,20.6
154,S010001054,서울은정초등학교,서울특별시 양천구 목동남로 85,37.5111289634661,126.86704570822701,3,54,3,52,3,51,2.0,55.0,3.0,51.0,4.0,72.0,2,11,20,346,17.3,23,15.0
155,S010001055,서울정곡초등학교,서울특별시 강서구 방화대로50길 22,37.576960417723,126.818934016679,2,35,2,21,2,23,3.0,36.0,2.0,26.0,2.0,35.0,2,3,15,179,11.9,17,10.5
156,S010001056,서울정목초등학교,서울특별시 양천구 목동중앙로3길 30-10,37.5365297488631,126.870051005362,6,118,6,136,7,149,8.0,180.0,8.0,180.0,10.0,212.0,1,4,46,979,21.3,59,16.6
157,S010001057,서울지향초등학교,서울특별시 양천구 신정로11길 74,37.5133162,126.83738909999998,5,103,5,100,5,103,6.0,134.0,5.0,114.0,5.0,97.0,1,3,32,654,20.4,37,17.7
158,S010001058,서울치현초등학교,서울특별시 강서구 방화대로47길 43,37.575919419180295,126.814643834621,5,90,5,78,5,89,5.0,100.0,6.0,118.0,6.0,103.0,1,4,33,582,17.6,40,14.6
159,S010001059,서울탑산초등학교,서울특별시 강서구 허준로 109,37.5670167390089,126.852367467083,5,91,5,79,4,72,3.0,66.0,4.0,81.0,3.0,55.0,2,11,26,455,17.5,30,15.2
160,S010001060,서울화곡초등학교,서울특별시 강서구 초록마을로 28,37.5436697960802,126.84647059343901,6,111,7,136,6,115,7.0,143.0,7.0,153.0,7.0,155.0,2,9,42,822,19.6,49,16.8
161,S010001061,유석초등학교,서울특별시 강서구 화곡로69길 9,37.560801625679204,126.85377865290701,2,60,2,60,2,60,2.0,57.0,2.0,50.0,2.0,49.0,0,0,12,336,28.0,13,25.8
162,S010001197,동광초등학교,서울특별시 금천구 탑골로10길 45,37.451985,126.91671299999999,3,91,3,93,3,89,3.0,84.0,2.0,48.0,2.0,47.0,0,0,16,452,28.3,37,12.2
163,S100000734,동광초등학교,강원도 고성군 토성면 교암1길 15,38.288908,128.543975,3,91,3,93,3,89,3.0,84.0,2.0,48.0,2.0,47.0,0,0,16,452,28.3,37,12.2
164,S110000431,동광초등학교,충청북도 보은군 보은읍 동광길 26,36.4880528,127.71880230000001,3,91,3,93,3,89,3.0,84.0,2.0,48.0,2.0,47.0,0,0,16,452,28.3,37,12.2
165,S160001056,동광초등학교,경상남도 고성군 거류면 봉암2길 11,35.009209999999996,128.39937,3,91,3,93,3,89,3.0,84.0,2.0,48.0,2.0,47.0,0,0,16,452,28.3,37,12.2
166,S170000444,동광초등학교,제주특별자치도 제주시 태성로 6,33.501713800000005,126.5474021,3,91,3,93,3,89,3.0,84.0,2.0,48.0,2.0,47.0,0,0,16,452,28.3,37,12.2
167,S010001197,동광초등학교,서울특별시 금천구 탑골로10길 45,37.451985,126.91671299999999,1,5,1,8,1,7,1.0,3.0,1.0,9.0,1.0,4.0,0,0,6,36,6.0,7,5.1
168,S100000734,동광초등학교,강원도 고성군 토성면 교암1길 15,38.288908,128.543975,1,5,1,8,1,7,1.0,3.0,1.0,9.0,1.0,4.0,0,0,6,36,6.0,7,5.1
169,S110000431,동광초등학교,충청북도 보은군 보은읍 동광길 26,36.4880528,127.71880230000001,1,5,1,8,1,7,1.0,3.0,1.0,9.0,1.0,4.0,0,0,6,36,6.0,7,5.1
170,S160001056,동광초등학교,경상남도 고성군 거류면 봉암2길 11,35.009209999999996,128.39937,1,5,1,8,1,7,1.0,3.0,1.0,9.0,1.0,4.0,0,0,6,36,6.0,7,5.1
171,S170000444,동광초등학교,제주특별자치도 제주시 태성로 6,33.501713800000005,126.5474021,1,5,1,8,1,7,1.0,3.0,1.0,9.0,1.0,4.0,0,0,6,36,6.0,7,5.1
172,S010001197,동광초등학교,서울특별시 금천구 탑골로10길 45,37.451985,126.91671299999999,3,56,3,52,3,50,3.0,61.0,3.0,67.0,4.0,75.0,2,10,21,371,17.7,25,14.8
173,S100000734,동광초등학교,강원도 고성군 토성면 교암1길 15,38.288908,128.543975,3,56,3,52,3,50,3.0,61.0,3.0,67.0,4.0,75.0,2,10,21,371,17.7,25,14.8
174,S110000431,동광초등학교,충청북도 보은군 보은읍 동광길 26,36.4880528,127.71880230000001,3,56,3,52,3,50,3.0,61.0,3.0,67.0,4.0,75.0,2,10,21,371,17.7,25,14.8
175,S160001056,동광초등학교,경상남도 고성군 거류면 봉암2길 11,35.009209999999996,128.39937,3,56,3,52,3,50,3.0,61.0,3.0,67.0,4.0,75.0,2,10,21,371,17.7,25,14.8
176,S170000444,동광초등학교,제주특별자치도 제주시 태성로 6,33.501713800000005,126.5474021,3,56,3,52,3,50,3.0,61.0,3.0,67.0,4.0,75.0,2,10,21,371,17.7,25,14.8
177,S010001197,동광초등학교,서울특별시 금천구 탑골로10길 45,37.451985,126.91671299999999,1,3,1,4,1,7,1.0,10.0,1.0,5.0,1.0,5.0,0,0,6,34,5.7,7,4.9
178,S100000734,동광초등학교,강원도 고성군 토성면 교암1길 15,38.288908,128.543975,1,3,1,4,1,7,1.0,10.0,1.0,5.0,1.0,5.0,0,0,6,34,5.7,7,4.9
179,S110000431,동광초등학교,충청북도 보은군 보은읍 동광길 26,36.4880528,127.71880230000001,1,3,1,4,1,7,1.0,10.0,1.0,5.0,1.0,5.0,0,0,6,34,5.7,7,4.9
180,S160001056,동광초등학교,경상남도 고성군 거류면 봉암2길 11,35.009209999999996,128.39937,1,3,1,4,1,7,1.0,10.0,1.0,5.0,1.0,5.0,0,0,6,34,5.7,7,4.9
181,S170000444,동광초등학교,제주특별자치도 제주시 태성로 6,33.501713800000005,126.5474021,1,3,1,4,1,7,1.0,10.0,1.0,5.0,1.0,5.0,0,0,6,34,5.7,7,4.9
182,S010001197,동광초등학교,서울특별시 금천구 탑골로10길 45,37.451985,126.91671299999999,6,162,7,187,6,163,7.0,197.0,7.0,187.0,7.0,180.0,2,12,42,1088,25.9,47,23.1
183,S100000734,동광초등학교,강원도 고성군 토성면 교암1길 15,38.288908,128.543975,6,162,7,187,6,163,7.0,197.0,7.0,187.0,7.0,180.0,2,12,42,1088,25.9,47,23.1
184,S110000431,동광초등학교,충청북도 보은군 보은읍 동광길 26,36.4880528,127.71880230000001,6,162,7,187,6,163,7.0,197.0,7.0,187.0,7.0,180.0,2,12,42,1088,25.9,47,23.1
185,S160001056,동광초등학교,경상남도 고성군 거류면 봉암2길 11,35.009209999999996,128.39937,6,162,7,187,6,163,7.0,197.0,7.0,187.0,7.0,180.0,2,12,42,1088,25.9,47,23.1
186,S170000444,동광초등학교,제주특별자치도 제주시 태성로 6,33.501713800000005,126.5474021,6,162,7,187,6,163,7.0,197.0,7.0,187.0,7.0,180.0,2,12,42,1088,25.9,47,23.1
187,S010001198,서울가산초등학교,서울특별시 금천구 남부순환로 1304-11,37.478125,126.896445,4,63,3,47,3,54,2.0,36.0,2.0,39.0,2.0,37.0,0,0,16,276,17.3,20,13.8
188,S010001199,서울개명초등학교,서울특별시 구로구 개봉로1다길 16-9,37.482999,126.850268,3,60,3,51,3,62,3.0,49.0,3.0,48.0,3.0,49.0,1,3,19,322,16.9,22,14.6
189,S010001200,서울개봉초등학교,서울특별시 구로구 개봉로16길 30-11,37.4895231088062,126.85797479110701,8,189,7,158,7,161,8.0,172.0,7.0,159.0,8.0,149.0,2,11,47,999,21.3,56,17.8
190,S010001201,서울개웅초등학교,서울특별시 구로구 개봉로11길 98,37.4885725820655,126.849984640827,4,70,4,88,4,78,5.0,101.0,4.0,89.0,4.0,79.0,2,9,27,514,19.0,31,16.6
191,S010001202,서울고산초등학교,서울특별시 구로구 중앙로 6,37.4989736330761,126.86477383802901,4,67,3,61,3,64,4.0,83.0,3.0,58.0,3.0,68.0,1,6,21,407,19.4,27,15.1
192,S010001203,서울고척초등학교,서울특별시 구로구 경서로 31,37.5009466670416,126.85698057444901,5,69,3,43,4,59,4.0,65.0,4.0,58.0,4.0,64.0,2,4,26,362,13.9,31,11.7
193,S010001204,서울구로남초등학교,서울특별시 구로구 디지털로27길 76,37.4854394,126.890974,4,65,4,66,4,65,6.0,115.0,5.0,76.0,4.0,76.0,2,5,29,468,16.1,35,13.4
194,S010001205,서울구로초등학교,서울특별시 구로구 구로중앙로27나길 9,37.497058,126.886245,5,73,4,65,4,73,4.0,84.0,4.0,62.0,5.0,91.0,2,9,28,457,16.3,35,13.1
195,S010001206,서울구일초등학교,서울특별시 구로구 구일로 68,37.4931916033675,126.873473274906,8,174,8,173,9,194,8.0,192.0,8.0,184.0,8.0,180.0,2,8,51,1105,21.7,61,18.1
196,S010001207,서울금산초등학교,서울특별시 금천구 시흥대로24길 57,37.441305,126.90793700000002,3,49,2,42,2,41,3.0,64.0,3.0,51.0,3.0,48.0,0,0,16,295,18.4,21,14.0
197,S010001208,서울금천초등학교,서울특별시 금천구 탑골로5길 60,37.454978000000004,126.912769,2,31,2,24,2,17,2.0,22.0,2.0,25.0,2.0,34.0,1,2,13,155,11.9,18,8.6
198,S010001209,서울당산초등학교,서울특별시 영등포구 선유로55길 32,37.540120019884895,126.896241292068,3,65,3,55,3,48,3.0,58.0,3.0,52.0,3.0,56.0,1,5,19,339,17.8,22,15.4
199,S010001210,서울당서초등학교,서울특별시 영등포구 당산로 187,37.5320285188173,126.89981408400499,9,224,8,210,8,209,9.0,215.0,8.0,211.0,7.0,159.0,0,0,49,1228,25.1,60,20.5
200,S010001211,서울당중초등학교,서울특별시 영등포구 선유로 131,37.526185999999996,126.89000700000001,5,98,5,108,4,86,4.0,86.0,4.0,93.0,4.0,88.0,2,11,28,570,20.4,33,17.3
201,S010001212,서울대길초등학교,서울특별시 영등포구 대방천로 206,37.498204,126.913454,3,58,4,76,4,71,4.0,83.0,4.0,76.0,4.0,82.0,2,8,25,454,18.2,31,14.6
202,S010001213,서울대동초등학교,서울특별시 영등포구 대림로21길 6,37.4937036790785,126.90011859854602,4,37,4,52,3,43,4.0,58.0,4.0,71.0,5.0,74.0,2,4,26,339,13.0,30,11.3
203,S010001214,서울대방초등학교,서울특별시 영등포구 여의대방로35길 14,37.5030997138623,126.91944520138,12,250,11,263,9,228,8.0,190.0,7.0,186.0,7.0,177.0,2,7,56,1301,23.2,62,21.0
204,S010001215,서울대영초등학교,서울특별시 영등포구 신길로23길 43,37.502646999999996,126.90593600000001,9,212,7,175,6,150,7.0,149.0,6.0,141.0,5.0,120.0,2,7,42,954,22.7,49,19.5
205,S010001216,서울덕의초등학교,서울특별시 구로구 고척로 213,37.50602877675821,126.857346367296,7,171,7,148,6,152,7.0,184.0,7.0,187.0,7.0,175.0,0,0,41,1017,24.8,49,20.8
206,S010001217,서울도림초등학교,서울특별시 영등포구 가마산로65길 22,37.508680497064795,126.90711553643699,3,55,3,63,3,61,4.0,83.0,4.0,70.0,4.0,70.0,2,4,23,406,17.7,25,16.2
207,S010001218,서울도신초등학교,서울특별시 영등포구 도림로53길 32-9,37.49926879493321,126.90071281715599,3,46,2,30,2,34,2.0,37.0,3.0,49.0,3.0,48.0,1,3,16,247,15.4,21,11.8
208,S010001219,서울독산초등학교,서울특별시 금천구 시흥대로104길 31,37.465365000000006,126.899965,4,84,4,90,5,92,4.0,81.0,5.0,103.0,5.0,97.0,4,14,31,561,18.1,39,14.4
209,S010001220,서울동구로초등학교,서울특별시 구로구 구로중앙로14길 43,37.49487041449689,126.89276832695556,3,48,3,61,3,49,4.0,65.0,3.0,59.0,4.0,70.0,2,2,22,354,16.1,25,14.2
210,S010001221,서울두산초등학교,서울특별시 금천구 범안로11길 3,37.467548297924296,126.89094737488001,6,137,4,97,4,70,5.0,92.0,4.0,83.0,4.0,81.0,2,11,29,571,19.7,33,17.3
211,S010001222,서울매봉초등학교,서울특별시 구로구 고척로21길 55,37.50479,126.844402,2,46,2,36,2,37,2.0,49.0,3.0,48.0,2.0,43.0,1,6,14,265,18.9,17,15.6
212,S010001223,서울문교초등학교,서울특별시 금천구 독산로54길 102,37.4665726,126.90888100000001,2,39,3,51,2,40,2.0,36.0,2.0,45.0,3.0,46.0,1,6,15,263,17.5,19,13.8
213,S010001224,서울문래초등학교,서울특별시 영등포구 문래로 104,37.518471000000005,126.893229,8,202,6,172,7,197,8.0,223.0,7.0,189.0,7.0,185.0,1,8,44,1176,26.7,52,22.6
214,S010001225,서울문백초등학교,서울특별시 금천구 시흥대로47길 43-1,37.4470769893004,126.898697930024,5,102,5,100,5,98,5.0,112.0,5.0,116.0,5.0,109.0,2,7,32,644,20.1,39,16.5
215,S010001226,서울문성초등학교,서울특별시 금천구 시흥대로 460,37.4744862609121,126.89927594551901,5,83,2,38,3,60,4.0,73.0,4.0,64.0,4.0,63.0,3,8,25,389,15.6,30,13.0
216,S010001227,서울미래초등학교,서울특별시 구로구 새말로 73,37.505106827671206,126.888078906578,5,109,5,101,4,87,4.0,93.0,4.0,78.0,4.0,83.0,0,0,26,551,21.2,30,18.4
217,S010001228,서울백산초등학교,서울특별시 금천구 시흥대로38길 78,37.447032,126.904917,3,42,2,37,2,33,3.0,52.0,3.0,49.0,3.0,55.0,2,6,18,274,15.2,21,13.0
218,S010001229,서울세곡초등학교,서울특별시 구로구 고척로33길 34,37.5050562821244,126.849119269032,5,78,4,90,4,77,5.0,105.0,4.0,70.0,4.0,91.0,2,6,28,517,18.5,33,15.7
219,S010001230,서울시흥초등학교,서울특별시 금천구 독산로23길 26,37.455338819047206,126.904640802438,4,60,4,71,4,70,5.0,86.0,4.0,85.0,5.0,103.0,3,16,29,491,16.9,34,14.4
220,S010001231,서울신구로초등학교,서울특별시 구로구 가마산로27길 69,37.4996591332025,126.889765279528,4,76,4,70,4,66,5.0,90.0,3.0,64.0,4.0,69.0,2,9,26,444,17.1,31,14.3
221,S010001232,서울신대림초등학교,서울특별시 영등포구 대림로8길 25,37.4913694888304,126.90599716515699,4,83,4,74,3,60,3.0,56.0,3.0,56.0,3.0,50.0,1,6,21,385,18.3,24,16.0
222,S010001233,서울신도림초등학교,서울특별시 구로구 신도림로19길 44,37.512405028721,126.880779312302,8,232,7,215,8,218,7.0,200.0,8.0,247.0,6.0,173.0,2,9,46,1294,28.1,56,23.1
223,S010001234,서울신미림초등학교,서울특별시 구로구 신도림로 26,37.5071419202149,126.879552627226,7,173,5,131,6,133,7.0,161.0,6.0,129.0,7.0,164.0,0,0,38,891,23.4,44,20.3
224,S010001235,서울신영초등학교,서울특별시 영등포구 도신로4길 32,37.501005567838604,126.896096400965,5,76,4,80,4,74,5.0,93.0,4.0,80.0,5.0,70.0,2,9,29,482,16.6,34,14.2
225,S010001236,서울신흥초등학교,서울특별시 금천구 독산로36나길 21,37.4593466248613,126.909351255528,4,78,5,97,4,85,5.0,93.0,4.0,93.0,4.0,87.0,2,7,28,540,19.3,34,15.9
226,S010001237,서울안천초등학교,서울특별시 금천구 한내로 69-16,37.4585983,126.8884707,2,39,2,26,2,36,2.0,46.0,2.0,37.0,3.0,57.0,2,7,15,248,16.5,20,12.4
227,S010001238,서울여의도초등학교,서울특별시 영등포구 여의대방로 439,37.5232062635113,126.936795004546,7,163,7,175,7,157,7.0,190.0,7.0,156.0,7.0,203.0,2,10,44,1054,24.0,57,18.5
228,S010001239,서울영남초등학교,서울특별시 금천구 문성로 62-15,37.475435,126.90986399999998,2,36,2,28,2,31,3.0,55.0,3.0,51.0,2.0,41.0,1,4,15,246,16.4,19,12.9
229,S010001240,서울영동초등학교,서울특별시 영등포구 국회대로53길 20,37.52653,126.90741899999999,4,72,4,80,3,69,3.0,54.0,3.0,70.0,3.0,59.0,2,5,22,409,18.6,25,16.4
230,S010001241,서울영등포초등학교,서울특별시 영등포구 경인로 756,37.512947565668796,126.898260591726,3,51,3,50,2,34,2.0,38.0,2.0,43.0,3.0,50.0,2,7,17,273,16.1,20,13.7
231,S010001242,서울영림초등학교,서울특별시 영등포구 시흥대로173길 14,37.48744,126.902652,2,43,2,32,2,34,2.0,34.0,2.0,35.0,2.0,32.0,0,0,12,210,17.5,18,11.7
232,S010001243,서울영서초등학교,서울특별시 구로구 도림로20길 57,37.4883984,126.8947321,5,112,5,105,6,122,6.0,126.0,5.0,113.0,6.0,127.0,2,4,35,709,20.3,45,15.8
233,S010001244,서울영신초등학교,서울특별시 영등포구 도신로60길 23,37.5098097010897,126.91842909991199,7,139,7,136,7,115,9.0,158.0,8.0,151.0,7.0,137.0,2,9,47,845,18.0,53,15.9
234,S010001245,서울영원초등학교,서울특별시 영등포구 도영로 22길 31,37.510888,126.90218899999999,5,105,4,94,4,91,5.0,98.0,4.0,90.0,4.0,79.0,1,3,27,560,20.7,31,18.1
235,S010001246,서울영일초등학교,서울특별시 구로구 남부순환로105길 218,37.485644574143706,126.883811365561,4,50,2,33,3,44,3.0,49.0,3.0,47.0,3.0,55.0,2,7,20,285,14.3,22,13.0
236,S010001247,서울영중초등학교,서울특별시 영등포구 양산로 185,37.523798,126.90392990000001,5,89,4,76,3,61,4.0,82.0,3.0,72.0,3.0,53.0,2,5,24,438,18.3,28,15.6
237,S010001248,서울오류남초등학교,서울특별시 구로구 서해안로24길 22,37.4896863391309,126.83911374431001,5,109,5,117,6,131,6.0,122.0,5.0,106.0,5.0,109.0,2,11,34,705,20.7,43,16.4
238,S010001249,서울오류초등학교,서울특별시 구로구 경인로19길 39,37.498249,126.84219099999999,5,117,5,101,4,98,6.0,126.0,6.0,124.0,5.0,113.0,2,8,33,687,20.8,40,17.2
239,S010001250,서울오정초등학교,서울특별시 구로구 경인로2길 10,37.489698,126.826203,3,58,3,56,3,51,4.0,71.0,3.0,55.0,4.0,72.0,1,5,21,368,17.5,27,13.6
240,S010001251,서울온수초등학교,서울특별시 구로구 부일로 893,37.494168,126.826022,6,111,6,134,7,160,7.0,143.0,7.0,153.0,6.0,134.0,2,8,41,843,20.6,50,16.9
241,S010001252,서울우신초등학교,서울특별시 영등포구 신길로 190,37.510414000000004,126.911806,2,37,2,33,3,43,2.0,35.0,2.0,31.0,3.0,48.0,2,4,16,231,14.4,21,11.0
242,S010001253,서울윤중초등학교,서울특별시 영등포구 여의나루로2길 14,37.519335,126.923152,4,73,4,77,4,76,5.0,105.0,3.0,68.0,4.0,90.0,0,0,24,489,20.4,29,16.9
243,S010001254,서울정심초등학교,서울특별시 금천구 독산로78다길 89,37.4719923388705,126.908214556216,3,47,3,44,2,42,3.0,54.0,3.0,64.0,3.0,59.0,2,11,19,321,16.9,23,14.0
244,S010001255,서울탑동초등학교,서울특별시 금천구 탑골로 47-3,37.452517806966895,126.915367537286,4,76,4,69,4,78,5.0,94.0,4.0,76.0,4.0,83.0,2,12,27,488,18.1,32,15.3
245,S010001394,경희초등학교,서울특별시 동대문구 경희대로 26,37.594945,127.04909199999999,4,121,4,122,4,122,4.0,112.0,3.0,78.0,3.0,68.0,0,0,22,623,28.3,22,28.3
246,S010001395,금성초등학교,서울특별시 중랑구 신내로21길 55,37.615069299999995,127.09003059999999,4,121,4,122,4,121,4.0,108.0,3.0,88.0,3.0,72.0,0,0,22,632,28.7,43,14.7
247,S020000805,금성초등학교,부산광역시 금정구 중리1길 15,35.250782,129.058357,4,121,4,122,4,121,4.0,108.0,3.0,88.0,3.0,72.0,0,0,22,632,28.7,43,14.7
248,S060000492,금성초등학교,대전광역시 유성구 신성로72번길 5,36.389311,127.3500432,4,121,4,122,4,121,4.0,108.0,3.0,88.0,3.0,72.0,0,0,22,632,28.7,43,14.7
249,S090001504,금성초등학교,경기도 김포시 하성면 하성로 795번길 26,37.744881400000004,126.6324357,4,121,4,122,4,121,4.0,108.0,3.0,88.0,3.0,72.0,0,0,22,632,28.7,43,14.7
250,S110000683,금성초등학교,충청북도 제천시 금성면 국사봉로 1615,37.067456159373705,128.165291321312,4,121,4,122,4,121,4.0,108.0,3.0,88.0,3.0,72.0,0,0,22,632,28.7,43,14.7
251,S120000386,금성초등학교,충청남도 금산군 금성면 진산로 370,36.130590588413895,127.45476374158001,4,121,4,122,4,121,4.0,108.0,3.0,88.0,3.0,72.0,0,0,22,632,28.7,43,14.7
252,S120000596,금성초등학교,충청남도 아산시 인주면 인주로 129,36.84454,126.87978799999999,4,121,4,122,4,121,4.0,108.0,3.0,88.0,3.0,72.0,0,0,22,632,28.7,43,14.7
253,S140000785,금성초등학교,전라남도 담양군 금성면 석현길 18,35.3445293,127.025314,4,121,4,122,4,121,4.0,108.0,3.0,88.0,3.0,72.0,0,0,22,632,28.7,43,14.7
254,S140002029,금성초등학교,전라남도 진도군 군내면 금골길 58,34.537675,126.293038,4,121,4,122,4,121,4.0,108.0,3.0,88.0,3.0,72.0,0,0,22,632,28.7,43,14.7
255,S150003166,금성초등학교,경상북도 의성군 금성면 탑리길 131,36.262694,128.679607,4,121,4,122,4,121,4.0,108.0,3.0,88.0,3.0,72.0,0,0,22,632,28.7,43,14.7
256,S160001971,금성초등학교,경상남도 진주시 말티고개로123번길 19,35.198285999999996,128.114981,4,121,4,122,4,121,4.0,108.0,3.0,88.0,3.0,72.0,0,0,22,632,28.7,43,14.7
257,S010001395,금성초등학교,서울특별시 중랑구 신내로21길 55,37.615069299999995,127.09003059999999,1,12,1,9,1,10,1.0,13.0,1.0,20.0,1.0,14.0,1,2,7,80,11.4,9,8.9
258,S020000805,금성초등학교,부산광역시 금정구 중리1길 15,35.250782,129.058357,1,12,1,9,1,10,1.0,13.0,1.0,20.0,1.0,14.0,1,2,7,80,11.4,9,8.9
259,S060000492,금성초등학교,대전광역시 유성구 신성로72번길 5,36.389311,127.3500432,1,12,1,9,1,10,1.0,13.0,1.0,20.0,1.0,14.0,1,2,7,80,11.4,9,8.9
260,S090001504,금성초등학교,경기도 김포시 하성면 하성로 795번길 26,37.744881400000004,126.6324357,1,12,1,9,1,10,1.0,13.0,1.0,20.0,1.0,14.0,1,2,7,80,11.4,9,8.9
261,S110000683,금성초등학교,충청북도 제천시 금성면 국사봉로 1615,37.067456159373705,128.165291321312,1,12,1,9,1,10,1.0,13.0,1.0,20.0,1.0,14.0,1,2,7,80,11.4,9,8.9
262,S120000386,금성초등학교,충청남도 금산군 금성면 진산로 370,36.130590588413895,127.45476374158001,1,12,1,9,1,10,1.0,13.0,1.0,20.0,1.0,14.0,1,2,7,80,11.4,9,8.9
263,S120000596,금성초등학교,충청남도 아산시 인주면 인주로 129,36.84454,126.87978799999999,1,12,1,9,1,10,1.0,13.0,1.0,20.0,1.0,14.0,1,2,7,80,11.4,9,8.9
264,S140000785,금성초등학교,전라남도 담양군 금성면 석현길 18,35.3445293,127.025314,1,12,1,9,1,10,1.0,13.0,1.0,20.0,1.0,14.0,1,2,7,80,11.4,9,8.9
265,S140002029,금성초등학교,전라남도 진도군 군내면 금골길 58,34.537675,126.293038,1,12,1,9,1,10,1.0,13.0,1.0,20.0,1.0,14.0,1,2,7,80,11.4,9,8.9
266,S150003166,금성초등학교,경상북도 의성군 금성면 탑리길 131,36.262694,128.679607,1,12,1,9,1,10,1.0,13.0,1.0,20.0,1.0,14.0,1,2,7,80,11.4,9,8.9
267,S160001971,금성초등학교,경상남도 진주시 말티고개로123번길 19,35.198285999999996,128.114981,1,12,1,9,1,10,1.0,13.0,1.0,20.0,1.0,14.0,1,2,7,80,11.4,9,8.9
268,S010001395,금성초등학교,서울특별시 중랑구 신내로21길 55,37.615069299999995,127.09003059999999,4,77,4,69,4,79,5.0,93.0,4.0,75.0,6.0,119.0,1,4,28,516,18.4,37,13.9
269,S020000805,금성초등학교,부산광역시 금정구 중리1길 15,35.250782,129.058357,4,77,4,69,4,79,5.0,93.0,4.0,75.0,6.0,119.0,1,4,28,516,18.4,37,13.9
270,S060000492,금성초등학교,대전광역시 유성구 신성로72번길 5,36.389311,127.3500432,4,77,4,69,4,79,5.0,93.0,4.0,75.0,6.0,119.0,1,4,28,516,18.4,37,13.9
271,S090001504,금성초등학교,경기도 김포시 하성면 하성로 795번길 26,37.744881400000004,126.6324357,4,77,4,69,4,79,5.0,93.0,4.0,75.0,6.0,119.0,1,4,28,516,18.4,37,13.9
272,S110000683,금성초등학교,충청북도 제천시 금성면 국사봉로 1615,37.067456159373705,128.165291321312,4,77,4,69,4,79,5.0,93.0,4.0,75.0,6.0,119.0,1,4,28,516,18.4,37,13.9
273,S120000386,금성초등학교,충청남도 금산군 금성면 진산로 370,36.130590588413895,127.45476374158001,4,77,4,69,4,79,5.0,93.0,4.0,75.0,6.0,119.0,1,4,28,516,18.4,37,13.9
274,S120000596,금성초등학교,충청남도 아산시 인주면 인주로 129,36.84454,126.87978799999999,4,77,4,69,4,79,5.0,93.0,4.0,75.0,6.0,119.0,1,4,28,516,18.4,37,13.9
275,S140000785,금성초등학교,전라남도 담양군 금성면 석현길 18,35.3445293,127.025314,4,77,4,69,4,79,5.0,93.0,4.0,75.0,6.0,119.0,1,4,28,516,18.4,37,13.9
276,S140002029,금성초등학교,전라남도 진도군 군내면 금골길 58,34.537675,126.293038,4,77,4,69,4,79,5.0,93.0,4.0,75.0,6.0,119.0,1,4,28,516,18.4,37,13.9
277,S150003166,금성초등학교,경상북도 의성군 금성면 탑리길 131,36.262694,128.679607,4,77,4,69,4,79,5.0,93.0,4.0,75.0,6.0,119.0,1,4,28,516,18.4,37,13.9
278,S160001971,금성초등학교,경상남도 진주시 말티고개로123번길 19,35.198285999999996,128.114981,4,77,4,69,4,79,5.0,93.0,4.0,75.0,6.0,119.0,1,4,28,516,18.4,37,13.9
279,S010001395,금성초등학교,서울특별시 중랑구 신내로21길 55,37.615069299999995,127.09003059999999,1,6,1,7,1,12,1.0,14.0,1.0,13.0,1.0,8.0,0,0,6,60,10.0,7,8.6
280,S020000805,금성초등학교,부산광역시 금정구 중리1길 15,35.250782,129.058357,1,6,1,7,1,12,1.0,14.0,1.0,13.0,1.0,8.0,0,0,6,60,10.0,7,8.6
281,S060000492,금성초등학교,대전광역시 유성구 신성로72번길 5,36.389311,127.3500432,1,6,1,7,1,12,1.0,14.0,1.0,13.0,1.0,8.0,0,0,6,60,10.0,7,8.6
282,S090001504,금성초등학교,경기도 김포시 하성면 하성로 795번길 26,37.744881400000004,126.6324357,1,6,1,7,1,12,1.0,14.0,1.0,13.0,1.0,8.0,0,0,6,60,10.0,7,8.6
283,S110000683,금성초등학교,충청북도 제천시 금성면 국사봉로 1615,37.067456159373705,128.165291321312,1,6,1,7,1,12,1.0,14.0,1.0,13.0,1.0,8.0,0,0,6,60,10.0,7,8.6
284,S120000386,금성초등학교,충청남도 금산군 금성면 진산로 370,36.130590588413895,127.45476374158001,1,6,1,7,1,12,1.0,14.0,1.0,13.0,1.0,8.0,0,0,6,60,10.0,7,8.6
285,S120000596,금성초등학교,충청남도 아산시 인주면 인주로 129,36.84454,126.87978799999999,1,6,1,7,1,12,1.0,14.0,1.0,13.0,1.0,8.0,0,0,6,60,10.0,7,8.6
286,S140000785,금성초등학교,전라남도 담양군 금성면 석현길 18,35.3445293,127.025314,1,6,1,7,1,12,1.0,14.0,1.0,13.0,1.0,8.0,0,0,6,60,10.0,7,8.6
287,S140002029,금성초등학교,전라남도 진도군 군내면 금골길 58,34.537675,126.293038,1,6,1,7,1,12,1.0,14.0,1.0,13.0,1.0,8.0,0,0,6,60,10.0,7,8.6
288,S150003166,금성초등학교,경상북도 의성군 금성면 탑리길 131,36.262694,128.679607,1,6,1,7,1,12,1.0,14.0,1.0,13.0,1.0,8.0,0,0,6,60,10.0,7,8.6
289,S160001971,금성초등학교,경상남도 진주시 말티고개로123번길 19,35.198285999999996,128.114981,1,6,1,7,1,12,1.0,14.0,1.0,13.0,1.0,8.0,0,0,6,60,10.0,7,8.6
290,S010001395,금성초등학교,서울특별시 중랑구 신내로21길 55,37.615069299999995,127.09003059999999,0,0,1,6,1,5,1.0,4.0,1.0,3.0,1.0,9.0,1,2,6,29,4.8,7,4.1
291,S020000805,금성초등학교,부산광역시 금정구 중리1길 15,35.250782,129.058357,0,0,1,6,1,5,1.0,4.0,1.0,3.0,1.0,9.0,1,2,6,29,4.8,7,4.1
292,S060000492,금성초등학교,대전광역시 유성구 신성로72번길 5,36.389311,127.3500432,0,0,1,6,1,5,1.0,4.0,1.0,3.0,1.0,9.0,1,2,6,29,4.8,7,4.1
293,S090001504,금성초등학교,경기도 김포시 하성면 하성로 795번길 26,37.744881400000004,126.6324357,0,0,1,6,1,5,1.0,4.0,1.0,3.0,1.0,9.0,1,2,6,29,4.8,7,4.1
294,S110000683,금성초등학교,충청북도 제천시 금성면 국사봉로 1615,37.067456159373705,128.165291321312,0,0,1,6,1,5,1.0,4.0,1.0,3.0,1.0,9.0,1,2,6,29,4.8,7,4.1
295,S120000386,금성초등학교,충청남도 금산군 금성면 진산로 370,36.130590588413895,127.45476374158001,0,0,1,6,1,5,1.0,4.0,1.0,3.0,1.0,9.0,1,2,6,29,4.8,7,4.1
296,S120000596,금성초등학교,충청남도 아산시 인주면 인주로 129,36.84454,126.87978799999999,0,0,1,6,1,5,1.0,4.0,1.0,3.0,1.0,9.0,1,2,6,29,4.8,7,4.1
297,S140000785,금성초등학교,전라남도 담양군 금성면 석현길 18,35.3445293,127.025314,0,0,1,6,1,5,1.0,4.0,1.0,3.0,1.0,9.0,1,2,6,29,4.8,7,4.1
298,S140002029,금성초등학교,전라남도 진도군 군내면 금골길 58,34.537675,126.293038,0,0,1,6,1,5,1.0,4.0,1.0,3.0,1.0,9.0,1,2,6,29,4.8,7,4.1
299,S150003166,금성초등학교,경상북도 의성군 금성면 탑리길 131,36.262694,128.679607,0,0,1,6,1,5,1.0,4.0,1.0,3.0,1.0,9.0,1,2,6,29,4.8,7,4.1
300,S160001971,금성초등학교,경상남도 진주시 말티고개로123번길 19,35.198285999999996,128.114981,0,0,1,6,1,5,1.0,4.0,1.0,3.0,1.0,9.0,1,2,6,29,4.8,7,4.1
301,S010001395,금성초등학교,서울특별시 중랑구 신내로21길 55,37.615069299999995,127.09003059999999,1,4,1,5,1,5,1.0,8.0,1.0,5.0,1.0,9.0,1,3,7,39,5.6,8,4.9
302,S020000805,금성초등학교,부산광역시 금정구 중리1길 15,35.250782,129.058357,1,4,1,5,1,5,1.0,8.0,1.0,5.0,1.0,9.0,1,3,7,39,5.6,8,4.9
303,S060000492,금성초등학교,대전광역시 유성구 신성로72번길 5,36.389311,127.3500432,1,4,1,5,1,5,1.0,8.0,1.0,5.0,1.0,9.0,1,3,7,39,5.6,8,4.9
304,S090001504,금성초등학교,경기도 김포시 하성면 하성로 795번길 26,37.744881400000004,126.6324357,1,4,1,5,1,5,1.0,8.0,1.0,5.0,1.0,9.0,1,3,7,39,5.6,8,4.9
305,S110000683,금성초등학교,충청북도 제천시 금성면 국사봉로 1615,37.067456159373705,128.165291321312,1,4,1,5,1,5,1.0,8.0,1.0,5.0,1.0,9.0,1,3,7,39,5.6,8,4.9
306,S120000386,금성초등학교,충청남도 금산군 금성면 진산로 370,36.130590588413895,127.45476374158001,1,4,1,5,1,5,1.0,8.0,1.0,5.0,1.0,9.0,1,3,7,39,5.6,8,4.9
307,S120000596,금성초등학교,충청남도 아산시 인주면 인주로 129,36.84454,126.87978799999999,1,4,1,5,1,5,1.0,8.0,1.0,5.0,1.0,9.0,1,3,7,39,5.6,8,4.9
308,S140000785,금성초등학교,전라남도 담양군 금성면 석현길 18,35.3445293,127.025314,1,4,1,5,1,5,1.0,8.0,1.0,5.0,1.0,9.0,1,3,7,39,5.6,8,4.9
309,S140002029,금성초등학교,전라남도 진도군 군내면 금골길 58,34.537675,126.293038,1,4,1,5,1,5,1.0,8.0,1.0,5.0,1.0,9.0,1,3,7,39,5.6,8,4.9
310,S150003166,금성초등학교,경상북도 의성군 금성면 탑리길 131,36.262694,128.679607,1,4,1,5,1,5,1.0,8.0,1.0,5.0,1.0,9.0,1,3,7,39,5.6,8,4.9
311,S160001971,금성초등학교,경상남도 진주시 말티고개로123번길 19,35.198285999999996,128.114981,1,4,1,5,1,5,1.0,8.0,1.0,5.0,1.0,9.0,1,3,7,39,5.6,8,4.9
312,S010001395,금성초등학교,서울특별시 중랑구 신내로21길 55,37.615069299999995,127.09003059999999,1,10,1,14,1,12,1.0,11.0,1.0,12.0,1.0,10.0,0,0,6,69,11.5,7,9.9
313,S020000805,금성초등학교,부산광역시 금정구 중리1길 15,35.250782,129.058357,1,10,1,14,1,12,1.0,11.0,1.0,12.0,1.0,10.0,0,0,6,69,11.5,7,9.9
314,S060000492,금성초등학교,대전광역시 유성구 신성로72번길 5,36.389311,127.3500432,1,10,1,14,1,12,1.0,11.0,1.0,12.0,1.0,10.0,0,0,6,69,11.5,7,9.9
315,S090001504,금성초등학교,경기도 김포시 하성면 하성로 795번길 26,37.744881400000004,126.6324357,1,10,1,14,1,12,1.0,11.0,1.0,12.0,1.0,10.0,0,0,6,69,11.5,7,9.9
316,S110000683,금성초등학교,충청북도 제천시 금성면 국사봉로 1615,37.067456159373705,128.165291321312,1,10,1,14,1,12,1.0,11.0,1.0,12.0,1.0,10.0,0,0,6,69,11.5,7,9.9
317,S120000386,금성초등학교,충청남도 금산군 금성면 진산로 370,36.130590588413895,127.45476374158001,1,10,1,14,1,12,1.0,11.0,1.0,12.0,1.0,10.0,0,0,6,69,11.5,7,9.9
318,S120000596,금성초등학교,충청남도 아산시 인주면 인주로 129,36.84454,126.87978799999999,1,10,1,14,1,12,1.0,11.0,1.0,12.0,1.0,10.0,0,0,6,69,11.5,7,9.9
319,S140000785,금성초등학교,전라남도 담양군 금성면 석현길 18,35.3445293,127.025314,1,10,1,14,1,12,1.0,11.0,1.0,12.0,1.0,10.0,0,0,6,69,11.5,7,9.9
320,S140002029,금성초등학교,전라남도 진도군 군내면 금골길 58,34.537675,126.293038,1,10,1,14,1,12,1.0,11.0,1.0,12.0,1.0,10.0,0,0,6,69,11.5,7,9.9
321,S150003166,금성초등학교,경상북도 의성군 금성면 탑리길 131,36.262694,128.679607,1,10,1,14,1,12,1.0,11.0,1.0,12.0,1.0,10.0,0,0,6,69,11.5,7,9.9
322,S160001971,금성초등학교,경상남도 진주시 말티고개로123번길 19,35.198285999999996,128.114981,1,10,1,14,1,12,1.0,11.0,1.0,12.0,1.0,10.0,0,0,6,69,11.5,7,9.9
323,S010001395,금성초등학교,서울특별시 중랑구 신내로21길 55,37.615069299999995,127.09003059999999,1,7,1,3,1,5,1.0,13.0,1.0,6.0,1.0,9.0,1,1,7,44,6.3,8,5.5
324,S020000805,금성초등학교,부산광역시 금정구 중리1길 15,35.250782,129.058357,1,7,1,3,1,5,1.0,13.0,1.0,6.0,1.0,9.0,1,1,7,44,6.3,8,5.5
325,S060000492,금성초등학교,대전광역시 유성구 신성로72번길 5,36.389311,127.3500432,1,7,1,3,1,5,1.0,13.0,1.0,6.0,1.0,9.0,1,1,7,44,6.3,8,5.5
326,S090001504,금성초등학교,경기도 김포시 하성면 하성로 795번길 26,37.744881400000004,126.6324357,1,7,1,3,1,5,1.0,13.0,1.0,6.0,1.0,9.0,1,1,7,44,6.3,8,5.5
327,S110000683,금성초등학교,충청북도 제천시 금성면 국사봉로 1615,37.067456159373705,128.165291321312,1,7,1,3,1,5,1.0,13.0,1.0,6.0,1.0,9.0,1,1,7,44,6.3,8,5.5
328,S120000386,금성초등학교,충청남도 금산군 금성면 진산로 370,36.130590588413895,127.45476374158001,1,7,1,3,1,5,1.0,13.0,1.0,6.0,1.0,9.0,1,1,7,44,6.3,8,5.5
329,S120000596,금성초등학교,충청남도 아산시 인주면 인주로 129,36.84454,126.87978799999999,1,7,1,3,1,5,1.0,13.0,1.0,6.0,1.0,9.0,1,1,7,44,6.3,8,5.5
330,S140000785,금성초등학교,전라남도 담양군 금성면 석현길 18,35.3445293,127.025314,1,7,1,3,1,5,1.0,13.0,1.0,6.0,1.0,9.0,1,1,7,44,6.3,8,5.5
331,S140002029,금성초등학교,전라남도 진도군 군내면 금골길 58,34.537675,126.293038,1,7,1,3,1,5,1.0,13.0,1.0,6.0,1.0,9.0,1,1,7,44,6.3,8,5.5
332,S150003166,금성초등학교,경상북도 의성군 금성면 탑리길 131,36.262694,128.679607,1,7,1,3,1,5,1.0,13.0,1.0,6.0,1.0,9.0,1,1,7,44,6.3,8,5.5
333,S160001971,금성초등학교,경상남도 진주시 말티고개로123번길 19,35.198285999999996,128.114981,1,7,1,3,1,5,1.0,13.0,1.0,6.0,1.0,9.0,1,1,7,44,6.3,8,5.5
334,S010001395,금성초등학교,서울특별시 중랑구 신내로21길 55,37.615069299999995,127.09003059999999,1,3,1,5,1,3,1.0,5.0,1.0,5.0,1.0,3.0,0,0,6,24,4.0,7,3.4
335,S020000805,금성초등학교,부산광역시 금정구 중리1길 15,35.250782,129.058357,1,3,1,5,1,3,1.0,5.0,1.0,5.0,1.0,3.0,0,0,6,24,4.0,7,3.4
336,S060000492,금성초등학교,대전광역시 유성구 신성로72번길 5,36.389311,127.3500432,1,3,1,5,1,3,1.0,5.0,1.0,5.0,1.0,3.0,0,0,6,24,4.0,7,3.4
337,S090001504,금성초등학교,경기도 김포시 하성면 하성로 795번길 26,37.744881400000004,126.6324357,1,3,1,5,1,3,1.0,5.0,1.0,5.0,1.0,3.0,0,0,6,24,4.0,7,3.4
338,S110000683,금성초등학교,충청북도 제천시 금성면 국사봉로 1615,37.067456159373705,128.165291321312,1,3,1,5,1,3,1.0,5.0,1.0,5.0,1.0,3.0,0,0,6,24,4.0,7,3.4
339,S120000386,금성초등학교,충청남도 금산군 금성면 진산로 370,36.130590588413895,127.45476374158001,1,3,1,5,1,3,1.0,5.0,1.0,5.0,1.0,3.0,0,0,6,24,4.0,7,3.4
340,S120000596,금성초등학교,충청남도 아산시 인주면 인주로 129,36.84454,126.87978799999999,1,3,1,5,1,3,1.0,5.0,1.0,5.0,1.0,3.0,0,0,6,24,4.0,7,3.4
341,S140000785,금성초등학교,전라남도 담양군 금성면 석현길 18,35.3445293,127.025314,1,3,1,5,1,3,1.0,5.0,1.0,5.0,1.0,3.0,0,0,6,24,4.0,7,3.4
342,S140002029,금성초등학교,전라남도 진도군 군내면 금골길 58,34.537675,126.293038,1,3,1,5,1,3,1.0,5.0,1.0,5.0,1.0,3.0,0,0,6,24,4.0,7,3.4
343,S150003166,금성초등학교,경상북도 의성군 금성면 탑리길 131,36.262694,128.679607,1,3,1,5,1,3,1.0,5.0,1.0,5.0,1.0,3.0,0,0,6,24,4.0,7,3.4
344,S160001971,금성초등학교,경상남도 진주시 말티고개로123번길 19,35.198285999999996,128.114981,1,3,1,5,1,3,1.0,5.0,1.0,5.0,1.0,3.0,0,0,6,24,4.0,7,3.4
345,S010001395,금성초등학교,서울특별시 중랑구 신내로21길 55,37.615069299999995,127.09003059999999,1,9,1,11,1,10,1.0,8.0,1.0,14.0,1.0,11.0,1,4,7,67,9.6,8,8.4
346,S020000805,금성초등학교,부산광역시 금정구 중리1길 15,35.250782,129.058357,1,9,1,11,1,10,1.0,8.0,1.0,14.0,1.0,11.0,1,4,7,67,9.6,8,8.4
347,S060000492,금성초등학교,대전광역시 유성구 신성로72번길 5,36.389311,127.3500432,1,9,1,11,1,10,1.0,8.0,1.0,14.0,1.0,11.0,1,4,7,67,9.6,8,8.4
348,S090001504,금성초등학교,경기도 김포시 하성면 하성로 795번길 26,37.744881400000004,126.6324357,1,9,1,11,1,10,1.0,8.0,1.0,14.0,1.0,11.0,1,4,7,67,9.6,8,8.4
349,S110000683,금성초등학교,충청북도 제천시 금성면 국사봉로 1615,37.067456159373705,128.165291321312,1,9,1,11,1,10,1.0,8.0,1.0,14.0,1.0,11.0,1,4,7,67,9.6,8,8.4
350,S120000386,금성초등학교,충청남도 금산군 금성면 진산로 370,36.130590588413895,127.45476374158001,1,9,1,11,1,10,1.0,8.0,1.0,14.0,1.0,11.0,1,4,7,67,9.6,8,8.4
351,S120000596,금성초등학교,충청남도 아산시 인주면 인주로 129,36.84454,126.87978799999999,1,9,1,11,1,10,1.0,8.0,1.0,14.0,1.0,11.0,1,4,7,67,9.6,8,8.4
352,S140000785,금성초등학교,전라남도 담양군 금성면 석현길 18,35.3445293,127.025314,1,9,1,11,1,10,1.0,8.0,1.0,14.0,1.0,11.0,1,4,7,67,9.6,8,8.4
353,S140002029,금성초등학교,전라남도 진도군 군내면 금골길 58,34.537675,126.293038,1,9,1,11,1,10,1.0,8.0,1.0,14.0,1.0,11.0,1,4,7,67,9.6,8,8.4
354,S150003166,금성초등학교,경상북도 의성군 금성면 탑리길 131,36.262694,128.679607,1,9,1,11,1,10,1.0,8.0,1.0,14.0,1.0,11.0,1,4,7,67,9.6,8,8.4
355,S160001971,금성초등학교,경상남도 진주시 말티고개로123번길 19,35.198285999999996,128.114981,1,9,1,11,1,10,1.0,8.0,1.0,14.0,1.0,11.0,1,4,7,67,9.6,8,8.4
356,S010001395,금성초등학교,서울특별시 중랑구 신내로21길 55,37.615069299999995,127.09003059999999,3,53,2,49,3,67,3.0,69.0,3.0,82.0,4.0,88.0,1,6,19,414,21.8,22,18.8
357,S020000805,금성초등학교,부산광역시 금정구 중리1길 15,35.250782,129.058357,3,53,2,49,3,67,3.0,69.0,3.0,82.0,4.0,88.0,1,6,19,414,21.8,22,18.8
358,S060000492,금성초등학교,대전광역시 유성구 신성로72번길 5,36.389311,127.3500432,3,53,2,49,3,67,3.0,69.0,3.0,82.0,4.0,88.0,1,6,19,414,21.8,22,18.8
359,S090001504,금성초등학교,경기도 김포시 하성면 하성로 795번길 26,37.744881400000004,126.6324357,3,53,2,49,3,67,3.0,69.0,3.0,82.0,4.0,88.0,1,6,19,414,21.8,22,18.8
360,S110000683,금성초등학교,충청북도 제천시 금성면 국사봉로 1615,37.067456159373705,128.165291321312,3,53,2,49,3,67,3.0,69.0,3.0,82.0,4.0,88.0,1,6,19,414,21.8,22,18.8
361,S120000386,금성초등학교,충청남도 금산군 금성면 진산로 370,36.130590588413895,127.45476374158001,3,53,2,49,3,67,3.0,69.0,3.0,82.0,4.0,88.0,1,6,19,414,21.8,22,18.8
362,S120000596,금성초등학교,충청남도 아산시 인주면 인주로 129,36.84454,126.87978799999999,3,53,2,49,3,67,3.0,69.0,3.0,82.0,4.0,88.0,1,6,19,414,21.8,22,18.8
363,S140000785,금성초등학교,전라남도 담양군 금성면 석현길 18,35.3445293,127.025314,3,53,2,49,3,67,3.0,69.0,3.0,82.0,4.0,88.0,1,6,19,414,21.8,22,18.8
364,S140002029,금성초등학교,전라남도 진도군 군내면 금골길 58,34.537675,126.293038,3,53,2,49,3,67,3.0,69.0,3.0,82.0,4.0,88.0,1,6,19,414,21.8,22,18.8
365,S150003166,금성초등학교,경상북도 의성군 금성면 탑리길 131,36.262694,128.679607,3,53,2,49,3,67,3.0,69.0,3.0,82.0,4.0,88.0,1,6,19,414,21.8,22,18.8
366,S160001971,금성초등학교,경상남도 진주시 말티고개로123번길 19,35.198285999999996,128.114981,3,53,2,49,3,67,3.0,69.0,3.0,82.0,4.0,88.0,1,6,19,414,21.8,22,18.8
367,S010001396,서울삼육초등학교,서울특별시 동대문구 회기로10길 63,37.5887703315074,127.04717356048,4,120,4,122,4,120,4.0,119.0,4.0,116.0,4.0,119.0,0,0,24,716,29.8,25,28.6
368,S010001397,서울군자초등학교,서울특별시 동대문구 한천로6길 21,37.5641238492645,127.060523073374,3,53,3,53,2,34,2.0,47.0,3.0,47.0,3.0,53.0,2,11,18,298,16.6,21,14.2
369,S010001398,서울답십리초등학교,서울특별시 동대문구 전농로3길 23,37.568665,127.05561599999999,7,163,8,174,6,131,8.0,166.0,6.0,132.0,7.0,141.0,2,6,44,913,20.8,54,16.9
370,S010001399,서울동답초등학교,서울특별시 동대문구 답십리로60길 12,37.5715029534551,127.06403364286999,4,89,3,77,4,82,4.0,81.0,4.0,85.0,4.0,79.0,0,0,23,493,21.4,28,17.6
371,S010001400,서울동원초등학교,서울특별시 중랑구 송림길 114,37.6045765325966,127.10449141657699,3,57,3,54,3,57,4.0,84.0,3.0,56.0,3.0,65.0,2,10,21,383,18.2,25,15.3
372,S010001401,서울망우초등학교,서울특별시 중랑구 망우로72길 49,37.59834,127.10358000000001,3,58,2,45,3,52,3.0,61.0,3.0,63.0,3.0,62.0,1,4,18,345,19.2,21,16.4
373,S010001402,서울면남초등학교,서울특별시 중랑구 면목로30나길 38,37.577034999999995,127.08815700000001,3,59,3,46,3,51,3.0,59.0,3.0,53.0,2.0,49.0,2,4,19,321,16.9,23,14.0
374,S010001403,서울면동초등학교,서울특별시 중랑구 면목로57길 32,37.585353054459,127.086594119833,10,199,7,164,7,162,7.0,167.0,8.0,172.0,7.0,146.0,2,9,48,1019,21.2,57,17.9
375,S010001404,서울면목초등학교,서울특별시 중랑구 면목로 434,37.5906972297102,127.08728872946001,5,104,4,81,5,91,6.0,105.0,5.0,98.0,6.0,123.0,2,6,33,608,18.4,39,15.6
376,S010001405,서울면북초등학교,서울특별시 중랑구 용마공원로5길 32,37.5944177943231,127.10354870553999,2,22,2,17,2,19,1.0,18.0,2.0,21.0,2.0,26.0,1,6,12,129,10.8,15,8.6
377,S010001406,서울면일초등학교,서울특별시 중랑구 용마산로100길 13,37.5920424099565,127.099795279575,5,106,5,93,4,87,6.0,121.0,6.0,117.0,6.0,110.0,2,13,34,647,19.0,42,15.4
378,S010001407,서울면중초등학교,서울특별시 중랑구 용마산로70길 43,37.582440530435704,127.0965490647,4,66,2,43,3,42,3.0,45.0,2.0,42.0,3.0,43.0,1,6,18,287,15.9,22,13.0
379,S010001408,서울묵동초등학교,서울특별시 중랑구 동일로138길 27,37.6033589544796,127.08082585795201,3,63,3,58,3,60,4.0,86.0,4.0,85.0,4.0,63.0,2,7,23,422,18.3,27,15.6
380,S010001409,서울배봉초등학교,서울특별시 동대문구 사가정로 193,37.580154,127.065973,4,73,3,69,3,77,3.0,65.0,4.0,100.0,3.0,73.0,2,3,22,460,20.9,25,18.4
381,S010001410,서울봉화초등학교,서울특별시 중랑구 신내로15길 110,37.61351,127.09239199999999,4,75,5,86,4,88,4.0,86.0,4.0,81.0,5.0,90.0,3,15,29,521,18.0,35,14.9
382,S010001411,서울상봉초등학교,서울특별시 중랑구 동일로126가길 11,37.597980214036795,127.083170854391,5,89,5,109,5,95,5.0,97.0,5.0,91.0,5.0,98.0,2,7,32,586,18.3,36,16.3
383,S010001412,서울신내초등학교,서울특별시 중랑구 용마산로125나길 22,37.6049335018213,127.10012959362,5,109,5,89,4,92,6.0,134.0,6.0,123.0,7.0,151.0,2,7,35,705,20.1,42,16.8
384,S010001413,서울신답초등학교,서울특별시 동대문구 천호대로 177,37.5727054198896,127.042961461586,5,111,4,89,3,77,3.0,75.0,3.0,66.0,4.0,78.0,2,3,24,499,20.8,28,17.8
385,S010001414,서울신묵초등학교,서울특별시 중랑구 동일로149길 46,37.6065229379619,127.075837191835,3,58,3,62,3,49,4.0,71.0,3.0,69.0,3.0,60.0,1,5,20,374,18.7,24,15.6
386,S010001415,서울신현초등학교,서울특별시 중랑구 봉화산로 188,37.6056743,127.0936591,4,76,4,84,3,66,4.0,76.0,4.0,88.0,4.0,87.0,1,5,24,482,20.1,27,17.9
387,S010001416,서울안평초등학교,서울특별시 동대문구 장한로14길 61,37.5659698352076,127.072033650453,7,191,7,166,7,166,7.0,178.0,8.0,181.0,7.0,169.0,1,9,44,1060,24.1,56,18.9
388,S010001417,서울용두초등학교,서울특별시 동대문구 천호대로13길 43,37.5764147141891,127.02838730663099,4,77,3,65,3,73,4.0,78.0,3.0,68.0,3.0,70.0,1,2,21,433,20.6,25,17.3
389,S010001418,서울원묵초등학교,서울특별시 중랑구 숙선옹주로 109,37.6177489018345,127.08681290504101,7,148,7,145,9,201,8.0,194.0,7.0,162.0,8.0,204.0,1,7,47,1061,22.6,57,18.6
390,S010001419,서울이문초등학교,서울특별시 동대문구 신이문로 16,37.6022,127.064343,6,114,5,105,6,125,6.0,138.0,6.0,144.0,7.0,145.0,3,15,39,786,20.2,46,17.1
391,S010001420,서울장평초등학교,서울특별시 동대문구 답십리로,37.573776,127.073311,8,182,8,198,6,150,8.0,200.0,6.0,169.0,8.0,187.0,2,9,46,1095,23.8,56,19.6
392,S010001421,서울전곡초등학교,서울특별시 동대문구 전농로 172,37.580525,127.05645,2,43,2,37,3,49,3.0,61.0,3.0,62.0,4.0,66.0,2,7,19,325,17.1,23,14.1
393,S010001422,서울전농초등학교,서울특별시 동대문구 사가정로 66,37.574552000000004,127.054227,8,204,7,190,7,163,7.0,180.0,6.0,156.0,6.0,135.0,2,8,43,1036,24.1,55,18.8
394,S010001423,서울전동초등학교,서울특별시 동대문구 전농로16길 61,37.5790838251106,127.06080688238501,5,105,6,119,5,102,5.0,116.0,5.0,120.0,6.0,126.0,2,8,34,696,20.5,43,16.2
395,S010001424,서울종암초등학교,서울특별시 동대문구 무학로44길 25,37.5823063288993,127.031858420499,4,75,4,64,4,77,4.0,70.0,4.0,76.0,5.0,97.0,1,5,26,464,17.8,30,15.5
396,S010001425,서울중곡초등학교,서울특별시 중랑구 면목로23길 20,37.574723,127.083504,7,142,5,106,7,145,7.0,150.0,7.0,152.0,7.0,140.0,2,7,42,842,20.0,51,16.5
397,S010001426,서울중랑초등학교,서울특별시 중랑구 봉우재로6길 26,37.589663810150704,127.07550305221001,5,109,5,109,5,103,6.0,126.0,5.0,100.0,5.0,100.0,2,9,33,656,19.9,40,16.4
398,S010001427,서울중목초등학교,서울특별시 중랑구 동일로 665,37.5900865407037,127.079371271272,4,90,3,75,3,63,3.0,66.0,3.0,48.0,3.0,57.0,2,6,21,405,19.3,24,16.9
399,S010001428,서울중화초등학교,서울특별시 중랑구 신내로7가길 22,37.602920273105,127.094066012412,8,188,8,177,8,195,9.0,223.0,9.0,206.0,9.0,226.0,2,7,53,1222,23.1,63,19.4
400,S010001429,서울중흥초등학교,서울특별시 중랑구 봉화산로 82,37.6016735855106,127.084144328629,2,31,2,29,2,41,2.0,25.0,2.0,27.0,2.0,37.0,3,13,15,203,13.5,18,11.3
401,S010001430,서울청량초등학교,서울특별시 동대문구 회기로25길 31,37.5923092187862,127.05590802574699,5,106,4,83,5,108,5.0,113.0,6.0,115.0,6.0,126.0,2,4,33,655,19.8,41,16.0
402,S010001431,서울홍릉초등학교,서울특별시 동대문구 회기로 90,37.591592,127.04718999999999,3,62,3,54,3,50,3.0,68.0,3.0,64.0,3.0,51.0,1,4,19,353,18.6,22,16.0
403,S010001432,서울홍파초등학교,서울특별시 동대문구 고산자로 518,37.586203511572,127.03951827546601,2,30,2,33,2,38,3.0,40.0,3.0,37.0,2.0,33.0,2,9,16,220,13.8,21,10.5
404,S010001433,서울휘경초등학교,서울특별시 동대문구 망우로6길 48,37.585762200000005,127.05811609999998,3,47,2,50,2,36,2.0,46.0,3.0,52.0,3.0,48.0,2,12,17,291,17.1,21,13.9
405,S010001434,은석초등학교,서울특별시 동대문구 장안벚꽃로 205,37.578434,127.075702,4,121,4,121,4,122,4.0,121.0,4.0,98.0,4.0,93.0,0,0,24,676,28.2,63,10.7
406,S120000786,은석초등학교,충청남도 천안시 동남구 북면 용암3길 10,36.7882269,127.25771609999998,4,121,4,121,4,122,4.0,121.0,4.0,98.0,4.0,93.0,0,0,24,676,28.2,63,10.7
407,S010001434,은석초등학교,서울특별시 동대문구 장안벚꽃로 205,37.578434,127.075702,1,8,1,12,1,5,1.0,12.0,1.0,10.0,1.0,16.0,0,0,6,63,10.5,8,7.9
408,S120000786,은석초등학교,충청남도 천안시 동남구 북면 용암3길 10,36.7882269,127.25771609999998,1,8,1,12,1,5,1.0,12.0,1.0,10.0,1.0,16.0,0,0,6,63,10.5,8,7.9
409,S010001576,서울강남초등학교,서울특별시 동작구 강남초등길 15,37.505891999999996,126.953153,7,149,5,103,6,134,6.0,135.0,6.0,134.0,5.0,120.0,2,10,37,785,21.2,43,18.3
410,S010001577,서울관악초등학교,서울 관악구 청룡4길 49,37.480703000000005,126.94331799999999,6,103,4,84,4,94,5.0,95.0,4.0,96.0,4.0,85.0,2,14,29,571,19.7,33,17.3
411,S010001578,서울구암초등학교,서울특별시 관악구 구암길 1,37.48,126.94,9,229,8,204,9,227,10.0,262.0,10.0,258.0,11.0,276.0,2,8,59,1464,24.8,75,19.5
412,S010001579,서울난곡초등학교,서울특별시 관악구 난곡로35길 102,37.469129556592,126.91634359208099,3,58,2,44,3,61,2.0,46.0,4.0,68.0,3.0,63.0,2,8,19,348,18.3,22,15.8
413,S010001580,서울난우초등학교,서울특별시 관악구 난우길 40,37.477123,126.917524,5,103,5,106,5,103,7.0,135.0,5.0,113.0,6.0,136.0,2,11,35,707,20.2,42,16.8
414,S010001581,서울난향초등학교,서울특별시 관악구 난향길 9,37.4624143,126.9180741,5,103,6,123,6,132,7.0,150.0,6.0,139.0,6.0,123.0,2,9,38,779,20.5,45,17.3
415,S010001582,서울남부초등학교,서울특별시 관악구 남부순환로163길 14,37.4851210569861,126.922182643345,5,100,3,73,4,85,4.0,78.0,4.0,78.0,4.0,75.0,2,7,26,496,19.1,31,16.0
416,S010001583,서울남사초등학교,서울특별시 동작구 동작대로13길 22,37.482523,126.978839,5,104,4,91,4,78,4.0,84.0,4.0,88.0,4.0,77.0,1,5,26,527,20.3,30,17.6
417,S010001584,서울남성초등학교,서울특별시 동작구 사당로23길 57-14,37.4845963277006,126.97548720481899,5,80,4,93,4,81,4.0,88.0,5.0,95.0,5.0,90.0,2,10,29,537,18.5,34,15.8
418,S010001585,서울노량진초등학교,서울특별시 동작구 장승배기로 160,37.5117511917055,126.940822237736,2,33,3,42,2,31,2.0,39.0,2.0,37.0,3.0,51.0,2,9,16,242,15.1,21,11.5
419,S010001586,서울당곡초등학교,서울특별시 관악구 보라매로2길 23,37.4901,126.92991,7,127,4,92,4,86,5.0,99.0,5.0,100.0,5.0,106.0,2,6,32,616,19.3,37,16.6
420,S010001587,서울대림초등학교,서울특별시 동작구 대방동1길 22,37.500823,126.92523500000001,9,189,7,157,8,164,8.0,173.0,9.0,171.0,9.0,185.0,0,0,50,1039,20.8,58,17.9
421,S010001588,서울동작초등학교,서울특별시 동작구 동작대로29길 214,37.4941147813449,126.976510867416,6,114,4,99,4,90,4.0,78.0,3.0,72.0,3.0,72.0,1,2,25,527,21.1,29,18.2
422,S010001589,서울문창초등학교,서울특별시 동작구 신대방2길 14,37.4889831201295,126.91484246223,6,88,3,51,3,62,3.0,50.0,5.0,86.0,4.0,66.0,2,10,26,413,15.9,31,13.3
423,S010001590,서울미성초등학교,서울특별시 관악구 문성로 79,37.478137700000005,126.91265530000001,7,131,6,122,5,105,6.0,139.0,5.0,114.0,5.0,115.0,2,5,36,731,20.3,41,17.8
424,S010001591,서울본동초등학교,서울특별시 동작구 노량진로26길 16-40,37.5099261605201,126.953853326485,2,27,2,23,1,22,1.0,16.0,1.0,12.0,1.0,15.0,1,5,9,120,13.3,13,9.2
425,S010001592,서울봉천초등학교,서울특별시 관악구 행운1라길 17,37.4832687919071,126.95818878628799,6,117,5,112,5,113,6.0,127.0,6.0,131.0,6.0,124.0,2,5,36,729,20.3,44,16.6
426,S010001593,서울사당초등학교,서울특별시 관악구 남현4길 51,37.4738378145896,126.973351809303,6,108,5,113,4,82,5.0,94.0,5.0,109.0,4.0,74.0,2,10,31,590,19.0,37,15.9
427,S010001594,서울삼성초등학교,서울특별시 관악구 대학7길 52,37.468287,126.941004,2,40,3,49,4,74,3.0,59.0,4.0,79.0,3.0,51.0,1,6,20,358,17.9,24,14.9
428,S010001595,서울상도초등학교,서울특별시 동작구 성대로21길 62,37.5003462392092,126.937271162436,7,135,6,127,6,133,7.0,144.0,7.0,146.0,8.0,172.0,2,11,43,868,20.2,51,17.0
429,S010001596,서울신길초등학교,서울특별시 동작구 알마타길 16,37.5100779624266,126.92629185347799,6,135,6,153,7,152,7.0,174.0,9.0,222.0,10.0,250.0,2,11,47,1097,23.3,57,19.2
430,S010001597,서울신남성초등학교,서울특별시 동작구 사당로 146,37.489022999999996,126.965034,5,94,4,97,4,78,4.0,73.0,4.0,90.0,4.0,82.0,1,3,26,517,19.9,30,17.2
431,S010001598,서울신림초등학교,서울특별시 관악구 문성로28길 31,37.4773,126.92726,5,87,4,83,5,110,4.0,98.0,5.0,97.0,4.0,98.0,2,8,29,581,20.0,35,16.6
432,S010001599,서울신봉초등학교,서울특별시 관악구 양녕로6나길 1,37.4855755365031,126.949390820858,2,38,3,47,2,45,3.0,54.0,2.0,43.0,3.0,38.0,2,12,17,277,16.3,20,13.9
433,S010001600,서울신상도초등학교,서울특별시 동작구 장승배기로 14,37.500323,126.943968,10,264,9,246,9,227,10.0,264.0,9.0,227.0,9.0,221.0,2,14,58,1463,25.2,68,21.5
434,S010001601,서울신성초등학교,서울특별시 관악구 신림로 114,37.47156,126.93695100000001,5,98,3,71,4,91,4.0,78.0,5.0,103.0,5.0,103.0,2,10,28,554,19.8,34,16.3
435,S010001602,서울신우초등학교,서울특별시 관악구 호암로 498,37.4632653184393,126.932536629968,3,45,3,47,3,56,3.0,50.0,2.0,47.0,3.0,57.0,1,7,18,309,17.2,23,13.4
436,S010001603,서울영본초등학교,서울특별시 동작구 만양로12가길 69,37.5111709262641,126.948473216788,7,130,5,123,7,161,6.0,151.0,5.0,121.0,7.0,166.0,1,6,38,858,22.6,46,18.7
437,S010001604,서울영화초등학교,서울특별시 동작구 등용로8길 3,37.5089070338489,126.93297513215599,4,59,3,69,4,74,3.0,77.0,4.0,75.0,4.0,71.0,2,11,24,436,18.2,29,15.0
438,S010001605,서울원당초등학교,서울특별시 관악구 봉천로 505,37.48127866245721,126.95624976174601,2,20,2,21,2,25,2.0,35.0,2.0,32.0,2.0,29.0,2,11,14,173,12.4,18,9.6
439,S010001606,서울원신초등학교,서울특별시 관악구 광신길 177,37.467290999999996,126.92733100000001,2,33,2,30,2,18,2.0,43.0,2.0,28.0,2.0,31.0,2,13,14,196,14.0,17,11.5
440,S010001607,서울은로초등학교,서울특별시 동작구 서달로 115,37.503762,126.96073799999999,8,159,6,128,5,123,5.0,113.0,4.0,98.0,4.0,89.0,2,4,34,714,21.0,39,18.3
441,S010001608,서울은천초등학교,서울특별시 관악구 은천로 69,37.486585203661896,126.94267834115101,8,152,8,166,7,152,7.0,154.0,7.0,159.0,8.0,173.0,3,24,48,980,20.4,55,17.8
442,S010001609,서울인헌초등학교,서울특별시 관악구 낙성대로 23,37.4767532754212,126.95986562416799,8,127,7,142,7,153,7.0,154.0,7.0,161.0,8.0,168.0,0,0,44,905,20.6,55,16.5
443,S010001610,서울청룡초등학교,서울특별시 관악구 관악로5길 61,37.4767248200263,126.951282539435,3,51,3,55,3,61,4.0,76.0,3.0,61.0,3.0,68.0,1,2,20,374,18.7,23,16.3
444,S010001611,서울행림초등학교,서울특별시 동작구 솔밭로 47,37.483017,126.9645288,2,41,2,44,2,35,3.0,43.0,3.0,44.0,2.0,34.0,0,0,14,241,17.2,19,12.7
445,S010001612,서울흑석초등학교,서울특별시 동작구 현충로 87,37.5082938040374,126.96513287524598,5,91,4,86,4,79,5.0,107.0,4.0,89.0,4.0,87.0,2,6,28,545,19.5,33,16.5
446,S010001613,중앙대학교사범대학부속초등학교,서울특별시 동작구 서달로 135,37.5054521002549,126.959678357152,5,121,5,123,5,122,5.0,120.0,5.0,120.0,5.0,121.0,0,0,30,727,24.2,31,23.5
447,S010001733,동북초등학교,서울특별시 도봉구 시루봉로 53,37.6550787254627,127.0261507392,4,128,4,129,4,128,4.0,128.0,4.0,117.0,4.0,112.0,0,0,24,742,30.9,24,30.9
448,S130000941,동북초등학교,전라북도 부안군 동진면 제전길 63,35.7753937,126.73091840000001,4,128,4,129,4,128,4.0,128.0,4.0,117.0,4.0,112.0,0,0,24,742,30.9,24,30.9
449,S010001733,동북초등학교,서울특별시 도봉구 시루봉로 53,37.6550787254627,127.0261507392,1,5,0,0,1,3,0.0,0.0,0.0,0.0,1.0,2.0,1,1,4,11,2.8,5,2.2
450,S130000941,동북초등학교,전라북도 부안군 동진면 제전길 63,35.7753937,126.73091840000001,1,5,0,0,1,3,0.0,0.0,0.0,0.0,1.0,2.0,1,1,4,11,2.8,5,2.2
451,S010001734,상명초등학교,서울특별시 노원구 덕릉로 541,37.6487233004094,127.06696901126001,4,122,4,121,4,121,4.0,120.0,4.0,120.0,4.0,109.0,0,0,24,713,29.7,23,31.0
452,S010001735,서울계상초등학교,서울특별시 노원구 한글비석로41가길 24,37.662197408066795,127.06867660851401,3,62,4,67,4,70,6.0,103.0,4.0,78.0,5.0,93.0,2,10,28,483,17.3,33,14.6
453,S010001736,서울공릉초등학교,서울특별시 노원구 동일로173길 12,37.618614975530896,127.07463069754101,3,45,3,56,3,59,3.0,62.0,3.0,60.0,3.0,57.0,0,0,18,339,18.8,21,16.1
454,S010001737,서울공연초등학교,서울특별시 노원구 동일로192가길 16,37.627368,127.074873,4,80,4,74,3,60,5.0,93.0,4.0,83.0,3.0,62.0,2,10,25,462,18.5,29,15.9
455,S010001738,서울노원초등학교,서울특별시 노원구 동일로230나길 32,37.67323,127.05836000000001,3,49,3,47,2,40,3.0,53.0,3.0,58.0,2.0,43.0,2,7,18,297,16.5,22,13.5
456,S010001739,서울노일초등학교,서울특별시 노원구 동일로 1625,37.673755160896505,127.054967038206,4,77,4,81,3,76,4.0,80.0,4.0,77.0,4.0,88.0,0,0,23,479,20.8,28,17.1
457,S010001740,서울녹천초등학교,서울특별시 노원구 마들로3길 34,37.6285073256222,127.06311733667201,3,49,2,37,2,36,3.0,46.0,3.0,44.0,4.0,57.0,1,4,18,273,15.2,21,13.0
458,S010001741,서울누원초등학교,서울특별시 도봉구 마들로 859-44,37.6872327126115,127.04926750406901,7,140,6,119,6,118,7.0,132.0,7.0,139.0,7.0,125.0,2,11,42,784,18.7,48,16.3
459,S010001742,서울당현초등학교,서울특별시 노원구 동일로213길 52,37.6482594353131,127.058211686952,4,88,4,78,5,71,4.0,90.0,4.0,86.0,7.0,117.0,1,5,29,535,18.4,33,16.2
460,S010001743,서울도봉초등학교,서울특별시 도봉구 도봉로173길 96,37.679960489815706,127.038289230191,3,61,3,59,3,53,4.0,66.0,3.0,65.0,4.0,81.0,2,10,22,395,18.0,26,15.2
461,S010001744,서울동일초등학교,서울특별시 노원구 한글비석로 566,37.664814202228605,127.05417160353201,5,106,5,103,5,108,5.0,122.0,5.0,115.0,5.0,110.0,0,0,30,664,22.1,35,19.0
462,S010001745,서울방학초등학교,서울특별시 도봉구 도당로9길 34,37.664101,127.032016,4,86,4,81,4,79,5.0,105.0,5.0,112.0,5.0,107.0,2,11,29,581,20.0,34,17.1
463,S010001746,서울백운초등학교,서울특별시 도봉구 삼양로146길 17,37.6532035,127.0139875,6,134,6,121,5,115,7.0,149.0,7.0,135.0,7.0,135.0,2,7,40,796,19.9,47,16.9
464,S010001747,서울불암초등학교,서울특별시 노원구 중계로 178,37.6507834314782,127.080600732463,6,105,5,106,6,139,7.0,159.0,8.0,175.0,9.0,198.0,1,3,42,885,21.1,50,17.7
465,S010001748,서울상경초등학교,서울특별시 노원구 수락산로 237,37.6705527662506,127.051673052594,6,114,5,117,5,91,6.0,112.0,6.0,111.0,5.0,92.0,2,9,35,646,18.5,41,15.8
466,S010001749,서울상계초등학교,서울특별시 노원구 상계로9길 39,37.6596254560325,127.066493745134,3,40,2,42,2,35,3.0,44.0,3.0,47.0,3.0,47.0,2,13,18,268,14.9,21,12.8
467,S010001750,서울상곡초등학교,서울특별시 노원구 노원로38길 34,37.662903831330105,127.062076554389,4,90,4,83,4,86,4.0,92.0,4.0,81.0,4.0,91.0,0,0,24,523,21.8,28,18.7
468,S010001751,서울상수초등학교,서울특별시 노원구 동일로216길 66,37.651990999999995,127.064846,5,85,5,108,6,98,6.0,122.0,6.0,117.0,6.0,114.0,0,0,34,644,18.9,42,15.3
469,S010001752,서울상원초등학교,서울특별시 노원구 한글비석로54길 119,127.0598254,37.667187799999994,4,64,4,71,3,54,4.0,69.0,4.0,65.0,5.0,83.0,1,3,25,409,16.4,29,14.1
470,S010001753,서울상월초등학교,서울특별시 노원구 동일로221길 27,37.6586537700263,127.056982239959,3,43,3,41,2,22,2.0,26.0,2.0,37.0,1.0,16.0,1,1,14,186,13.3,18,10.3
471,S010001754,서울상천초등학교,서울특별시 노원구 덕릉로 443,37.6462846786486,127.057806758512,4,68,4,66,3,62,3.0,50.0,3.0,59.0,3.0,61.0,2,10,22,376,17.1,27,13.9
472,S010001755,서울선곡초등학교,서울특별시 노원구 광운로2길 1,37.61841,127.05803999999999,5,94,6,122,6,110,6.0,115.0,6.0,112.0,6.0,128.0,2,7,37,688,18.6,43,16.0
473,S010001756,서울수락초등학교,서울특별시 노원구 동일로 1745,37.6845019326038,127.055183566985,4,81,4,68,4,69,4.0,81.0,5.0,90.0,5.0,103.0,2,10,28,502,17.9,33,15.2
474,S010001757,서울수암초등학교,서울특별시 노원구 중계로12길 9,37.648425,127.08153999999999,4,79,3,66,3,83,4.0,103.0,4.0,107.0,6.0,139.0,2,5,26,582,22.4,33,17.6
475,S010001758,서울숭미초등학교,서울특별시 도봉구 노해로 179,37.6510238921781,127.02794427818998,5,102,6,114,5,101,6.0,121.0,6.0,126.0,6.0,126.0,2,9,36,699,19.4,42,16.6
476,S010001759,서울신계초등학교,서울특별시 노원구 초안산로 29,37.63045,127.05292,3,40,2,34,3,46,2.0,40.0,3.0,50.0,3.0,59.0,2,8,18,277,15.4,22,12.6
477,S010001760,서울신방학초등학교,서울특별시 도봉구 시루봉로 173,37.6666827204188,127.028920355767,3,52,3,55,3,58,3.0,66.0,4.0,79.0,3.0,61.0,1,5,20,376,18.8,24,15.7
478,S010001761,서울신상계초등학교,서울특별시 노원구 상계로 267,37.667429586668895,127.07573590742099,4,70,3,62,3,62,3.0,60.0,4.0,67.0,4.0,67.0,2,8,23,396,17.2,27,14.7
479,S010001762,서울신창초등학교,서울특별시 도봉구 덕릉로60길 93,37.636567,127.041855,3,47,3,42,2,43,3.0,48.0,2.0,40.0,3.0,53.0,0,0,16,273,17.1,20,13.7
480,S010001763,서울신학초등학교,서울특별시 도봉구 방학로 247-21,37.6612199123266,127.025722225084,3,61,3,69,3,52,4.0,73.0,4.0,77.0,4.0,68.0,2,9,23,409,17.8,27,15.1
481,S010001764,서울신화초등학교,서울특별시 도봉구 우이천로 120,37.6331950433727,127.040884514143,3,61,3,49,3,61,3.0,61.0,4.0,64.0,4.0,64.0,2,9,22,369,16.8,28,13.2
482,S010001765,서울쌍문초등학교,서울특별시 도봉구 우이천로 360,37.6489,127.024422,5,108,5,95,5,100,5.0,101.0,5.0,112.0,5.0,94.0,2,10,32,620,19.4,36,17.2
483,S010001766,서울연지초등학교,서울특별시 노원구 월계로55길 48,37.63319070977229,127.05953676596,3,48,2,47,3,47,3.0,52.0,2.0,40.0,3.0,46.0,2,9,18,289,16.1,21,13.8
484,S010001767,서울연촌초등학교,서울특별시 노원구 공릉로58길 36,37.6344159971552,127.072512057624,4,72,4,78,5,90,4.0,89.0,5.0,121.0,6.0,109.0,2,2,30,561,18.7,35,16.0
485,S010001768,서울오봉초등학교,서울특별시 도봉구 시루봉로 285,37.672244,127.040476,3,55,3,66,2,38,3.0,53.0,3.0,57.0,3.0,45.0,1,2,18,316,17.6,21,15.0
486,S010001769,서울온곡초등학교,서울특별시 노원구 한글비석로52길 59,37.6675399994369,127.065911420119,5,90,4,93,4,79,5.0,96.0,5.0,117.0,6.0,132.0,0,0,29,607,20.9,35,17.3
487,S010001770,서울용동초등학교,서울특별시 노원구 한글비석로1길 81-11,37.6410853427443,127.06908318882799,3,44,2,30,2,38,3.0,55.0,3.0,53.0,3.0,69.0,2,9,18,298,16.6,23,13.0
488,S010001771,서울용원초등학교,서울특별시 노원구 섬밭로 144,37.6299240206827,127.068941444319,4,80,5,90,5,106,6.0,113.0,5.0,99.0,5.0,102.0,2,9,32,599,18.7,39,15.4
489,S010001772,서울원광초등학교,서울특별시 노원구 덕릉로76길 18,37.654311822547996,127.07491572093399,4,94,4,87,5,122,5.0,116.0,6.0,145.0,7.0,167.0,0,0,31,731,23.6,38,19.2
490,S010001773,서울월계초등학교,서울특별시 노원구 월계로45가길 10,37.6276197545384,127.050188765968,3,57,3,54,2,36,3.0,48.0,3.0,49.0,2.0,42.0,0,0,16,286,17.9,20,14.3
491,S010001774,서울월천초등학교,서울특별시 도봉구 노해로70길 96,37.6480462095984,127.051752639384,3,61,3,49,3,53,4.0,68.0,4.0,72.0,3.0,56.0,2,10,22,369,16.8,27,13.7
492,S010001775,서울을지초등학교,서울특별시 노원구 중계로 239,37.6505901078185,127.07308983586701,7,190,8,208,8,216,11.0,298.0,11.0,298.0,12.0,321.0,0,0,57,1531,26.9,71,21.6
493,S010001776,서울자운초등학교,서울특별시 도봉구 마들로13길 166,37.658009588853396,127.046682422055,5,105,6,123,5,84,6.0,127.0,6.0,134.0,6.0,132.0,0,0,34,705,20.7,38,18.6
494,S010001777,서울중계초등학교,서울특별시 노원구 한글비석로19길 39,37.6578410770739,127.073310001148,6,136,6,140,6,139,6.0,161.0,7.0,163.0,6.0,141.0,1,4,38,884,23.3,47,18.8
495,S010001778,서울중원초등학교,서울특별시 노원구 섬밭로 316,37.6439828328354,127.062767844461,4,85,3,50,4,71,4.0,72.0,4.0,76.0,4.0,71.0,0,0,23,425,18.5,27,15.7
496,S010001779,서울중평초등학교,서울특별시 노원구 섬밭로 241,37.6375347460295,127.063963375649,9,193,9,223,9,221,10.0,244.0,10.0,253.0,12.0,284.0,1,6,60,1424,23.7,72,19.8
497,S010001780,서울중현초등학교,서울특별시 노원구 섬밭로 181,37.6324103,127.066432,2,28,1,10,2,24,2.0,25.0,2.0,30.0,2.0,16.0,2,6,13,139,10.7,16,8.7
498,S010001781,서울창경초등학교,서울특별시 도봉구 도봉로129길 54,37.656552000000005,127.03496899999999,7,132,7,148,7,134,7.0,164.0,7.0,149.0,7.0,161.0,0,0,42,888,21.1,51,17.4
499,S010001782,서울창도초등학교,서울특별시 도봉구 방학로 32-28,37.664135411409,127.04878528089199,6,117,6,123,6,129,6.0,132.0,6.0,138.0,7.0,140.0,1,1,38,780,20.5,45,17.3
500,S010001783,서울창동초등학교,서울특별시 도봉구 해등로16길 81,37.655361419577495,127.04483130295601,3,63,3,68,3,64,3.0,60.0,4.0,72.0,3.0,66.0,1,4,20,397,19.9,24,16.5
501,S010001784,서울창림초등학교,서울특별시 도봉구 덕릉로63길 46,37.643235367041,127.041606112724,7,141,6,140,6,137,8.0,174.0,7.0,162.0,8.0,168.0,2,13,44,935,21.3,53,17.6
502,S010001785,서울창원초등학교,서울특별시 도봉구 해등로 103,37.652516,127.04056000000001,2,38,3,50,3,53,3.0,68.0,3.0,44.0,3.0,60.0,1,6,18,319,17.7,21,15.2
503,S010001786,서울창일초등학교,서울특별시 도봉구 노해로66길 84,37.6476587221531,127.04762777301701,6,117,6,137,7,160,7.0,157.0,7.0,151.0,7.0,148.0,0,0,40,870,21.8,48,18.1
504,S010001787,서울청계초등학교,서울특별시 노원구 공릉로 431,37.6450333392396,127.066140807903,2,39,3,45,2,39,3.0,53.0,3.0,50.0,3.0,56.0,2,10,18,292,16.2,21,13.9
505,S010001788,서울초당초등학교,서울특별시 도봉구 해등로32길 11,37.658421000000004,127.02238200000001,6,134,6,145,6,146,6.0,135.0,7.0,177.0,8.0,173.0,0,0,39,910,23.3,48,19.0
506,S010001789,서울태랑초등학교,서울특별시 노원구 화랑로51나길 31,37.6262513725014,127.090601833146,6,126,6,152,6,156,6.0,158.0,7.0,146.0,7.0,178.0,1,5,39,921,23.6,50,18.4
507,S010001790,서울태릉초등학교,서울특별시 노원구 노원로1길 36,37.6231020430176,127.08506108921101,7,163,6,135,6,136,7.0,136.0,7.0,142.0,7.0,153.0,1,6,41,871,21.2,48,18.1
508,S010001791,서울한천초등학교,서울특별시 노원구 마들로 45,37.620166999999995,127.069042,7,136,7,135,7,139,7.0,153.0,8.0,144.0,6.0,122.0,0,0,42,829,19.7,50,16.6
509,S010001792,청원초등학교,서울특별시 노원구 한글비석로 506,37.665317,127.061327,4,120,4,122,4,120,4.0,120.0,4.0,111.0,4.0,105.0,0,0,24,698,29.1,44,15.9
510,S090004341,청원초등학교,경기도 화성시 마도면 해운로 794,37.187943,126.7614,4,120,4,122,4,120,4.0,120.0,4.0,111.0,4.0,105.0,0,0,24,698,29.1,44,15.9
511,S110000887,청원초등학교,충청북도 청주시 청원구 오창읍 과학산업3로 228,36.709724,127.43081000000001,4,120,4,122,4,120,4.0,120.0,4.0,111.0,4.0,105.0,0,0,24,698,29.1,44,15.9
512,S010001792,청원초등학교,서울특별시 노원구 한글비석로 506,37.665317,127.061327,1,9,1,11,1,5,1.0,11.0,1.0,16.0,1.0,10.0,1,1,7,63,9.0,8,7.9
513,S090004341,청원초등학교,경기도 화성시 마도면 해운로 794,37.187943,126.7614,1,9,1,11,1,5,1.0,11.0,1.0,16.0,1.0,10.0,1,1,7,63,9.0,8,7.9
514,S110000887,청원초등학교,충청북도 청주시 청원구 오창읍 과학산업3로 228,36.709724,127.43081000000001,1,9,1,11,1,5,1.0,11.0,1.0,16.0,1.0,10.0,1,1,7,63,9.0,8,7.9
515,S010001792,청원초등학교,서울특별시 노원구 한글비석로 506,37.665317,127.061327,5,121,5,119,6,133,7.0,169.0,6.0,133.0,6.0,140.0,2,8,37,823,22.2,45,18.3
516,S090004341,청원초등학교,경기도 화성시 마도면 해운로 794,37.187943,126.7614,5,121,5,119,6,133,7.0,169.0,6.0,133.0,6.0,140.0,2,8,37,823,22.2,45,18.3
517,S110000887,청원초등학교,충청북도 청주시 청원구 오창읍 과학산업3로 228,36.709724,127.43081000000001,5,121,5,119,6,133,7.0,169.0,6.0,133.0,6.0,140.0,2,8,37,823,22.2,45,18.3
518,S010001793,태강삼육초등학교,서울특별시 노원구 화랑로 815,37.641795,127.110518,4,129,4,128,4,128,4.0,128.0,4.0,128.0,4.0,128.0,0,0,24,769,32.0,24,32.0
519,S010001794,한신초등학교,서울특별시 도봉구 노해로49길 69,37.653226000000004,127.032803,4,112,4,114,4,112,4.0,95.0,3.0,46.0,4.0,85.0,0,0,23,564,24.5,53,10.6
520,S010001795,화랑초등학교,서울특별시 노원구 화랑로 621,37.6287825674414,127.08899173540001,4,115,4,115,4,112,4.0,112.0,4.0,112.0,4.0,110.0,0,0,24,676,28.2,24,28.2
521,S020001495,화랑초등학교,부산광역시 서구 대영로86번길 56,35.1082422159024,129.02050484910401,4,115,4,115,4,112,4.0,112.0,4.0,112.0,4.0,110.0,0,0,24,676,28.2,24,28.2
522,S090002793,화랑초등학교,경기도 안산시 단원구 화정천동로 296,37.331619,126.81846599999999,4,115,4,115,4,112,4.0,112.0,4.0,112.0,4.0,110.0,0,0,24,676,28.2,24,28.2
523,S150001240,화랑초등학교,경상북도 경주시 임해로 116,35.84214,129.229925,4,115,4,115,4,112,4.0,112.0,4.0,112.0,4.0,110.0,0,0,24,676,28.2,24,28.2
524,S010001795,화랑초등학교,서울특별시 노원구 화랑로 621,37.6287825674414,127.08899173540001,2,36,2,28,1,24,2.0,31.0,1.0,25.0,2.0,29.0,1,4,11,177,16.1,14,12.6
525,S020001495,화랑초등학교,부산광역시 서구 대영로86번길 56,35.1082422159024,129.02050484910401,2,36,2,28,1,24,2.0,31.0,1.0,25.0,2.0,29.0,1,4,11,177,16.1,14,12.6
526,S090002793,화랑초등학교,경기도 안산시 단원구 화정천동로 296,37.331619,126.81846599999999,2,36,2,28,1,24,2.0,31.0,1.0,25.0,2.0,29.0,1,4,11,177,16.1,14,12.6
527,S150001240,화랑초등학교,경상북도 경주시 임해로 116,35.84214,129.229925,2,36,2,28,1,24,2.0,31.0,1.0,25.0,2.0,29.0,1,4,11,177,16.1,14,12.6
528,S010001795,화랑초등학교,서울특별시 노원구 화랑로 621,37.6287825674414,127.08899173540001,5,107,3,79,4,94,4.0,104.0,5.0,112.0,5.0,120.0,3,20,29,636,21.9,35,18.2
529,S020001495,화랑초등학교,부산광역시 서구 대영로86번길 56,35.1082422159024,129.02050484910401,5,107,3,79,4,94,4.0,104.0,5.0,112.0,5.0,120.0,3,20,29,636,21.9,35,18.2
530,S090002793,화랑초등학교,경기도 안산시 단원구 화정천동로 296,37.331619,126.81846599999999,5,107,3,79,4,94,4.0,104.0,5.0,112.0,5.0,120.0,3,20,29,636,21.9,35,18.2
531,S150001240,화랑초등학교,경상북도 경주시 임해로 116,35.84214,129.229925,5,107,3,79,4,94,4.0,104.0,5.0,112.0,5.0,120.0,3,20,29,636,21.9,35,18.2
532,S010001795,화랑초등학교,서울특별시 노원구 화랑로 621,37.6287825674414,127.08899173540001,1,8,1,7,1,9,1.0,18.0,1.0,12.0,1.0,10.0,1,4,7,68,9.7,8,8.5
533,S020001495,화랑초등학교,부산광역시 서구 대영로86번길 56,35.1082422159024,129.02050484910401,1,8,1,7,1,9,1.0,18.0,1.0,12.0,1.0,10.0,1,4,7,68,9.7,8,8.5
534,S090002793,화랑초등학교,경기도 안산시 단원구 화정천동로 296,37.331619,126.81846599999999,1,8,1,7,1,9,1.0,18.0,1.0,12.0,1.0,10.0,1,4,7,68,9.7,8,8.5
535,S150001240,화랑초등학교,경상북도 경주시 임해로 116,35.84214,129.229925,1,8,1,7,1,9,1.0,18.0,1.0,12.0,1.0,10.0,1,4,7,68,9.7,8,8.5
536,S010001966,경기초등학교,서울특별시 서대문구 경기대로9길 10,37.5651102007417,126.96286076214399,4,96,4,96,4,98,4.0,97.0,4.0,96.0,4.0,92.0,0,0,24,575,24.0,24,24.0
537,S010001967,명지초등학교,서울특별시 서대문구 명지2길 32-20,37.5836294880719,126.928230112781,5,122,5,120,5,121,5.0,120.0,5.0,104.0,5.0,98.0,0,0,30,685,22.8,30,22.8
538,S020001263,명지초등학교,부산광역시 강서구 명지국제6로 296,35.102245,128.92442,5,122,5,120,5,121,5.0,120.0,5.0,104.0,5.0,98.0,0,0,30,685,22.8,30,22.8
539,S110000700,명지초등학교,충청북도 제천시 강명길 21,37.1188282,128.2054568,5,122,5,120,5,121,5.0,120.0,5.0,104.0,5.0,98.0,0,0,30,685,22.8,30,22.8
540,S120000958,명지초등학교,충청남도 서산시 대산읍 명지3로 25,36.971685,126.4098,5,122,5,120,5,121,5.0,120.0,5.0,104.0,5.0,98.0,0,0,30,685,22.8,30,22.8
541,S010001967,명지초등학교,서울특별시 서대문구 명지2길 32-20,37.5836294880719,126.928230112781,9,227,9,254,8,200,9.0,218.0,10.0,255.0,7.0,185.0,1,6,53,1345,25.4,62,21.7
542,S020001263,명지초등학교,부산광역시 강서구 명지국제6로 296,35.102245,128.92442,9,227,9,254,8,200,9.0,218.0,10.0,255.0,7.0,185.0,1,6,53,1345,25.4,62,21.7
543,S110000700,명지초등학교,충청북도 제천시 강명길 21,37.1188282,128.2054568,9,227,9,254,8,200,9.0,218.0,10.0,255.0,7.0,185.0,1,6,53,1345,25.4,62,21.7
544,S120000958,명지초등학교,충청남도 서산시 대산읍 명지3로 25,36.971685,126.4098,9,227,9,254,8,200,9.0,218.0,10.0,255.0,7.0,185.0,1,6,53,1345,25.4,62,21.7
545,S010001967,명지초등학교,서울특별시 서대문구 명지2길 32-20,37.5836294880719,126.928230112781,7,162,6,139,6,133,6.0,128.0,7.0,157.0,7.0,150.0,2,9,41,878,21.4,49,17.9
546,S020001263,명지초등학교,부산광역시 강서구 명지국제6로 296,35.102245,128.92442,7,162,6,139,6,133,6.0,128.0,7.0,157.0,7.0,150.0,2,9,41,878,21.4,49,17.9
547,S110000700,명지초등학교,충청북도 제천시 강명길 21,37.1188282,128.2054568,7,162,6,139,6,133,6.0,128.0,7.0,157.0,7.0,150.0,2,9,41,878,21.4,49,17.9
548,S120000958,명지초등학교,충청남도 서산시 대산읍 명지3로 25,36.971685,126.4098,7,162,6,139,6,133,6.0,128.0,7.0,157.0,7.0,150.0,2,9,41,878,21.4,49,17.9
549,S010001967,명지초등학교,서울특별시 서대문구 명지2길 32-20,37.5836294880719,126.928230112781,1,7,1,22,1,7,1.0,16.0,1.0,7.0,1.0,8.0,0,0,6,67,11.2,7,9.6
550,S020001263,명지초등학교,부산광역시 강서구 명지국제6로 296,35.102245,128.92442,1,7,1,22,1,7,1.0,16.0,1.0,7.0,1.0,8.0,0,0,6,67,11.2,7,9.6
551,S110000700,명지초등학교,충청북도 제천시 강명길 21,37.1188282,128.2054568,1,7,1,22,1,7,1.0,16.0,1.0,7.0,1.0,8.0,0,0,6,67,11.2,7,9.6
552,S120000958,명지초등학교,충청남도 서산시 대산읍 명지3로 25,36.971685,126.4098,1,7,1,22,1,7,1.0,16.0,1.0,7.0,1.0,8.0,0,0,6,67,11.2,7,9.6
553,S010001968,서울갈현초등학교,서울특별시 은평구 연서로29길 31,37.619314,126.91651100000001,8,176,7,153,8,177,9.0,199.0,9.0,202.0,9.0,213.0,1,3,51,1123,22.0,60,18.7
554,S010001969,서울고은초등학교,서울특별시 서대문구 모래내로 441,37.5850003126217,126.94397516537201,5,91,4,82,4,80,4.0,83.0,3.0,68.0,4.0,94.0,2,8,26,506,19.5,31,16.3
555,S010001970,서울공덕초등학교,서울 마포구 만리재옛길 13,37.5458044265006,126.95482249009198,6,135,6,134,5,110,5.0,124.0,4.0,94.0,5.0,109.0,2,7,33,713,21.6,38,18.8
556,S010001971,서울구산초등학교,서울특별시 은평구 서오릉로15길 16,37.612300253329,126.909102498711,7,150,7,156,6,136,7.0,159.0,7.0,172.0,8.0,196.0,2,13,44,982,22.3,52,18.9
557,S010001972,서울금화초등학교,서울특별시 서대문구 통일로 165,37.5682696,126.96331640000001,3,65,4,71,4,86,3.0,72.0,4.0,81.0,4.0,80.0,2,10,24,465,19.4,29,16.0
558,S010001973,서울녹번초등학교,서울특별시 은평구 녹번로1길 1,37.604585014498895,126.92574571395201,6,147,5,113,6,124,7.0,136.0,6.0,134.0,6.0,133.0,0,0,36,787,21.9,42,18.7
559,S010001974,서울대신초등학교,서울특별시 서대문구 이화여대2길 27,37.557702019131796,126.94803828372801,2,29,2,27,2,35,2.0,30.0,2.0,26.0,2.0,31.0,1,6,13,184,14.2,16,11.5
560,S010001975,서울대은초등학교,서울특별시 은평구 통일로69길 12-15,37.6121245969049,126.92591037213002,2,28,2,17,1,23,2.0,31.0,2.0,34.0,2.0,36.0,1,5,12,174,14.5,14,12.4
561,S010001976,서울대조초등학교,서울특별시 은평구 연서로18길 17,37.613223299999994,126.91954229999999,6,128,6,134,5,113,6.0,145.0,6.0,140.0,6.0,141.0,2,14,37,815,22.0,45,18.1
562,S010001977,서울동교초등학교,서울특별시 마포구 월드컵로25길 86,37.558429,126.90253899999999,6,124,6,131,6,136,6.0,143.0,7.0,160.0,6.0,140.0,0,0,37,834,22.5,45,18.5
563,S010001978,서울마포초등학교,서울특별시 마포구 도화2길 64,37.5386016165467,126.949816647779,6,134,6,128,5,116,5.0,127.0,5.0,108.0,6.0,134.0,2,5,35,752,21.5,41,18.3
564,S010001979,서울망원초등학교,서울특별시 마포구 방울내로5길 28,37.560890108853606,126.900762393783,2,38,2,42,2,31,2.0,45.0,2.0,48.0,2.0,41.0,0,0,12,245,20.4,14,17.5
565,S010001980,서울미동초등학교,서울특별시 서대문구 충정로 52,37.563266999999996,126.96579399999999,3,52,2,40,3,51,2.0,50.0,3.0,54.0,3.0,60.0,1,1,17,308,18.1,22,14.0
566,S010001981,서울북가좌초등학교,서울특별시 서대문구 거북골로19길 20,37.57785,126.907656,9,178,8,189,9,203,8.0,206.0,10.0,222.0,9.0,214.0,2,14,55,1226,22.3,67,18.3
567,S010001982,서울북성초등학교,서울특별시 서대문구 북아현로1나길 22,37.559631762826,126.95183525358699,8,180,7,179,7,155,7.0,159.0,5.0,118.0,6.0,126.0,1,3,41,920,22.4,48,19.2
568,S010001983,서울북한산초등학교,서울특별시 은평구 대서문길 42-3,37.6536332557699,126.950464598403,1,12,1,19,1,17,1.0,23.0,2.0,26.0,1.0,16.0,1,3,8,116,14.5,11,10.5
569,S010001984,서울불광초등학교,서울특별시 은평구 불광로 51,37.6134285463928,126.93072041200399,6,124,5,109,6,128,5.0,120.0,5.0,115.0,6.0,126.0,3,11,36,733,20.4,43,17.0
570,S010001985,서울상신초등학교,서울특별시 은평구 가좌로 361,37.5979534280451,126.905201931143,5,112,4,90,5,106,4.0,100.0,5.0,104.0,4.0,87.0,2,8,29,607,20.9,34,17.9
571,S010001986,서울상암초등학교,서울특별시 마포구 월드컵북로 353,37.576336601140596,126.892342093715,4,88,3,67,4,77,5.0,109.0,4.0,92.0,4.0,95.0,1,3,25,531,21.2,29,18.3
572,S010001987,서울서강초등학교,서울특별시 마포구 독막로 113,37.5486952599935,126.926896610572,9,197,7,175,7,154,8.0,189.0,6.0,140.0,7.0,163.0,2,4,46,1022,22.2,54,18.9
573,S010001988,서울서교초등학교,서울특별시 마포구 와우산로23길 20-27,37.554941,126.924899,3,54,3,74,3,60,4.0,85.0,4.0,74.0,5.0,94.0,0,0,22,441,20.0,28,15.8
574,S010001989,서울성산초등학교,서울특별시 마포구 양화로3길 94,37.55355,126.91116000000001,6,128,5,116,5,98,5.0,110.0,5.0,107.0,5.0,118.0,2,9,33,686,20.8,39,17.6
575,S010001990,서울성서초등학교,서울특별시 마포구 성미산로7길 24,37.5606247065267,126.911451573617,4,85,4,81,3,64,4.0,88.0,5.0,109.0,5.0,92.0,2,6,27,525,19.4,31,16.9
576,S010001991,서울성원초등학교,서울특별시 마포구 월드컵로36길 34,37.566977189960205,126.905087261259,3,59,3,52,2,43,3.0,64.0,4.0,82.0,4.0,76.0,0,0,19,376,19.8,26,14.5
577,S010001992,서울소의초등학교,서울특별시 마포구 마포대로24길 42,37.5527802434975,126.960657816394,4,87,3,75,4,73,4.0,81.0,3.0,66.0,3.0,71.0,1,5,22,458,20.8,26,17.6
578,S010001993,서울수색초등학교,서울특별시 은평구 수색로16길 21,37.585173229446,126.89601122796999,3,53,3,51,2,31,2.0,36.0,2.0,37.0,2.0,35.0,1,1,15,244,16.3,17,14.4
579,S010001994,서울신도초등학교,서울특별시 은평구 진관1로 77-23,37.6329394193873,126.929197801702,6,141,6,142,7,155,8.0,178.0,9.0,229.0,8.0,205.0,1,6,45,1056,23.5,53,19.9
580,S010001995,서울신북초등학교,서울특별시 마포구 월드컵북로38길 26,37.571103969348606,126.905362753175,5,108,5,113,6,139,6.0,138.0,6.0,134.0,7.0,156.0,2,5,37,793,21.4,43,18.4
581,S010001996,서울신사초등학교,서울특별시 은평구 가좌로 275-2,37.592835,126.91235800000001,3,58,2,47,3,69,4.0,75.0,3.0,68.0,3.0,71.0,2,11,20,399,20.0,24,16.6
582,S010001997,서울신석초등학교,서울특별시 마포구 대흥로 33,37.543915999999996,126.93782,6,120,6,114,5,109,5.0,111.0,5.0,117.0,6.0,128.0,2,7,35,706,20.2,44,16.0
583,S010001998,서울아현초등학교,서울특별시 마포구 굴레방로 6,37.5558312701381,126.95624242911501,6,123,5,97,4,86,5.0,101.0,4.0,83.0,4.0,89.0,2,6,30,585,19.5,36,16.3
584,S010001999,서울안산초등학교,서울특별시 서대문구 통일로 321,37.579169100849704,126.952212110993,5,91,5,110,5,97,4.0,91.0,6.0,121.0,6.0,128.0,2,7,33,645,19.5,39,16.5
585,S010002000,서울역촌초등학교,서울특별시 은평구 은평로3길 25,37.6015856989816,126.913926106544,10,204,9,211,9,214,12.0,290.0,11.0,256.0,12.0,273.0,0,0,63,1448,23.0,74,19.6
586,S010002001,서울연가초등학교,서울특별시 서대문구 증가로12가길 49-50,37.5795642829763,126.917329644604,12,305,10,246,10,230,11.0,273.0,10.0,236.0,10.0,248.0,2,11,65,1549,23.8,76,20.4
587,S010002002,서울연신초등학교,서울특별시 은평구 연서로 347,37.6266794,126.9285544,2,41,2,35,2,40,3.0,51.0,3.0,48.0,2.0,36.0,2,10,16,261,16.3,21,12.4
588,S010002003,서울연은초등학교,서울특별시 은평구 백련산로2길 35,37.590331,126.925224,5,142,5,137,5,154,5.0,144.0,4.0,117.0,5.0,113.0,2,9,31,816,26.3,37,22.1
589,S010002004,서울연천초등학교,서울특별시 은평구 연서로34길 22,37.6213495603068,126.929920150049,2,37,2,34,2,43,2.0,40.0,2.0,47.0,3.0,49.0,2,7,15,257,17.1,19,13.5
590,S010002005,서울연희초등학교,서울 서대문구 연희로 136,37.569167,126.9339564,5,116,6,128,5,118,5.0,111.0,5.0,111.0,6.0,129.0,2,11,34,724,21.3,41,17.7
591,S010002006,서울염리초등학교,서울특별시 마포구 토정로37길 37,37.542562,126.945821,10,267,9,226,10,236,10.0,264.0,9.0,226.0,9.0,221.0,2,6,59,1446,24.5,75,19.3
592,S010002007,서울용강초등학교,서울특별시 마포구 백범로17길 9,37.5491010696892,126.944042784777,4,86,5,100,4,77,5.0,101.0,3.0,70.0,4.0,84.0,2,8,27,526,19.5,32,16.4
593,S010002008,서울은평초등학교,서울특별시 은평구 은평로 239,37.601936,126.934486,10,206,8,174,6,131,6.0,153.0,5.0,117.0,6.0,140.0,2,12,43,933,21.7,48,19.4
594,S010002009,서울응암초등학교,서울특별시 은평구 가좌로6길 20,37.588616794208605,126.921635714442,6,118,5,112,5,108,7.0,147.0,6.0,133.0,5.0,126.0,3,17,37,761,20.6,42,18.1
595,S010002010,서울인왕초등학교,서울특별시 서대문구 세무서길 33-9,37.5902192526077,126.944804596756,4,97,4,96,4,68,4.0,68.0,4.0,85.0,4.0,79.0,1,2,25,495,19.8,30,16.5
596,S010002011,서울중동초등학교,서울특별시 마포구 월드컵북로 152,37.566624600000004,126.91127900000001,4,80,4,81,3,59,4.0,99.0,4.0,86.0,4.0,93.0,2,7,25,505,20.2,30,16.8
597,S010002012,서울증산초등학교,서울특별시 은평구 증산서길 61,37.582563736625794,126.90427497668001,5,117,5,88,4,82,6.0,101.0,6.0,95.0,6.0,123.0,2,9,34,615,18.1,40,15.4
598,S010002013,서울창서초등학교,서울 서대문구 연세로5나길 30-3,37.5581416085208,126.933478835428,2,25,2,28,1,22,1.0,25.0,2.0,29.0,2.0,29.0,2,5,12,163,13.6,15,10.9
599,S010002014,서울창천초등학교,서울특별시 마포구 백범로1길 56,37.554877000000005,126.939637,2,43,2,26,1,17,1.0,16.0,2.0,30.0,2.0,19.0,2,8,12,159,13.3,16,9.9
600,S010002015,서울한서초등학교,서울특별시 마포구 대흥로24바길 27,37.5536482837029,126.94977939919501,7,128,6,127,6,113,6.0,137.0,5.0,110.0,5.0,104.0,1,3,36,722,20.1,43,16.8
601,S010002016,서울홍연초등학교,서울특별시 서대문구 백련사길 55,37.582078,126.930792,4,83,5,100,5,93,5.0,124.0,5.0,99.0,6.0,138.0,2,8,32,645,20.2,38,17.0
602,S010002017,서울홍은초등학교,서울특별시 서대문구 세검정로 105,37.597540994126895,126.949460026612,3,58,3,47,3,62,3.0,61.0,2.0,42.0,2.0,42.0,2,13,18,325,18.1,24,13.5
603,S010002018,서울홍제초등학교,서울특별시 서대문구 홍은중앙로 13,37.5935063587127,126.94542267471701,7,150,5,112,6,128,6.0,137.0,6.0,148.0,6.0,148.0,2,9,38,832,21.9,44,18.9
604,S010002019,선일초등학교,서울특별시 은평구 갈현로29길 27,37.619772999999995,126.91328700000001,3,87,3,85,3,84,3.0,71.0,2.0,48.0,3.0,62.0,0,0,17,437,25.7,18,24.3
605,S090002747,선일초등학교,경기도 안산시 단원구 선이로3길 40,37.340214200000005,126.79977450000001,3,87,3,85,3,84,3.0,71.0,2.0,48.0,3.0,62.0,0,0,17,437,25.7,18,24.3
606,S010002019,선일초등학교,서울특별시 은평구 갈현로29길 27,37.619772999999995,126.91328700000001,3,39,3,46,4,57,5.0,73.0,4.0,64.0,5.0,83.0,2,8,26,370,14.2,31,11.9
607,S090002747,선일초등학교,경기도 안산시 단원구 선이로3길 40,37.340214200000005,126.79977450000001,3,39,3,46,4,57,5.0,73.0,4.0,64.0,5.0,83.0,2,8,26,370,14.2,31,11.9
608,S010002021,예일초등학교,서울특별시 은평구 연서로 117,37.610224,126.914341,3,86,3,84,3,84,3.0,85.0,2.0,59.0,3.0,78.0,0,0,17,476,28.0,31,15.4
609,S010002023,이화여자대학교사범대학부속초등학교,서울특별시 서대문구 성산로 512-39,37.5611486017934,126.94277519229799,4,104,4,104,4,104,4.0,104.0,4.0,104.0,4.0,104.0,0,0,24,624,26.0,41,15.2
610,S010002024,추계초등학교,서울특별시 서대문구 북아현로11가길 7,37.56368,126.953127,2,61,2,61,2,62,2.0,61.0,2.0,59.0,2.0,48.0,0,0,12,352,29.3,25,14.1
611,S010002025,충암초등학교,서울특별시 은평구 가좌로5길 5,37.585434,126.92258500000001,4,112,5,130,5,130,5.0,120.0,3.0,75.0,4.0,93.0,0,0,26,660,25.4,26,25.4
612,S010002026,홍익대학교사범대학부속초등학교,서울특별시 마포구 성미산로 51,37.5596457273319,126.91320928072201,3,85,3,86,3,86,3.0,84.0,3.0,82.0,3.0,63.0,0,0,18,486,27.0,42,11.6
613,S010002163,경복초등학교,서울특별시 광진구 천호대로130길 58,37.549721999999996,127.08678400000001,5,122,5,124,5,121,5.0,121.0,5.0,142.0,5.0,141.0,0,0,30,771,25.7,30,25.7
614,S010002164,서울경동초등학교,서울특별시 성동구 성수일로 34,37.5438238575493,127.050073696704,6,126,7,144,6,131,7.0,151.0,7.0,148.0,7.0,148.0,2,14,42,862,20.5,49,17.6
615,S010002165,서울경수초등학교,서울특별시 성동구 뚝섬로13길 22,37.5404360421703,127.05806891914,2,36,2,30,3,47,2.0,42.0,2.0,42.0,2.0,32.0,2,6,15,235,15.7,19,12.4
616,S010002166,서울경일초등학교,서울특별시 성동구 뚝섬로 332,37.5409420789589,127.046604809895,2,34,3,45,3,44,2.0,31.0,3.0,41.0,3.0,47.0,0,0,16,242,15.1,20,12.1
617,S010002167,서울광남초등학교,서울특별시 광진구 아차산로70길 35,37.5407894383341,127.100663820026,7,188,7,185,8,233,9.0,247.0,9.0,257.0,10.0,257.0,0,0,50,1367,27.3,61,22.4
618,S010002168,서울광장초등학교,서울특별시 광진구 광장로1길 27,37.548505299999995,127.10105829999999,3,56,2,41,2,45,2.0,48.0,3.0,63.0,3.0,51.0,2,13,17,317,18.6,19,16.7
619,S010002169,서울구남초등학교,서울특별시 광진구 구의강변로 69,37.5370949717358,127.09229060678999,5,103,6,123,5,104,6.0,136.0,5.0,115.0,6.0,116.0,0,0,33,697,21.1,40,17.4
620,S010002170,서울구의초등학교,서울특별시 광진구 광나루로30길 49,37.5430070757485,127.080312567554,5,100,4,75,3,72,5.0,100.0,3.0,60.0,4.0,97.0,2,12,26,516,19.8,31,16.6
621,S010002171,서울금북초등학교,서울특별시 성동구 행당로1길 13,37.55749486338021,127.023558810814,7,149,6,127,6,125,6.0,127.0,6.0,115.0,6.0,118.0,2,10,39,771,19.8,45,17.1
622,S010002172,서울금옥초등학교,서울특별시 성동구 독서당로 251,37.5463018927409,127.01765288683399,3,78,2,39,2,40,3.0,43.0,2.0,35.0,3.0,38.0,2,5,17,278,16.4,21,13.2
623,S010002173,서울금호초등학교,서울특별시 성동구 무수막길 69,37.5518983915469,127.020755009678,6,113,5,101,5,86,5.0,85.0,4.0,84.0,3.0,54.0,2,11,30,534,17.8,36,14.8
624,S010002174,서울동명초등학교,서울특별시 성동구 마장로29길 29,37.568565,127.03537,3,37,2,39,2,37,3.0,45.0,4.0,71.0,2.0,45.0,2,11,18,285,15.8,23,12.4
625,S010002175,서울동의초등학교,서울특별시 광진구 영화사로 111,37.5534228057964,127.09904663146798,6,114,5,104,6,124,6.0,123.0,6.0,119.0,6.0,116.0,2,7,37,707,19.1,44,16.1
626,S010002176,서울동자초등학교,서울특별시 광진구 뚝섬로 561,37.5350582988376,127.072180410025,9,204,8,175,8,172,9.0,196.0,9.0,192.0,9.0,202.0,0,0,52,1141,21.9,61,18.7
627,S010002177,서울무학초등학교,서울특별시 성동구 무학봉15길 21,37.563094,127.02943799999998,4,78,4,64,5,87,4.0,78.0,4.0,80.0,3.0,58.0,2,12,26,457,17.6,30,15.2
628,S010002178,서울사근초등학교,서울특별시 성동구 사근동11길 16,37.5,127.0,2,30,2,32,2,27,2.0,27.0,1.0,20.0,2.0,26.0,2,11,13,173,13.3,16,10.8
629,S010002179,서울성수초등학교,서울특별시 성동구 아차산로17길 21,37.544309000000005,127.063378,3,41,3,43,2,39,3.0,42.0,3.0,43.0,3.0,45.0,1,4,18,257,14.3,23,11.2
630,S010002180,서울성자초등학교,서울특별시 광진구 뚝섬로56길 7,37.531162,127.083148,4,76,4,99,4,87,4.0,95.0,4.0,99.0,5.0,106.0,1,0,26,562,21.6,30,18.7
631,S010002181,서울신양초등학교,서울특별시 광진구 능동로 42,37.5346811946054,127.069994144139,4,84,4,76,4,79,4.0,74.0,5.0,92.0,4.0,75.0,2,7,27,487,18.0,35,13.9
632,S010002182,서울신자초등학교,서울특별시 광진구 뚝섬로46길 64,37.5302448220138,127.075587930284,3,57,3,52,3,52,3.0,55.0,2.0,41.0,3.0,57.0,2,9,19,323,17.0,23,14.0
633,S010002183,서울양남초등학교,서울특별시 광진구 뚝섬로64길 71,37.53079,127.08971000000001,2,21,2,30,2,24,3.0,29.0,1.0,19.0,1.0,16.0,1,7,12,146,12.2,16,9.1
634,S010002184,서울옥수초등학교,서울특별시 성동구 금호로1길 25,37.5459227080271,127.02218820839501,5,107,5,90,5,93,4.0,83.0,4.0,83.0,4.0,77.0,2,4,29,537,18.5,35,15.3
635,S010002185,서울옥정초등학교,서울특별시 성동구 한림말길 43,37.542308927839706,127.01578717574499,6,138,5,115,6,119,6.0,128.0,6.0,119.0,5.0,99.0,2,7,36,725,20.1,42,17.3
636,S010002186,서울용곡초등학교,서울특별시 광진구 용마산로22길 82,37.56710834661521,127.088451965081,4,65,4,73,3,59,4.0,82.0,4.0,87.0,4.0,67.0,1,5,24,438,18.3,28,15.6
637,S010002187,서울용답초등학교,서울특별시 성동구 용답25길 1,37.5607285633144,127.053761137656,2,33,2,32,2,22,2.0,46.0,3.0,47.0,2.0,39.0,2,11,15,230,15.3,20,11.5
638,S010002188,서울용마초등학교,서울특별시 광진구 천호대로113길 10,37.55811,127.0841,9,195,7,156,8,173,8.0,180.0,9.0,195.0,9.0,217.0,2,12,52,1128,21.7,67,16.8
639,S010002189,서울응봉초등학교,서울특별시 성동구 독서당로62길 28,37.550251947944496,127.03383195826,5,111,5,110,5,112,6.0,127.0,6.0,131.0,7.0,152.0,0,0,34,743,21.9,41,18.1
640,S010002190,서울자양초등학교,서울특별시 광진구 아차산로44길 26,37.5369887849728,127.079740385527,4,76,4,78,3,70,4.0,88.0,4.0,83.0,3.0,68.0,1,4,23,467,20.3,27,17.3
641,S010002191,서울장안초등학교,서울특별시 광진구 군자로 74,37.5498778014785,127.072402921885,5,88,5,91,3,62,5.0,99.0,4.0,73.0,4.0,87.0,2,11,28,511,18.3,32,16.0
642,S010002192,서울중광초등학교,서울특별시 광진구 긴고랑로13길 59,37.5652420520547,127.082695273226,3,55,2,33,2,36,2.0,45.0,2.0,33.0,2.0,35.0,1,8,14,245,17.5,17,14.4
643,S010002193,서울중마초등학교,서울특별시 광진구 동일로72길 43,37.5661418,127.0800646,3,64,3,60,3,42,4.0,88.0,4.0,82.0,4.0,63.0,1,6,22,405,18.4,28,14.5
644,S010002194,서울행당초등학교,서울특별시 성동구 고산자로8길 6,37.5570199415241,127.03487170760599,6,122,6,133,6,120,5.0,124.0,5.0,110.0,5.0,105.0,2,12,35,726,20.7,41,17.7
645,S010002195,서울화양초등학교,서울특별시 광진구 군자로 9,37.544459623151205,127.07099501707388,1,7,1,6,1,12,1.0,19.0,2.0,22.0,2.0,18.0,0,0,8,84,10.5,11,7.6
646,S010002196,성동초등학교,서울특별시 광진구 자양로4길 63,37.5332806475495,127.089280912796,4,123,4,123,4,121,4.0,120.0,4.0,119.0,4.0,112.0,0,0,24,718,29.9,24,29.9
647,S020000645,성동초등학교,부산광역시 남구 전포대로68번길 27,35.1430032,129.0696709,4,123,4,123,4,121,4.0,120.0,4.0,119.0,4.0,112.0,0,0,24,718,29.9,24,29.9
648,S070000199,성동초등학교,울산광역시 울주군 서생면 진하길 7,35.3855404,129.341525,4,123,4,123,4,121,4.0,120.0,4.0,119.0,4.0,112.0,0,0,24,718,29.9,24,29.9
649,S120000473,성동초등학교,충청남도 논산시 성동면 성동로240번길 30,36.199462100000005,127.03346609999998,4,123,4,123,4,121,4.0,120.0,4.0,119.0,4.0,112.0,0,0,24,718,29.9,24,29.9
650,S150006153,성동초등학교,경상북도 상주시 성동새싹길 14,36.414182000000004,128.17011200000002,4,123,4,123,4,121,4.0,120.0,4.0,119.0,4.0,112.0,0,0,24,718,29.9,24,29.9
651,S010002196,성동초등학교,서울특별시 광진구 자양로4길 63,37.5332806475495,127.089280912796,6,138,6,142,6,155,6.0,144.0,6.0,150.0,7.0,164.0,1,8,38,901,23.7,45,20.0
652,S020000645,성동초등학교,부산광역시 남구 전포대로68번길 27,35.1430032,129.0696709,6,138,6,142,6,155,6.0,144.0,6.0,150.0,7.0,164.0,1,8,38,901,23.7,45,20.0
653,S070000199,성동초등학교,울산광역시 울주군 서생면 진하길 7,35.3855404,129.341525,6,138,6,142,6,155,6.0,144.0,6.0,150.0,7.0,164.0,1,8,38,901,23.7,45,20.0
654,S120000473,성동초등학교,충청남도 논산시 성동면 성동로240번길 30,36.199462100000005,127.03346609999998,6,138,6,142,6,155,6.0,144.0,6.0,150.0,7.0,164.0,1,8,38,901,23.7,45,20.0
655,S150006153,성동초등학교,경상북도 상주시 성동새싹길 14,36.414182000000004,128.17011200000002,6,138,6,142,6,155,6.0,144.0,6.0,150.0,7.0,164.0,1,8,38,901,23.7,45,20.0
656,S010002196,성동초등학교,서울특별시 광진구 자양로4길 63,37.5332806475495,127.089280912796,1,11,1,12,1,16,1.0,14.0,1.0,18.0,1.0,11.0,0,0,6,82,13.7,7,11.7
657,S020000645,성동초등학교,부산광역시 남구 전포대로68번길 27,35.1430032,129.0696709,1,11,1,12,1,16,1.0,14.0,1.0,18.0,1.0,11.0,0,0,6,82,13.7,7,11.7
658,S070000199,성동초등학교,울산광역시 울주군 서생면 진하길 7,35.3855404,129.341525,1,11,1,12,1,16,1.0,14.0,1.0,18.0,1.0,11.0,0,0,6,82,13.7,7,11.7
659,S120000473,성동초등학교,충청남도 논산시 성동면 성동로240번길 30,36.199462100000005,127.03346609999998,1,11,1,12,1,16,1.0,14.0,1.0,18.0,1.0,11.0,0,0,6,82,13.7,7,11.7
660,S150006153,성동초등학교,경상북도 상주시 성동새싹길 14,36.414182000000004,128.17011200000002,1,11,1,12,1,16,1.0,14.0,1.0,18.0,1.0,11.0,0,0,6,82,13.7,7,11.7
661,S010002196,성동초등학교,서울특별시 광진구 자양로4길 63,37.5332806475495,127.089280912796,1,8,1,13,1,7,1.0,3.0,1.0,8.0,1.0,6.0,1,4,7,49,7.0,8,6.1
662,S020000645,성동초등학교,부산광역시 남구 전포대로68번길 27,35.1430032,129.0696709,1,8,1,13,1,7,1.0,3.0,1.0,8.0,1.0,6.0,1,4,7,49,7.0,8,6.1
663,S070000199,성동초등학교,울산광역시 울주군 서생면 진하길 7,35.3855404,129.341525,1,8,1,13,1,7,1.0,3.0,1.0,8.0,1.0,6.0,1,4,7,49,7.0,8,6.1
664,S120000473,성동초등학교,충청남도 논산시 성동면 성동로240번길 30,36.199462100000005,127.03346609999998,1,8,1,13,1,7,1.0,3.0,1.0,8.0,1.0,6.0,1,4,7,49,7.0,8,6.1
665,S150006153,성동초등학교,경상북도 상주시 성동새싹길 14,36.414182000000004,128.17011200000002,1,8,1,13,1,7,1.0,3.0,1.0,8.0,1.0,6.0,1,4,7,49,7.0,8,6.1
666,S010002196,성동초등학교,서울특별시 광진구 자양로4길 63,37.5332806475495,127.089280912796,2,31,2,43,2,47,3.0,59.0,3.0,56.0,3.0,69.0,1,4,16,309,19.3,20,15.5
667,S020000645,성동초등학교,부산광역시 남구 전포대로68번길 27,35.1430032,129.0696709,2,31,2,43,2,47,3.0,59.0,3.0,56.0,3.0,69.0,1,4,16,309,19.3,20,15.5
668,S070000199,성동초등학교,울산광역시 울주군 서생면 진하길 7,35.3855404,129.341525,2,31,2,43,2,47,3.0,59.0,3.0,56.0,3.0,69.0,1,4,16,309,19.3,20,15.5
669,S120000473,성동초등학교,충청남도 논산시 성동면 성동로240번길 30,36.199462100000005,127.03346609999998,2,31,2,43,2,47,3.0,59.0,3.0,56.0,3.0,69.0,1,4,16,309,19.3,20,15.5
670,S150006153,성동초등학교,경상북도 상주시 성동새싹길 14,36.414182000000004,128.17011200000002,2,31,2,43,2,47,3.0,59.0,3.0,56.0,3.0,69.0,1,4,16,309,19.3,20,15.5
671,S010002197,세종초등학교,서울특별시 광진구 군자로 114,37.5530324,127.0729061,2,58,2,62,2,61,2.0,62.0,2.0,61.0,2.0,60.0,0,0,12,364,30.3,12,30.3
672,S090005186,세종초등학교,경기도 여주시 세종로 204-19,37.279895700000004,127.6338455,2,58,2,62,2,61,2.0,62.0,2.0,61.0,2.0,60.0,0,0,12,364,30.3,12,30.3
673,S010002197,세종초등학교,서울특별시 광진구 군자로 114,37.5530324,127.0729061,5,134,5,134,5,138,5.0,130.0,7.0,171.0,5.0,133.0,1,5,33,845,25.6,42,20.1
674,S090005186,세종초등학교,경기도 여주시 세종로 204-19,37.279895700000004,127.6338455,5,134,5,134,5,138,5.0,130.0,7.0,171.0,5.0,133.0,1,5,33,845,25.6,42,20.1
675,S010002198,한양초등학교,서울특별시 성동구 살곶이길 208,37.5576198623298,127.050264009727,4,115,4,113,4,113,4.0,112.0,4.0,112.0,4.0,101.0,0,0,24,666,27.8,24,27.8
676,S010002289,광운초등학교,서울특별시 성북구 한천로 693,37.6190581901755,127.055089853578,3,84,4,112,4,112,4.0,112.0,3.0,90.0,3.0,88.0,0,0,21,598,28.5,21,28.5
677,S010002290,대광초등학교,서울특별시 성북구 안암로 5,37.5791512170431,127.02344789498001,3,84,3,85,3,86,3.0,84.0,3.0,69.0,3.0,75.0,0,0,18,483,26.8,22,22.0
678,S090003419,대광초등학교,경기도 연천군 신서면 연신로 1127-1,38.1830187544513,127.10535334033301,3,84,3,85,3,86,3.0,84.0,3.0,69.0,3.0,75.0,0,0,18,483,26.8,22,22.0
679,S010002290,대광초등학교,서울특별시 성북구 안암로 5,37.5791512170431,127.02344789498001,1,7,1,6,1,9,1.0,7.0,1.0,5.0,1.0,7.0,1,4,7,45,6.4,8,5.6
680,S090003419,대광초등학교,경기도 연천군 신서면 연신로 1127-1,38.1830187544513,127.10535334033301,1,7,1,6,1,9,1.0,7.0,1.0,5.0,1.0,7.0,1,4,7,45,6.4,8,5.6
681,S010002291,매원초등학교,서울특별시 성북구 북악산로 870,37.598015000000004,127.019023,3,86,3,86,3,84,3.0,84.0,3.0,81.0,3.0,75.0,0,0,18,496,27.6,36,13.8
682,S090002457,매원초등학교,경기도 수원시 영통구 광교호수공원로 100,37.274477000000005,127.064178,3,86,3,86,3,84,3.0,84.0,3.0,81.0,3.0,75.0,0,0,18,496,27.6,36,13.8
683,S150003456,매원초등학교,경상북도 칠곡군 왜관읍 매원1길 5-32,35.992183000000004,128.429885,3,86,3,86,3,84,3.0,84.0,3.0,81.0,3.0,75.0,0,0,18,496,27.6,36,13.8
684,S010002291,매원초등학교,서울특별시 성북구 북악산로 870,37.598015000000004,127.019023,10,257,8,222,8,213,10.0,277.0,8.0,213.0,8.0,209.0,2,14,54,1405,26.0,64,22.0
685,S090002457,매원초등학교,경기도 수원시 영통구 광교호수공원로 100,37.274477000000005,127.064178,10,257,8,222,8,213,10.0,277.0,8.0,213.0,8.0,209.0,2,14,54,1405,26.0,64,22.0
686,S150003456,매원초등학교,경상북도 칠곡군 왜관읍 매원1길 5-32,35.992183000000004,128.429885,10,257,8,222,8,213,10.0,277.0,8.0,213.0,8.0,209.0,2,14,54,1405,26.0,64,22.0
687,S010002291,매원초등학교,서울특별시 성북구 북악산로 870,37.598015000000004,127.019023,1,18,1,14,1,20,1.0,8.0,1.0,10.0,1.0,4.0,0,0,6,74,12.3,7,10.6
688,S090002457,매원초등학교,경기도 수원시 영통구 광교호수공원로 100,37.274477000000005,127.064178,1,18,1,14,1,20,1.0,8.0,1.0,10.0,1.0,4.0,0,0,6,74,12.3,7,10.6
689,S150003456,매원초등학교,경상북도 칠곡군 왜관읍 매원1길 5-32,35.992183000000004,128.429885,1,18,1,14,1,20,1.0,8.0,1.0,10.0,1.0,4.0,0,0,6,74,12.3,7,10.6
690,S010002292,서울개운초등학교,서울특별시 성북구 정릉로48길 52,37.601824,127.027576,5,116,5,90,6,111,6.0,119.0,6.0,135.0,6.0,132.0,1,2,35,705,20.1,44,16.0
691,S010002293,서울길음초등학교,서울특별시 성북구 길음로 142,37.613631508149204,127.01665849806801,6,124,7,155,8,191,8.0,186.0,10.0,245.0,10.0,244.0,1,3,50,1148,23.0,59,19.5
692,S010002294,서울돈암초등학교,서울특별시 성북구 동소문로13길 38,37.593319,127.01313700000001,6,115,6,114,6,130,7.0,139.0,7.0,146.0,8.0,186.0,2,8,42,838,20.0,56,15.0
693,S010002295,서울동신초등학교,서울특별시 성북구 보문사길 50,37.583286072206505,127.017059309723,4,77,3,61,3,59,3.0,70.0,4.0,76.0,3.0,66.0,2,7,22,416,18.9,26,16.0
694,S010002296,서울미아초등학교,서울특별시 성북구 삼양로 77,37.363457000000004,127.012316,8,209,7,191,8,209,8.0,202.0,8.0,202.0,8.0,204.0,2,9,49,1226,25.0,59,20.8
695,S010002297,서울미양초등학교,서울특별시 강북구 솔샘로 195,37.621221399999996,127.01370390000001,3,67,4,74,4,64,5.0,91.0,4.0,87.0,4.0,75.0,2,7,26,465,17.9,30,15.5
696,S010002298,서울번동초등학교,서울특별시 강북구 오현로 204,37.62902556993971,127.04003939095502,4,82,4,73,5,93,5.0,95.0,5.0,106.0,6.0,121.0,2,8,31,578,18.6,40,14.5
697,S010002299,서울삼각산초등학교,서울특별시 강북구 삼양로19길 141,37.616162,127.014471,7,146,7,178,7,170,9.0,216.0,7.0,179.0,8.0,201.0,0,0,45,1090,24.2,55,19.8
698,S010002300,서울삼선초등학교,서울특별시 성북구 보문로29길 106,37.58714287515429,127.01267173118299,4,82,4,90,5,95,5.0,105.0,6.0,125.0,5.0,117.0,2,4,31,618,19.9,37,16.7
699,S010002301,서울삼양초등학교,서울특별시 강북구 삼양로49길 17,37.6232937742549,127.01614864583,4,80,4,68,4,71,4.0,74.0,4.0,85.0,4.0,72.0,2,5,26,455,17.5,31,14.7
700,S010002302,서울석관초등학교,서울특별시 성북구 돌곶이로22길 21,37.6110234081501,127.058354803172,5,104,5,109,4,85,5.0,115.0,4.0,96.0,5.0,95.0,2,11,30,615,20.5,35,17.6
701,S010002303,서울성북초등학교,서울특별시 성북구 성북로 102-10,37.593839,126.998319,2,30,2,37,2,30,3.0,47.0,2.0,40.0,2.0,37.0,2,8,15,229,15.3,20,11.5
702,S010002304,서울송중초등학교,서울특별시 강북구 오현로 9,37.6170017897908,127.031465458195,5,90,6,120,6,124,5.0,118.0,6.0,123.0,6.0,128.0,2,9,36,712,19.8,46,15.5
703,S010002305,서울송천초등학교,서울특별시 강북구 삼양로20길 29,37.615716,127.023401,3,62,4,79,4,96,4.0,93.0,4.0,88.0,4.0,83.0,1,4,24,505,21.0,29,17.4
704,S010002306,서울수송초등학교,서울특별시 강북구 한천로124길 14,37.6373239675309,127.033205210975,4,96,4,77,5,108,5.0,111.0,6.0,121.0,6.0,122.0,2,4,32,639,20.0,42,15.2
705,S010002307,서울수유초등학교,서울특별시 강북구 삼양로74길 39,37.630802,127.02036899999999,5,113,5,92,5,103,5.0,113.0,5.0,114.0,6.0,123.0,2,10,33,668,20.2,41,16.3
706,S010002308,서울숭곡초등학교,서울특별시 성북구 종암로40길 30,37.6084312159704,127.032816360222,6,138,4,100,4,101,4.0,109.0,4.0,83.0,3.0,79.0,2,11,27,621,23.0,32,19.4
