,정보공시 학교코드,학교명,학교도로명 주소,위도,경도,1학년 학급수,1학년 학생수,2학년 학급수,2학년 학생수,3학년 학급수,3학년 학생수,4학년 학급수,4학년 학생수,5학년 학급수,5학년 학생수,6학년 학급수,6학년 학생수,특수학급 학급수,특수학급 학생수,학급수(계),학생수(계),학급당 학생수(계),교사수,수업교원 1인당 학생수
0,S000003511,서울교육대학교부설초등학교,서울특별시 서초구 서초중앙로 96,37.49073913,127.0154235,4,95,4,95,4,95,5,104,5,108,5,110,1,5,28,612,21.9,31,19.7
1,S000003563,서울대학교사범대학부설초등학교,서울특별시 종로구 대학로 64,37.577017,127.003091,5,97,5,100,5,102,5,102,5,102,5,104,1,6,31,613,19.8,36,17
2,S010000738,서울개일초등학교,서울특별시 강남구 개포로 401,37.48621378,127.057742,5,183,5,163,5,176,6,186,6,177,6,193,0,0,33,1078,32.7,42,25.7
3,S010000741,서울구룡초등학교,서울특별시 강남구 개포로 263,37.48119253,127.0517549,5,109,5,115,5,115,6,131,6,133,5,132,2,10,34,745,21.9,38,19.6
4,S010000742,서울논현초등학교,서울특별시 강남구 강남대로120길 33,37.5081699,127.0260317,3,34,2,47,2,34,2,46,2,46,2,46,2,13,15,266,17.7,18,14.8
5,S010000743,서울대곡초등학교,서울특별시 강남구 남부순환로 3022,37.49471191,127.0650265,6,148,5,133,8,193,8,226,9,236,11,270,1,3,48,1209,25.2,59,20.5
6,S010000744,서울대도초등학교,서울특별시 강남구 선릉로 209,37.49276798,127.053346,7,223,8,277,10,310,12,419,12,393,13,403,0,0,62,2025,32.7,80,25.3
7,S010000745,서울대모초등학교,서울특별시 강남구 광평로20길 27,37.481536,127.086562,5,123,5,135,5,143,5,150,6,186,7,183,0,0,33,920,27.9,43,21.4
8,S010000746,서울대왕초등학교,서울특별시 강남구 헌릉로618길 8,37.46462136,127.1055895,5,91,4,86,4,103,4,94,6,133,8,160,2,5,33,672,20.4,42,16
9,S010000747,서울대진초등학교,서울특별시 강남구 개포로109길 74,37.49701058,127.0780785,3,50,2,44,3,47,2,48,3,48,2,33,2,5,17,275,16.2,20,13.8
10,S010000748,서울대청초등학교,서울특별시 강남구 양재대로55길 28,37.49313304,127.0877857,2,16,2,21,1,16,2,20,2,21,2,15,1,7,12,116,9.7,15,7.7
11,S010000749,서울대치초등학교,서울특별시 강남구 양재천로 363,37.49131135,127.0619659,5,126,5,167,8,251,8,275,11,327,11,347,0,0,48,1493,31.1,62,24.1
12,S010000750,서울대현초등학교,서울특별시 강남구 역삼로98길 16,37.5,127.1,4,105,4,103,4,111,4,128,7,171,7,188,2,7,32,813,25.4,38,21.4
13,S010000751,서울도곡초등학교,서울특별시 강남구 선릉로64길 33,37.49950701,127.0544455,5,107,5,125,5,138,6,158,7,185,8,215,2,9,38,937,24.7,45,20.8
14,S010000752,서울도성초등학교,서울특별시 강남구 역삼로 313,37.50146282,127.0488738,7,210,7,238,9,289,10,328,11,358,13,412,1,4,58,1839,31.7,79,23.3
15,S010000753,서울반원초등학교,서울특별시 서초구 잠원로3길 28,37.5102082,127.0039023,7,211,7,196,8,211,9,229,9,240,10,262,0,0,50,1349,27,60,22.5
16,S010000754,서울반포초등학교,서울특별시 서초구 신반포로 55-4,37.502916,126.991055,0,0,2,15,2,18,2,19,3,36,7,127,0,0,16,215,13.4,19,11.3
17,S010000755,서울방배초등학교,서울특별시 서초구 방배중앙로13길 26,37.48676419,126.9871372,5,123,5,123,4,115,7,167,6,138,7,185,2,10,36,861,23.9,42,20.5
18,S010000756,서울방일초등학교,서울특별시 서초구 방배로18길 52,37.4853425,126.9982024,7,186,6,163,6,148,6,156,6,153,6,168,1,5,38,979,25.8,45,21.8
19,S010000757,서울방현초등학교,서울특별시 서초구 효령로4길 58,37.4763718,126.9901785,2,34,2,24,2,35,2,46,3,47,3,53,0,0,14,239,17.1,16,14.9
20,S010000758,서울봉은초등학교,서울특별시 강남구 학동로 610,37.52008278,127.0609309,4,83,4,81,4,81,4,79,3,82,4,83,0,0,23,489,21.3,27,18.1
21,S010000759,서울삼릉초등학교,서울특별시 강남구 봉은사로63길 22,37.51325956,127.0469495,4,71,4,85,3,85,4,105,4,98,4,85,0,0,23,529,23,27,19.6
22,S010000760,서울서래초등학교,서울특별시 서초구 방배로 260,37.5,126.9,7,202,7,212,7,212,8,262,8,245,8,225,2,15,47,1373,29.2,54,25.4
23,S010000761,서울서원초등학교,서울특별시 서초구 고무래로 63,37.5,127,10,267,8,253,9,267,9,277,8,239,7,209,2,12,53,1524,28.8,69,22.1
24,S010000762,서울서이초등학교,서울특별시 서초구 서운로 35,37.5,127,10,270,8,242,7,208,8,258,7,221,7,231,0,0,47,1430,30.4,53,27
25,S010000763,서울서일초등학교,서울특별시 서초구 남부순환로339길 38,37.48529597,127.0221612,4,86,4,88,3,80,4,94,4,89,4,105,1,6,24,548,22.8,28,19.6
26,S010000764,서울서초초등학교,서울특별시 서초구 서운로 178,37.499311,127.024064,6,169,6,162,6,172,6,171,6,204,6,174,1,5,37,1057,28.6,47,22.5
27,S010000765,서울수서초등학교,서울특별시 강남구 광평로51길 46,37.4,127.1,2,34,2,19,2,26,2,17,2,28,2,20,2,9,14,153,10.9,18,8.5
28,S010000766,서울신구초등학교,서울특별시 강남구 압구정로18길 28,37.5233613,127.0239915,4,91,3,70,4,78,4,85,3,64,4,90,2,8,24,486,20.3,28,17.4
29,S010000767,서울신동초등학교,서울특별시 서초구 나루터로 15,37.51712824,127.0113885,7,160,7,186,7,190,8,230,9,242,11,271,0,0,49,1279,26.1,56,22.8
30,S010000768,서울신중초등학교,서울특별시 서초구 남부순환로317길 15,37.48001,127.009623,5,127,6,137,6,136,6,167,6,138,7,174,1,6,37,885,23.9,43,20.6
31,S010000769,서울압구정초등학교,서울특별시 강남구 압구정로39길 29,37.5316708,127.031165,6,145,6,137,5,125,7,181,7,172,6,155,0,0,37,915,24.7,44,20.8
32,S010000770,서울양재초등학교,서울특별시 서초구 바우뫼로18길 14,37.47416448,127.0318939,3,69,4,101,5,103,5,108,4,97,4,96,2,8,27,582,21.6,32,18.2
33,S010000771,서울양전초등학교,서울특별시 강남구 개포로 513,37.4903657,127.0694778,4,76,4,86,4,97,5,105,4,103,4,89,1,7,26,563,21.7,31,18.2
34,S010000772,서울언남초등학교,서울특별시 서초구 헌릉로8길 42,37.454144,127.0617,7,165,9,226,9,213,7,192,7,165,6,169,3,15,48,1145,23.9,60,19.1
35,S010000773,서울언북초등학교,서울특별시 강남구 삼성로135길 42,37.519926,127.0451,9,257,9,285,10,301,10,355,10,306,11,336,2,14,61,1854,30.4,75,24.7
36,S010000774,서울언주초등학교,서울특별시 강남구 남부순환로363길 19,37.4,127,7,212,7,232,9,277,9,251,10,299,9,293,2,13,53,1577,29.8,60,26.3
37,S010000775,서울역삼초등학교,서울특별시 강남구 강남대로66길 21,37.49316115,127.032603,3,58,3,58,2,57,2,58,3,61,3,61,2,11,18,364,20.2,22,16.5
38,S010000776,서울영희초등학교,서울특별시 강남구 일원로 21,37.49230166,127.0811312,2,49,2,38,3,51,2,46,3,64,3,49,2,12,17,309,18.2,20,15.5
39,S010000777,서울왕북초등학교,서울특별시 강남구 광평로31길 74,37.4864367,127.0860406,6,150,5,133,5,148,6,167,5,134,6,170,2,8,35,910,26,42,21.7
40,S010000778,서울우암초등학교,서울특별시 서초구 바우뫼로7길 38,37.47229591,127.023722,3,47,2,37,2,44,2,47,2,44,3,60,2,6,16,285,17.8,19,15
41,S010000779,서울원명초등학교,서울특별시 서초구 고무래로 90-6,37.50077618,127.0167058,6,175,7,201,7,212,7,206,7,186,9,251,0,0,43,1231,28.6,56,22
42,S010000780,서울원촌초등학교,서울특별시 서초구 사평대로45길 26,37.5061857,127.0124612,7,205,6,175,6,169,8,203,8,188,7,169,2,12,44,1121,25.5,54,20.8
43,S010000781,서울이수초등학교,서울특별시 서초구 방배천로4길 23,37.47837007,126.9844162,4,97,4,84,4,94,3,79,5,112,4,97,2,6,26,569,21.9,30,19
44,S010000782,서울일원초등학교,서울특별시 강남구 영동대로4길 20,37.48978925,127.0763251,8,191,6,161,7,193,7,197,7,196,8,200,1,4,44,1142,26,51,22.4
45,S010000783,서울잠원초등학교,서울특별시 서초구 신반포로16길 15-25,37.50188,126.99767,10,282,9,255,10,259,11,298,10,277,10,288,0,0,60,1659,27.7,74,22.4
46,S010000784,서울청담초등학교,서울특별시 강남구 압구정로71길 9,37.5279725,127.0452701,4,92,4,85,4,77,3,68,3,74,4,99,0,0,22,495,22.5,26,19
47,S010000785,서울포이초등학교,서울특별시 강남구 개포로22길 87,37.475962,127.052079,5,77,5,78,4,82,4,76,4,81,4,81,1,4,27,479,17.7,31,15.5
48,S010000786,서울학동초등학교,서울특별시 강남구 선릉로115길 42,37.51206565,127.0398094,4,83,3,85,3,79,4,84,3,77,4,85,0,0,21,493,23.5,24,20.5
49,S010000897,서울가동초등학교,서울특별시 송파구 중대로20길 47,37.49741173,127.1300169,6,120,6,132,6,123,7,159,7,156,7,163,0,0,39,853,21.9,49,17.4
50,S010000898,서울가락초등학교,서울특별시 송파구 송파대로37길 45,37.50002196,127.1076025,11,204,9,200,9,208,9,223,7,172,7,153,1,7,53,1167,22,64,18.2
51,S010000899,서울가원초등학교,서울특별시 송파구 중대로4길 8,37.48944098,127.1110293,5,94,5,116,5,121,4,99,5,111,5,98,0,0,29,639,22,34,18.8
52,S010000900,서울가주초등학교,서울특별시 송파구 오금로40길 37,37.49656559,127.1292872,7,147,6,127,5,113,7,148,6,135,7,160,0,0,38,830,21.8,47,17.7
53,S010000901,서울강덕초등학교,서울특별시 강동구 동남로82길 94-54,37.55954693,127.160484,8,188,8,205,8,211,8,199,7,161,7,180,1,3,47,1147,24.4,56,20.5
54,S010000902,서울강동초등학교,서울특별시 강동구 상암로14길 77,37.54636479,127.1301879,5,95,3,71,4,80,4,94,5,100,4,91,2,9,27,540,20,28,19.3
55,S010000903,서울강일초등학교,서울특별시 강동구 아리수로98길 24,37.56535,127.17733,5,111,4,94,5,113,6,137,6,126,7,148,2,5,35,734,21,41,17.9
56,S010000904,서울거여초등학교,서울특별시 송파구 마천로25길 18,37.50516583,127.1409736,5,115,4,92,5,110,5,111,6,115,5,98,2,12,32,653,20.4,37,17.6
57,S010000905,서울거원초등학교,서울특별시 송파구 양산로2길 26,37.487601,127.144669,6,119,6,94,5,98,6,111,7,126,7,122,2,9,39,679,17.4,44,15.4
58,S010000906,서울고덕초등학교,서울특별시 강동구 아리수로82길 42,37.560723,127.166557,5,83,4,77,3,56,3,66,3,51,3,57,2,6,23,396,17.2,26,15.2
59,S010000907,서울고명초등학교,서울특별시 강동구 고덕로46길 53,37.55297225,127.1474373,8,136,6,151,6,126,5,124,5,122,5,107,0,0,35,766,21.9,40,19.2
60,S010000908,서울고일초등학교,서울특별시 강동구 구천면로93길 20,37.55154082,127.1694116,12,331,13,351,11,281,11,275,9,247,8,223,1,5,65,1713,26.4,78,22
61,S010000909,서울길동초등학교,서울특별시 강동구 양재대로116길 69,37.53859177,127.1449741,6,110,7,146,5,109,7,151,6,136,6,128,2,11,39,791,20.3,44,18
62,S010000910,서울남천초등학교,서울특별시 송파구 성내천로 207,37.501176,127.150731,3,46,3,55,3,57,3,65,3,67,4,72,2,2,21,364,17.3,24,15.2
63,S010000911,서울대명초등학교,서울특별시 강동구 상암로 271,37.547292,127.153243,6,117,5,119,6,126,6,147,6,143,7,175,1,4,37,831,22.5,45,18.5
64,S010000913,서울마천초등학교,서울특별시 송파구 마천로61다길 24,37.49550698,127.1526301,7,135,5,121,6,125,7,152,8,180,8,160,2,11,43,884,20.6,50,17.7
65,S010000914,서울명덕초등학교,서울특별시 강동구 양재대로156길 11,37.55676296,127.1450817,10,298,10,336,9,284,10,310,9,309,9,276,1,7,58,1820,31.4,66,27.6
66,S010000915,서울명원초등학교,서울특별시 강동구 명일로 364,37.55128893,127.1504986,4,125,4,113,4,117,6,155,5,136,7,164,1,7,31,817,26.4,39,20.9
67,S010000916,서울명일초등학교,서울특별시 강동구 고덕로38길 8,37.55454236,127.1425695,10,192,8,174,7,150,8,184,7,170,7,158,2,13,49,1041,21.2,57,18.3
68,S010000917,서울묘곡초등학교,서울특별시 강동구 동남로79길 46,37.558201,127.153231,9,199,10,259,10,244,11,267,11,274,12,290,1,5,64,1538,24,76,20.2
69,S010000918,서울문덕초등학교,서울특별시 송파구 송이로34길 60,37.485326,127.127395,6,112,4,99,5,109,4,81,4,91,4,90,1,7,28,589,21,33,17.8
70,S010000919,서울문정초등학교,서울특별시 송파구 문정로5길 20,37.48907312,127.1290119,5,109,4,93,5,118,6,142,6,132,6,117,2,8,34,719,21.1,40,18
71,S010000920,서울방산초등학교,서울특별시 송파구 오금로27길 42,37.509493,127.121066,5,109,4,95,5,108,4,102,6,128,5,102,0,0,29,644,22.2,34,18.9
72,S010000921,서울방이초등학교,서울특별시 송파구 위례성대로10길 4,37.513554,127.12094,6,115,5,93,3,68,4,93,5,93,5,94,2,10,30,566,18.9,35,16.2
73,S010000922,서울삼전초등학교,서울특별시 송파구 백제고분로28길 19,37.501622,127.092467,6,110,6,128,5,110,7,137,6,129,7,152,3,16,40,782,19.6,46,17
74,S010000923,서울상일초등학교,서울특별시 강동구 천호대로 1477,37.54757172,127.1726617,2,34,2,23,1,22,2,27,2,34,3,49,1,2,13,191,14.7,15,12.7
75,S010000924,서울석촌초등학교,서울특별시 송파구 가락로11길 26,37.5027584,127.1048724,6,121,6,115,5,108,6,128,6,126,6,133,2,13,37,744,20.1,44,16.9
76,S010000925,서울선린초등학교,서울특별시 강동구 진황도로61길 29,37.52921,127.145793,4,78,4,79,3,61,4,79,3,65,3,58,1,6,22,426,19.4,24,17.8
77,S010000926,서울선사초등학교,서울특별시 강동구 올림픽로 837,37.55584906,127.1282034,5,91,5,91,5,98,7,130,6,116,6,112,0,0,34,638,18.8,41,15.6
78,S010000927,서울성내초등학교,서울특별시 강동구 성내로3길 19,37.53135876,127.1225001,8,154,7,138,6,128,7,135,6,132,5,128,2,12,41,827,20.2,48,17.2
79,S010000928,서울성일초등학교,서울특별시 강동구 성내로15길 33,37.5291763,127.1283603,9,173,9,179,8,177,8,182,9,190,9,187,2,8,54,1096,20.3,67,16.4
80,S010000929,서울세륜초등학교,서울특별시 송파구 양재대로 1264,37.518634,127.133564,5,78,5,88,4,99,5,107,5,118,6,136,2,11,32,637,19.9,37,17.2
81,S010000930,서울송전초등학교,서울특별시 송파구 석촌호수로 159,37.50881566,127.0951331,6,143,5,141,5,111,6,136,5,138,6,155,0,0,33,824,25,38,21.7
82,S010000931,서울송파초등학교,서울특별시 송파구 백제고분로 400,37.50713665,127.1111188,5,96,4,88,4,93,4,93,4,90,5,104,1,5,27,569,21.1,32,17.8
83,S010000932,서울신가초등학교,서울특별시 송파구 송이로 75,37.50036334,127.1198801,6,128,5,114,5,104,6,121,6,121,5,87,1,11,34,686,20.2,40,17.2
84,S010000933,서울신명초등학교,서울특별시 강동구 명일로24길 33,37.54094252,127.149989,4,77,3,51,3,73,4,91,3,64,5,89,1,5,23,450,19.6,30,15
85,S010000934,서울신암초등학교,서울특별시 강동구 올림픽로93길 33-16,37.55002187,127.1244047,8,139,6,115,5,104,7,139,5,111,6,99,2,11,39,718,18.4,47,15.3
86,S010000935,서울신천초등학교,서울특별시 송파구 올림픽로 215,37.51399831,127.0950356,4,61,4,69,3,61,5,68,4,71,4,77,2,12,26,419,16.1,32,13.1
87,S010000936,서울아주초등학교,서울특별시 송파구 올림픽로4길 59,37.50582752,127.0757669,4,62,3,70,3,53,4,72,4,84,4,80,0,0,22,421,19.1,26,16.2
88,S010000937,서울영풍초등학교,서울특별시 송파구 오금로57길 15,37.4962218,127.1430149,5,113,4,100,5,93,6,114,6,127,5,105,2,6,33,658,19.9,42,15.7
89,S010000938,서울오금초등학교,서울특별시 송파구 위례성대로22길 11,37.50938617,127.1315713,6,129,5,103,5,113,4,87,5,111,5,108,1,3,31,654,21.1,36,18.2
90,S010000939,서울오륜초등학교,서울특별시 송파구 양재대로 1196,37.51242465,127.1345084,3,68,3,61,4,80,6,106,5,107,5,105,0,0,26,527,20.3,31,17
91,S010000941,서울잠동초등학교,서울특별시 송파구 올림픽로35길 122,37.518515,127.100041,6,160,5,123,6,149,5,136,5,147,6,151,0,0,33,866,26.2,42,20.6
92,S010000942,서울잠신초등학교,서울특별시 송파구 잠실로 32,37.51414797,127.087946,8,205,8,228,9,256,9,279,8,253,10,269,0,0,52,1490,28.7,62,24
93,S010000943,서울잠실초등학교,서울특별시 송파구 올림픽로35길 20,37.5201684,127.1115047,7,179,7,186,6,168,7,186,6,169,8,200,1,7,42,1095,26.1,54,20.3
94,S010000944,서울잠일초등학교,서울특별시 송파구 올림픽로 95,37.51473995,127.0816351,9,269,8,247,9,288,11,337,10,307,10,288,1,6,58,1742,30,68,25.6
95,S010000945,서울잠전초등학교,서울특별시 송파구 올림픽로12길 51,37.50733935,127.0838483,5,87,3,67,3,74,5,103,5,97,5,93,1,4,27,525,19.4,33,15.9
96,S010000946,서울중대초등학교,서울특별시 송파구 송파대로36길 8,37.49981091,127.113605,8,158,7,168,8,178,8,187,7,168,7,164,1,5,46,1028,22.3,56,18.4
97,S010000947,서울천동초등학교,서울특별시 강동구 성안로 200,37.541015,127.1378276,8,155,6,139,6,127,6,139,5,111,6,131,2,7,39,809,20.7,45,18
98,S010000948,서울천일초등학교,서울특별시 강동구 구천면로 266,37.54436095,127.1334388,3,53,2,48,2,36,3,51,3,50,3,54,2,6,18,298,16.6,21,14.2
99,S010000949,서울천호초등학교,서울특별시 강동구 구천면로 310-11,37.54771987,127.1365906,6,113,5,106,6,105,6,112,6,122,6,113,2,9,37,680,18.4,44,15.5
100,S010000950,서울토성초등학교,서울특별시 송파구 풍성로20길 44,37.53188106,127.1156313,6,107,5,102,6,115,6,134,6,121,7,136,1,4,37,719,19.4,45,16
101,S010000951,서울평화초등학교,서울특별시 송파구 송파대로26길 22,37.491587,127.122669,2,33,2,28,2,24,2,31,2,26,2,30,1,4,13,176,13.5,17,10.4
102,S010000952,서울풍납초등학교,서울특별시 송파구 풍성로 43,37.53508641,127.1178674,3,57,4,71,3,53,4,66,3,63,4,71,2,7,23,388,16.9,26,14.9
103,S010000953,서울풍성초등학교,서울특별시 송파구 강동대로2길 13,37.52629333,127.1134868,3,40,3,61,4,67,2,45,3,48,3,42,1,4,19,307,16.2,24,12.8
104,S010000954,서울한산초등학교,서울특별시 강동구 풍성로 261,37.5286963,127.1410767,7,126,5,103,6,139,6,122,6,126,6,126,1,5,37,747,20.2,43,17.4
105,S010001004,서울가곡초등학교,서울특별시 강서구 공항대로36길 74,37.5557076,126.8361018,5,88,6,125,5,116,6,150,6,148,6,151,0,0,34,778,22.9,41,19
106,S010001005,서울가양초등학교,서울 강서구 허준로 186,37.56221656,126.8585205,3,43,2,33,2,34,3,27,2,33,3,34,2,8,17,212,12.5,23,9.2
107,S010001006,서울갈산초등학교,서울특별시 양천구 목동로 31,37.51198934,126.8697989,7,157,5,144,6,166,6,174,8,230,8,198,0,0,40,1069,26.7,47,22.7
108,S010001007,서울강서초등학교,서울특별시 양천구 오목로 31,37.52241335,126.8409892,7,118,8,182,7,153,8,179,8,175,9,207,2,12,49,1026,20.9,57,18
109,S010001008,서울강신초등학교,서울특별시 양천구 월정로 280,37.543019,126.8292741,6,122,6,119,6,126,6,132,7,157,5,114,1,4,37,774,20.9,43,18
110,S010001009,서울강월초등학교,서울특별시 양천구 신월로 97,37.516341,126.8334325,4,69,5,101,4,89,6,114,5,83,6,104,1,5,31,565,18.2,37,15.3
111,S010001010,서울개화초등학교,서울특별시 강서구 양천로 11,37.573669,126.804339,2,17,1,10,1,18,1,13,2,18,2,22,2,6,11,104,9.5,14,7.4
112,S010001011,서울경인초등학교,서울특별시 양천구 안양천로 1009,37.53286985,126.8856977,5,163,4,140,6,176,7,213,7,210,8,236,0,0,37,1138,30.8,43,26.5
113,S010001012,서울계남초등학교,서울특별시 양천구 목동동로2길 54,37.51016938,126.8600168,6,116,5,108,5,115,6,150,6,129,6,163,1,3,35,784,22.4,42,18.7
114,S010001013,서울공진초등학교,서울특별시 강서구 마곡서로 33,37.55782887,126.822611,12,309,11,346,14,372,10,306,10,299,8,228,2,6,67,1866,27.9,87,21.4
115,S010001014,서울공항초등학교,서울특별시 강서구 마곡서1로 68,37.56308924,126.8216478,9,253,10,274,9,260,10,302,9,249,8,213,2,9,57,1560,27.4,67,23.3
116,S010001015,서울남명초등학교,서울특별시 양천구 중앙로23길 3,37.51568355,126.8540839,5,102,4,83,4,68,4,87,3,72,3,64,2,13,25,489,19.6,29,16.9
117,S010001016,서울내발산초등학교,서울특별시 강서구 강서로46길 23,37.5508811,126.838163,8,204,7,206,6,189,9,264,10,287,9,239,2,9,51,1398,27.4,64,21.8
118,S010001017,서울등명초등학교,서울특별시 강서구 강서로56나길 34,37.56088,126.842329,2,17,1,17,1,5,2,22,1,20,1,13,1,2,9,96,10.7,11,8.7
119,S010001018,서울등서초등학교,서울특별시 강서구 화곡로58길 86,37.55188331,126.8550364,3,50,2,36,2,32,3,60,3,52,3,46,1,4,17,280,16.5,20,14
120,S010001019,서울등양초등학교,서울특별시 강서구 강서로56나길 140,37.5,126.8,2,36,2,25,2,26,2,23,2,20,2,24,1,3,13,157,12.1,16,9.8
121,S010001020,서울등원초등학교,서울특별시 강서구 화곡로65길 90,37.560326,126.850073,2,28,2,27,2,26,2,23,2,27,1,23,2,8,13,162,12.5,15,10.8
122,S010001021,서울등촌초등학교,서울특별시 강서구 등촌로39길 71,37.54761251,126.8579416,6,89,4,82,3,63,4,87,4,77,4,90,1,2,26,490,18.8,32,15.3
123,S010001022,서울등현초등학교,서울특별시 강서구 화곡로65길 124,37.5613697,126.8480367,5,91,5,98,4,92,4,90,4,96,5,100,0,0,27,567,21,32,17.7
124,S010001023,서울목동초등학교,서울특별시 양천구 목동동로12길 12,37.52280796,126.8721201,8,193,7,206,7,217,8,264,9,249,10,270,2,12,51,1411,27.7,62,22.8
125,S010001024,서울목원초등학교,서울특별시 양천구 목동중앙로 204,37.54293623,126.8824461,3,53,2,44,3,75,4,78,4,105,6,119,0,0,22,474,21.5,27,17.6
126,S010001025,서울발산초등학교,서울특별시 강서구 강서로45길 113,37.550352,126.831075,7,147,6,150,7,175,8,210,9,206,9,207,2,11,48,1106,23,60,18.4
127,S010001026,서울방화초등학교,서울특별시 강서구 양천로6길 92,37.568847,126.806877,5,95,4,95,4,70,5,113,4,92,4,89,1,5,27,559,20.7,34,16.4
128,S010001027,서울백석초등학교,서울특별시 강서구 공항대로 491,37.55357,126.86221,5,84,5,88,4,73,4,82,4,76,4,74,1,5,27,482,17.9,32,15.1
129,S010001028,서울삼정초등학교,서울특별시 강서구 금낭화로 222,37.58050789,126.8104935,3,43,2,36,2,42,2,38,2,33,2,40,1,4,14,236,16.9,17,13.9
130,S010001029,서울서정초등학교,서울특별시 양천구 목동로8길 19,37.52345129,126.8672365,6,116,5,129,5,128,6,155,6,159,6,157,1,3,35,847,24.2,42,20.2
131,S010001030,서울송정초등학교,서울특별시 강서구 공항대로3길 18,37.562177,126.810898,9,163,5,113,5,100,6,123,5,104,6,121,2,6,38,730,19.2,45,16.2
132,S010001031,서울송화초등학교,서울특별시 강서구 방화대로34길 2,37.56815091,126.8180317,8,184,9,194,9,217,10,219,10,221,7,167,1,5,54,1207,22.4,63,19.2
133,S010001032,서울신강초등학교,서울특별시 양천구 중앙로55길 72,37.526093,126.841651,4,65,4,76,3,62,3,61,4,95,4,86,2,4,24,449,18.7,28,16
134,S010001033,서울신곡초등학교,서울특별시 강서구 등촌로13자길 42-14,37.538577,126.855847,5,96,5,99,4,90,6,128,6,128,5,107,2,9,33,657,19.9,39,16.8
135,S010001034,서울신남초등학교,서울특별시 양천구 남부순환로83길,37.515897,126.844706,8,197,6,157,6,141,5,130,5,129,4,106,2,11,36,871,24.2,40,21.8
136,S010001035,서울신목초등학교,서울특별시 양천구 신목로5길 11-6,37.516832,126.872897,5,121,5,131,6,165,7,187,7,209,8,220,2,14,40,1047,26.2,50,20.9
137,S010001036,서울신서초등학교,서울특별시 양천구 목동서로10길 35,37.52055887,126.8623322,6,134,7,195,8,208,7,193,7,189,9,224,0,0,44,1143,26,50,22.9
138,S010001037,서울신원초등학교,서울특별시 양천구 남부순환로58길 32,37.52951576,126.8298644,3,51,4,78,4,75,4,71,4,74,3,61,2,9,24,419,17.5,29,14.4
139,S010001038,서울신월초등학교,서울특별시 강서구 강서로31길 48,37.539986,126.839029,5,97,5,95,5,101,5,102,6,111,5,95,2,13,33,614,18.6,41,15
140,S010001039,서울신정초등학교,서울특별시 강서구 곰달래로31가길 27,37.53207243,126.8523594,12,229,9,196,12,244,13,262,12,240,11,221,3,16,72,1408,19.6,86,16.4
141,S010001040,서울양강초등학교,서울특별시 양천구 오목로 101,37.52360403,126.8474801,4,85,4,78,4,85,4,78,4,75,5,105,1,4,26,510,19.6,31,16.5
142,S010001041,서울양동초등학교,서울특별시 양천구 오목로23길 24,37.526147,126.851111,3,55,3,52,3,56,3,59,4,71,3,60,2,6,21,359,17.1,24,15
143,S010001042,서울양명초등학교,서울특별시 양천구 중앙로 204,37.51637504,126.8566344,4,85,4,90,4,104,5,132,4,83,5,129,1,6,27,629,23.3,35,18
144,S010001043,서울양목초등학교,서울특별시 양천구 목동로11길 30,37.5239168,126.8614708,5,101,6,103,6,111,6,120,6,116,6,129,2,7,37,687,18.6,44,15.6
145,S010001044,서울양원초등학교,서울특별시 양천구 화곡로 16,37.5382167,126.8231056,3,41,2,36,2,38,2,34,3,50,2,37,2,7,16,243,15.2,22,11
146,S010001045,서울양천초등학교,서울특별시 강서구 양천로 329,37.570127,126.839551,4,54,3,49,2,45,4,79,4,77,3,63,0,0,20,367,18.4,23,16
147,S010001046,서울양화초등학교,서울특별시 양천구 목동중앙북로16길 57,37.54366993,126.8739855,7,121,5,105,5,110,4,99,5,100,4,93,2,7,32,635,19.8,37,17.2
148,S010001048,서울염동초등학교,서울특별시 강서구 양천로73길 17,37.55209431,126.8723507,6,147,6,171,6,147,7,175,6,156,7,175,1,5,39,976,25,48,20.3
149,S010001049,서울염창초등학교,서울특별시 강서구 양천로 646-28,37.55322433,126.8676002,7,162,6,144,6,134,7,175,6,141,6,140,2,9,40,905,22.6,48,18.9
150,S010001050,서울영도초등학교,서울특별시 양천구 목동중앙로 70,37.5360085,126.8715867,7,162,6,165,7,190,9,231,8,203,9,237,0,0,46,1188,25.8,55,21.6
151,S010001051,서울우장초등학교,서울특별시 강서구 화곡로 263,37.54963737,126.8459831,8,169,6,141,7,161,6,144,7,157,6,131,0,0,40,903,22.6,47,19.2
152,S010001052,서울월정초등학교,서울특별시 강서구 월정로 176,37.534313,126.836186,8,146,6,138,6,127,8,182,6,135,8,157,2,7,44,892,20.3,51,17.5
153,S010001053,서울월촌초등학교,서울특별시 양천구 목동중앙로 132,37.54069543,126.876258,6,131,6,152,6,155,8,190,8,193,9,231,0,0,43,1052,24.5,51,20.6
154,S010001054,서울은정초등학교,서울특별시 양천구 목동남로 85,37.51112896,126.8670457,3,54,3,52,3,51,2,55,3,51,4,72,2,11,20,346,17.3,23,15
155,S010001055,서울정곡초등학교,서울특별시 강서구 방화대로50길 22,37.57696042,126.818934,2,35,2,21,2,23,3,36,2,26,2,35,2,3,15,179,11.9,17,10.5
156,S010001056,서울정목초등학교,서울특별시 양천구 목동중앙로3길 30-10,37.53652975,126.870051,6,118,6,136,7,149,8,180,8,180,10,212,1,4,46,979,21.3,59,16.6
157,S010001057,서울지향초등학교,서울특별시 양천구 신정로11길 74,37.5133162,126.8373891,5,103,5,100,5,103,6,134,5,114,5,97,1,3,32,654,20.4,37,17.7
158,S010001058,서울치현초등학교,서울특별시 강서구 방화대로47길 43,37.57591942,126.8146438,5,90,5,78,5,89,5,100,6,118,6,103,1,4,33,582,17.6,40,14.6
159,S010001059,서울탑산초등학교,서울특별시 강서구 허준로 109,37.56701674,126.8523675,5,91,5,79,4,72,3,66,4,81,3,55,2,11,26,455,17.5,30,15.2
160,S010001060,서울화곡초등학교,서울특별시 강서구 초록마을로 28,37.5436698,126.8464706,6,111,7,136,6,115,7,143,7,153,7,155,2,9,42,822,19.6,49,16.8
161,S010001061,유석초등학교,서울특별시 강서구 화곡로69길 9,37.56080163,126.8537787,2,60,2,60,2,60,2,57,2,50,2,49,0,0,12,336,28,13,25.8
162,S010001197,동광초등학교,서울특별시 금천구 탑골로10길 45,37.451985,126.916713,3,91,3,93,3,89,3,84,2,48,2,47,0,0,16,452,28.3,37,12.2
163,S100000734,동광초등학교,강원도 고성군 토성면 교암1길 15,38.288908,128.543975,3,91,3,93,3,89,3,84,2,48,2,47,0,0,16,452,28.3,37,12.2
164,S110000431,동광초등학교,충청북도 보은군 보은읍 동광길 26,36.4880528,127.7188023,3,91,3,93,3,89,3,84,2,48,2,47,0,0,16,452,28.3,37,12.2
165,S160001056,동광초등학교,경상남도 고성군 거류면 봉암2길 11,35.00921,128.39937,3,91,3,93,3,89,3,84,2,48,2,47,0,0,16,452,28.3,37,12.2
166,S170000444,동광초등학교,제주특별자치도 제주시 태성로 6,33.5017138,126.5474021,3,91,3,93,3,89,3,84,2,48,2,47,0,0,16,452,28.3,37,12.2
167,S010001197,동광초등학교,서울특별시 금천구 탑골로10길 45,37.451985,126.916713,1,5,1,8,1,7,1,3,1,9,1,4,0,0,6,36,6,7,5.1
168,S100000734,동광초등학교,강원도 고성군 토성면 교암1길 15,38.288908,128.543975,1,5,1,8,1,7,1,3,1,9,1,4,0,0,6,36,6,7,5.1
169,S110000431,동광초등학교,충청북도 보은군 보은읍 동광길 26,36.4880528,127.7188023,1,5,1,8,1,7,1,3,1,9,1,4,0,0,6,36,6,7,5.1
170,S160001056,동광초등학교,경상남도 고성군 거류면 봉암2길 11,35.00921,128.39937,1,5,1,8,1,7,1,3,1,9,1,4,0,0,6,36,6,7,5.1
171,S170000444,동광초등학교,제주특별자치도 제주시 태성로 6,33.5017138,126.5474021,1,5,1,8,1,7,1,3,1,9,1,4,0,0,6,36,6,7,5.1
172,S010001197,동광초등학교,서울특별시 금천구 탑골로10길 45,37.451985,126.916713,3,56,3,52,3,50,3,61,3,67,4,75,2,10,21,371,17.7,25,14.8
173,S100000734,동광초등학교,강원도 고성군 토성면 교암1길 15,38.288908,128.543975,3,56,3,52,3,50,3,61,3,67,4,75,2,10,21,371,17.7,25,14.8
174,S110000431,동광초등학교,충청북도 보은군 보은읍 동광길 26,36.4880528,127.7188023,3,56,3,52,3,50,3,61,3,67,4,75,2,10,21,371,17.7,25,14.8
175,S160001056,동광초등학교,경상남도 고성군 거류면 봉암2길 11,35.00921,128.39937,3,56,3,52,3,50,3,61,3,67,4,75,2,10,21,371,17.7,25,14.8
176,S170000444,동광초등학교,제주특별자치도 제주시 태성로 6,33.5017138,126.5474021,3,56,3,52,3,50,3,61,3,67,4,75,2,10,21,371,17.7,25,14.8
177,S010001197,동광초등학교,서울특별시 금천구 탑골로10길 45,37.451985,126.916713,1,3,1,4,1,7,1,10,1,5,1,5,0,0,6,34,5.7,7,4.9
178,S100000734,동광초등학교,강원도 고성군 토성면 교암1길 15,38.288908,128.543975,1,3,1,4,1,7,1,10,1,5,1,5,0,0,6,34,5.7,7,4.9
179,S110000431,동광초등학교,충청북도 보은군 보은읍 동광길 26,36.4880528,127.7188023,1,3,1,4,1,7,1,10,1,5,1,5,0,0,6,34,5.7,7,4.9
180,S160001056,동광초등학교,경상남도 고성군 거류면 봉암2길 11,35.00921,128.39937,1,3,1,4,1,7,1,10,1,5,1,5,0,0,6,34,5.7,7,4.9
181,S170000444,동광초등학교,제주특별자치도 제주시 태성로 6,33.5017138,126.5474021,1,3,1,4,1,7,1,10,1,5,1,5,0,0,6,34,5.7,7,4.9
182,S010001197,동광초등학교,서울특별시 금천구 탑골로10길 45,37.451985,126.916713,6,162,7,187,6,163,7,197,7,187,7,180,2,12,42,1088,25.9,47,23.1
183,S100000734,동광초등학교,강원도 고성군 토성면 교암1길 15,38.288908,128.543975,6,162,7,187,6,163,7,197,7,187,7,180,2,12,42,1088,25.9,47,23.1
184,S110000431,동광초등학교,충청북도 보은군 보은읍 동광길 26,36.4880528,127.7188023,6,162,7,187,6,163,7,197,7,187,7,180,2,12,42,1088,25.9,47,23.1
185,S160001056,동광초등학교,경상남도 고성군 거류면 봉암2길 11,35.00921,128.39937,6,162,7,187,6,163,7,197,7,187,7,180,2,12,42,1088,25.9,47,23.1
186,S170000444,동광초등학교,제주특별자치도 제주시 태성로 6,33.5017138,126.5474021,6,162,7,187,6,163,7,197,7,187,7,180,2,12,42,1088,25.9,47,23.1
187,S010001198,서울가산초등학교,서울특별시 금천구 남부순환로 1304-11,37.478125,126.896445,4,63,3,47,3,54,2,36,2,39,2,37,0,0,16,276,17.3,20,13.8
188,S010001199,서울개명초등학교,서울특별시 구로구 개봉로1다길 16-9,37.482999,126.850268,3,60,3,51,3,62,3,49,3,48,3,49,1,3,19,322,16.9,22,14.6
189,S010001200,서울개봉초등학교,서울특별시 구로구 개봉로16길 30-11,37.48952311,126.8579748,8,189,7,158,7,161,8,172,7,159,8,149,2,11,47,999,21.3,56,17.8
190,S010001201,서울개웅초등학교,서울특별시 구로구 개봉로11길 98,37.48857258,126.8499846,4,70,4,88,4,78,5,101,4,89,4,79,2,9,27,514,19,31,16.6
191,S010001202,서울고산초등학교,서울특별시 구로구 중앙로 6,37.49897363,126.8647738,4,67,3,61,3,64,4,83,3,58,3,68,1,6,21,407,19.4,27,15.1
192,S010001203,서울고척초등학교,서울특별시 구로구 경서로 31,37.50094667,126.8569806,5,69,3,43,4,59,4,65,4,58,4,64,2,4,26,362,13.9,31,11.7
193,S010001204,서울구로남초등학교,서울특별시 구로구 디지털로27길 76,37.4854394,126.890974,4,65,4,66,4,65,6,115,5,76,4,76,2,5,29,468,16.1,35,13.4
194,S010001205,서울구로초등학교,서울특별시 구로구 구로중앙로27나길 9,37.497058,126.886245,5,73,4,65,4,73,4,84,4,62,5,91,2,9,28,457,16.3,35,13.1
195,S010001206,서울구일초등학교,서울특별시 구로구 구일로 68,37.4931916,126.8734733,8,174,8,173,9,194,8,192,8,184,8,180,2,8,51,1105,21.7,61,18.1
196,S010001207,서울금산초등학교,서울특별시 금천구 시흥대로24길 57,37.441305,126.907937,3,49,2,42,2,41,3,64,3,51,3,48,0,0,16,295,18.4,21,14
197,S010001208,서울금천초등학교,서울특별시 금천구 탑골로5길 60,37.454978,126.912769,2,31,2,24,2,17,2,22,2,25,2,34,1,2,13,155,11.9,18,8.6
198,S010001209,서울당산초등학교,서울특별시 영등포구 선유로55길 32,37.54012002,126.8962413,3,65,3,55,3,48,3,58,3,52,3,56,1,5,19,339,17.8,22,15.4
199,S010001210,서울당서초등학교,서울특별시 영등포구 당산로 187,37.53202852,126.8998141,9,224,8,210,8,209,9,215,8,211,7,159,0,0,49,1228,25.1,60,20.5
200,S010001211,서울당중초등학교,서울특별시 영등포구 선유로 131,37.526186,126.890007,5,98,5,108,4,86,4,86,4,93,4,88,2,11,28,570,20.4,33,17.3
201,S010001212,서울대길초등학교,서울특별시 영등포구 대방천로 206,37.498204,126.913454,3,58,4,76,4,71,4,83,4,76,4,82,2,8,25,454,18.2,31,14.6
202,S010001213,서울대동초등학교,서울특별시 영등포구 대림로21길 6,37.49370368,126.9001186,4,37,4,52,3,43,4,58,4,71,5,74,2,4,26,339,13,30,11.3
203,S010001214,서울대방초등학교,서울특별시 영등포구 여의대방로35길 14,37.50309971,126.9194452,12,250,11,263,9,228,8,190,7,186,7,177,2,7,56,1301,23.2,62,21
204,S010001215,서울대영초등학교,서울특별시 영등포구 신길로23길 43,37.502647,126.905936,9,212,7,175,6,150,7,149,6,141,5,120,2,7,42,954,22.7,49,19.5
205,S010001216,서울덕의초등학교,서울특별시 구로구 고척로 213,37.50602878,126.8573464,7,171,7,148,6,152,7,184,7,187,7,175,0,0,41,1017,24.8,49,20.8
206,S010001217,서울도림초등학교,서울특별시 영등포구 가마산로65길 22,37.5086805,126.9071155,3,55,3,63,3,61,4,83,4,70,4,70,2,4,23,406,17.7,25,16.2
207,S010001218,서울도신초등학교,서울특별시 영등포구 도림로53길 32-9,37.49926879,126.9007128,3,46,2,30,2,34,2,37,3,49,3,48,1,3,16,247,15.4,21,11.8
208,S010001219,서울독산초등학교,서울특별시 금천구 시흥대로104길 31,37.465365,126.899965,4,84,4,90,5,92,4,81,5,103,5,97,4,14,31,561,18.1,39,14.4
209,S010001220,서울동구로초등학교,서울특별시 구로구 구로중앙로14길 43,37.49487041,126.8927683,3,48,3,61,3,49,4,65,3,59,4,70,2,2,22,354,16.1,25,14.2
210,S010001221,서울두산초등학교,서울특별시 금천구 범안로11길 3,37.4675483,126.8909474,6,137,4,97,4,70,5,92,4,83,4,81,2,11,29,571,19.7,33,17.3
211,S010001222,서울매봉초등학교,서울특별시 구로구 고척로21길 55,37.50479,126.844402,2,46,2,36,2,37,2,49,3,48,2,43,1,6,14,265,18.9,17,15.6
212,S010001223,서울문교초등학교,서울특별시 금천구 독산로54길 102,37.4665726,126.908881,2,39,3,51,2,40,2,36,2,45,3,46,1,6,15,263,17.5,19,13.8
213,S010001224,서울문래초등학교,서울특별시 영등포구 문래로 104,37.518471,126.893229,8,202,6,172,7,197,8,223,7,189,7,185,1,8,44,1176,26.7,52,22.6
214,S010001225,서울문백초등학교,서울특별시 금천구 시흥대로47길 43-1,37.44707699,126.8986979,5,102,5,100,5,98,5,112,5,116,5,109,2,7,32,644,20.1,39,16.5
215,S010001226,서울문성초등학교,서울특별시 금천구 시흥대로 460,37.47448626,126.8992759,5,83,2,38,3,60,4,73,4,64,4,63,3,8,25,389,15.6,30,13
216,S010001227,서울미래초등학교,서울특별시 구로구 새말로 73,37.50510683,126.8880789,5,109,5,101,4,87,4,93,4,78,4,83,0,0,26,551,21.2,30,18.4
217,S010001228,서울백산초등학교,서울특별시 금천구 시흥대로38길 78,37.447032,126.904917,3,42,2,37,2,33,3,52,3,49,3,55,2,6,18,274,15.2,21,13
218,S010001229,서울세곡초등학교,서울특별시 구로구 고척로33길 34,37.50505628,126.8491193,5,78,4,90,4,77,5,105,4,70,4,91,2,6,28,517,18.5,33,15.7
219,S010001230,서울시흥초등학교,서울특별시 금천구 독산로23길 26,37.45533882,126.9046408,4,60,4,71,4,70,5,86,4,85,5,103,3,16,29,491,16.9,34,14.4
220,S010001231,서울신구로초등학교,서울특별시 구로구 가마산로27길 69,37.49965913,126.8897653,4,76,4,70,4,66,5,90,3,64,4,69,2,9,26,444,17.1,31,14.3
221,S010001232,서울신대림초등학교,서울특별시 영등포구 대림로8길 25,37.49136949,126.9059972,4,83,4,74,3,60,3,56,3,56,3,50,1,6,21,385,18.3,24,16
222,S010001233,서울신도림초등학교,서울특별시 구로구 신도림로19길 44,37.51240503,126.8807793,8,232,7,215,8,218,7,200,8,247,6,173,2,9,46,1294,28.1,56,23.1
223,S010001234,서울신미림초등학교,서울특별시 구로구 신도림로 26,37.50714192,126.8795526,7,173,5,131,6,133,7,161,6,129,7,164,0,0,38,891,23.4,44,20.3
224,S010001235,서울신영초등학교,서울특별시 영등포구 도신로4길 32,37.50100557,126.8960964,5,76,4,80,4,74,5,93,4,80,5,70,2,9,29,482,16.6,34,14.2
225,S010001236,서울신흥초등학교,서울특별시 금천구 독산로36나길 21,37.45934662,126.9093513,4,78,5,97,4,85,5,93,4,93,4,87,2,7,28,540,19.3,34,15.9
226,S010001237,서울안천초등학교,서울특별시 금천구 한내로 69-16,37.4585983,126.8884707,2,39,2,26,2,36,2,46,2,37,3,57,2,7,15,248,16.5,20,12.4
227,S010001238,서울여의도초등학교,서울특별시 영등포구 여의대방로 439,37.52320626,126.936795,7,163,7,175,7,157,7,190,7,156,7,203,2,10,44,1054,24,57,18.5
228,S010001239,서울영남초등학교,서울특별시 금천구 문성로 62-15,37.475435,126.909864,2,36,2,28,2,31,3,55,3,51,2,41,1,4,15,246,16.4,19,12.9
229,S010001240,서울영동초등학교,서울특별시 영등포구 국회대로53길 20,37.52653,126.907419,4,72,4,80,3,69,3,54,3,70,3,59,2,5,22,409,18.6,25,16.4
230,S010001241,서울영등포초등학교,서울특별시 영등포구 경인로 756,37.51294757,126.8982606,3,51,3,50,2,34,2,38,2,43,3,50,2,7,17,273,16.1,20,13.7
231,S010001242,서울영림초등학교,서울특별시 영등포구 시흥대로173길 14,37.48744,126.902652,2,43,2,32,2,34,2,34,2,35,2,32,0,0,12,210,17.5,18,11.7
232,S010001243,서울영서초등학교,서울특별시 구로구 도림로20길 57,37.4883984,126.8947321,5,112,5,105,6,122,6,126,5,113,6,127,2,4,35,709,20.3,45,15.8
233,S010001244,서울영신초등학교,서울특별시 영등포구 도신로60길 23,37.5098097,126.9184291,7,139,7,136,7,115,9,158,8,151,7,137,2,9,47,845,18,53,15.9
234,S010001245,서울영원초등학교,서울특별시 영등포구 도영로 22길 31,37.510888,126.902189,5,105,4,94,4,91,5,98,4,90,4,79,1,3,27,560,20.7,31,18.1
235,S010001246,서울영일초등학교,서울특별시 구로구 남부순환로105길 218,37.48564457,126.8838114,4,50,2,33,3,44,3,49,3,47,3,55,2,7,20,285,14.3,22,13
236,S010001247,서울영중초등학교,서울특별시 영등포구 양산로 185,37.523798,126.9039299,5,89,4,76,3,61,4,82,3,72,3,53,2,5,24,438,18.3,28,15.6
237,S010001248,서울오류남초등학교,서울특별시 구로구 서해안로24길 22,37.48968634,126.8391137,5,109,5,117,6,131,6,122,5,106,5,109,2,11,34,705,20.7,43,16.4
238,S010001249,서울오류초등학교,서울특별시 구로구 경인로19길 39,37.498249,126.842191,5,117,5,101,4,98,6,126,6,124,5,113,2,8,33,687,20.8,40,17.2
239,S010001250,서울오정초등학교,서울특별시 구로구 경인로2길 10,37.489698,126.826203,3,58,3,56,3,51,4,71,3,55,4,72,1,5,21,368,17.5,27,13.6
240,S010001251,서울온수초등학교,서울특별시 구로구 부일로 893,37.494168,126.826022,6,111,6,134,7,160,7,143,7,153,6,134,2,8,41,843,20.6,50,16.9
241,S010001252,서울우신초등학교,서울특별시 영등포구 신길로 190,37.510414,126.911806,2,37,2,33,3,43,2,35,2,31,3,48,2,4,16,231,14.4,21,11
242,S010001253,서울윤중초등학교,서울특별시 영등포구 여의나루로2길 14,37.519335,126.923152,4,73,4,77,4,76,5,105,3,68,4,90,0,0,24,489,20.4,29,16.9
243,S010001254,서울정심초등학교,서울특별시 금천구 독산로78다길 89,37.47199234,126.9082146,3,47,3,44,2,42,3,54,3,64,3,59,2,11,19,321,16.9,23,14
244,S010001255,서울탑동초등학교,서울특별시 금천구 탑골로 47-3,37.45251781,126.9153675,4,76,4,69,4,78,5,94,4,76,4,83,2,12,27,488,18.1,32,15.3
245,S010001394,경희초등학교,서울특별시 동대문구 경희대로 26,37.594945,127.049092,4,121,4,122,4,122,4,112,3,78,3,68,0,0,22,623,28.3,22,28.3
246,S010001395,금성초등학교,서울특별시 중랑구 신내로21길 55,37.6150693,127.0900306,4,121,4,122,4,121,4,108,3,88,3,72,0,0,22,632,28.7,43,14.7
16514,S150000937,울릉고등학교,경상북도 울릉군 울릉읍 울릉순환로 236,37.4929568,130.9074163,3,25,3,31,3,16,,,,,,,0,0,9,72,8,18,4
248,S060000492,금성초등학교,대전광역시 유성구 신성로72번길 5,36.389311,127.3500432,4,121,4,122,4,121,4,108,3,88,3,72,0,0,22,632,28.7,43,14.7
249,S090001504,금성초등학교,경기도 김포시 하성면 하성로 795번길 26,37.7448814,126.6324357,4,121,4,122,4,121,4,108,3,88,3,72,0,0,22,632,28.7,43,14.7
250,S110000683,금성초등학교,충청북도 제천시 금성면 국사봉로 1615,37.06745616,128.1652913,4,121,4,122,4,121,4,108,3,88,3,72,0,0,22,632,28.7,43,14.7
251,S120000386,금성초등학교,충청남도 금산군 금성면 진산로 370,36.13059059,127.4547637,4,121,4,122,4,121,4,108,3,88,3,72,0,0,22,632,28.7,43,14.7
252,S120000596,금성초등학교,충청남도 아산시 인주면 인주로 129,36.84454,126.879788,4,121,4,122,4,121,4,108,3,88,3,72,0,0,22,632,28.7,43,14.7
253,S140000785,금성초등학교,전라남도 담양군 금성면 석현길 18,35.3445293,127.025314,4,121,4,122,4,121,4,108,3,88,3,72,0,0,22,632,28.7,43,14.7
254,S140002029,금성초등학교,전라남도 진도군 군내면 금골길 58,34.537675,126.293038,4,121,4,122,4,121,4,108,3,88,3,72,0,0,22,632,28.7,43,14.7
255,S150003166,금성초등학교,경상북도 의성군 금성면 탑리길 131,36.262694,128.679607,4,121,4,122,4,121,4,108,3,88,3,72,0,0,22,632,28.7,43,14.7
256,S160001971,금성초등학교,경상남도 진주시 말티고개로123번길 19,35.198286,128.114981,4,121,4,122,4,121,4,108,3,88,3,72,0,0,22,632,28.7,43,14.7
257,S010001395,금성초등학교,서울특별시 중랑구 신내로21길 55,37.6150693,127.0900306,1,12,1,9,1,10,1,13,1,20,1,14,1,2,7,80,11.4,9,8.9
4365,S150003006,저동초등학교,경상북도 울릉군 울릉읍 봉래길 128-3,37.496244,130.9028659,3,65,2,49,3,69,3,83,3,70,4,87,0,0,18,423,23.5,22,19.2
259,S060000492,금성초등학교,대전광역시 유성구 신성로72번길 5,36.389311,127.3500432,1,12,1,9,1,10,1,13,1,20,1,14,1,2,7,80,11.4,9,8.9
260,S090001504,금성초등학교,경기도 김포시 하성면 하성로 795번길 26,37.7448814,126.6324357,1,12,1,9,1,10,1,13,1,20,1,14,1,2,7,80,11.4,9,8.9
261,S110000683,금성초등학교,충청북도 제천시 금성면 국사봉로 1615,37.06745616,128.1652913,1,12,1,9,1,10,1,13,1,20,1,14,1,2,7,80,11.4,9,8.9
262,S120000386,금성초등학교,충청남도 금산군 금성면 진산로 370,36.13059059,127.4547637,1,12,1,9,1,10,1,13,1,20,1,14,1,2,7,80,11.4,9,8.9
263,S120000596,금성초등학교,충청남도 아산시 인주면 인주로 129,36.84454,126.879788,1,12,1,9,1,10,1,13,1,20,1,14,1,2,7,80,11.4,9,8.9
264,S140000785,금성초등학교,전라남도 담양군 금성면 석현길 18,35.3445293,127.025314,1,12,1,9,1,10,1,13,1,20,1,14,1,2,7,80,11.4,9,8.9
265,S140002029,금성초등학교,전라남도 진도군 군내면 금골길 58,34.537675,126.293038,1,12,1,9,1,10,1,13,1,20,1,14,1,2,7,80,11.4,9,8.9
266,S150003166,금성초등학교,경상북도 의성군 금성면 탑리길 131,36.262694,128.679607,1,12,1,9,1,10,1,13,1,20,1,14,1,2,7,80,11.4,9,8.9
267,S160001971,금성초등학교,경상남도 진주시 말티고개로123번길 19,35.198286,128.114981,1,12,1,9,1,10,1,13,1,20,1,14,1,2,7,80,11.4,9,8.9
268,S010001395,금성초등학교,서울특별시 중랑구 신내로21길 55,37.6150693,127.0900306,4,77,4,69,4,79,5,93,4,75,6,119,1,4,28,516,18.4,37,13.9
4367,S150003006,저동초등학교,경상북도 울릉군 울릉읍 봉래길 128-3,37.496244,130.9028659,1,10,1,13,1,16,1,19,1,16,1,12,1,2,7,88,12.6,8,11
270,S060000492,금성초등학교,대전광역시 유성구 신성로72번길 5,36.389311,127.3500432,4,77,4,69,4,79,5,93,4,75,6,119,1,4,28,516,18.4,37,13.9
271,S090001504,금성초등학교,경기도 김포시 하성면 하성로 795번길 26,37.7448814,126.6324357,4,77,4,69,4,79,5,93,4,75,6,119,1,4,28,516,18.4,37,13.9
272,S110000683,금성초등학교,충청북도 제천시 금성면 국사봉로 1615,37.06745616,128.1652913,4,77,4,69,4,79,5,93,4,75,6,119,1,4,28,516,18.4,37,13.9
273,S120000386,금성초등학교,충청남도 금산군 금성면 진산로 370,36.13059059,127.4547637,4,77,4,69,4,79,5,93,4,75,6,119,1,4,28,516,18.4,37,13.9
274,S120000596,금성초등학교,충청남도 아산시 인주면 인주로 129,36.84454,126.879788,4,77,4,69,4,79,5,93,4,75,6,119,1,4,28,516,18.4,37,13.9
275,S140000785,금성초등학교,전라남도 담양군 금성면 석현길 18,35.3445293,127.025314,4,77,4,69,4,79,5,93,4,75,6,119,1,4,28,516,18.4,37,13.9
276,S140002029,금성초등학교,전라남도 진도군 군내면 금골길 58,34.537675,126.293038,4,77,4,69,4,79,5,93,4,75,6,119,1,4,28,516,18.4,37,13.9
277,S150003166,금성초등학교,경상북도 의성군 금성면 탑리길 131,36.262694,128.679607,4,77,4,69,4,79,5,93,4,75,6,119,1,4,28,516,18.4,37,13.9
278,S160001971,금성초등학교,경상남도 진주시 말티고개로123번길 19,35.198286,128.114981,4,77,4,69,4,79,5,93,4,75,6,119,1,4,28,516,18.4,37,13.9
279,S010001395,금성초등학교,서울특별시 중랑구 신내로21길 55,37.6150693,127.0900306,1,6,1,7,1,12,1,14,1,13,1,8,0,0,6,60,10,7,8.6
9214,S150003004,울릉초등학교,경상북도 울릉군 울릉읍 도동길 172,37.48605,130.90281,1,19,1,15,1,23,1,21,1,20,1,14,0,0,6,112,18.7,7,16
281,S060000492,금성초등학교,대전광역시 유성구 신성로72번길 5,36.389311,127.3500432,1,6,1,7,1,12,1,14,1,13,1,8,0,0,6,60,10,7,8.6
282,S090001504,금성초등학교,경기도 김포시 하성면 하성로 795번길 26,37.7448814,126.6324357,1,6,1,7,1,12,1,14,1,13,1,8,0,0,6,60,10,7,8.6
283,S110000683,금성초등학교,충청북도 제천시 금성면 국사봉로 1615,37.06745616,128.1652913,1,6,1,7,1,12,1,14,1,13,1,8,0,0,6,60,10,7,8.6
284,S120000386,금성초등학교,충청남도 금산군 금성면 진산로 370,36.13059059,127.4547637,1,6,1,7,1,12,1,14,1,13,1,8,0,0,6,60,10,7,8.6
285,S120000596,금성초등학교,충청남도 아산시 인주면 인주로 129,36.84454,126.879788,1,6,1,7,1,12,1,14,1,13,1,8,0,0,6,60,10,7,8.6
286,S140000785,금성초등학교,전라남도 담양군 금성면 석현길 18,35.3445293,127.025314,1,6,1,7,1,12,1,14,1,13,1,8,0,0,6,60,10,7,8.6
287,S140002029,금성초등학교,전라남도 진도군 군내면 금골길 58,34.537675,126.293038,1,6,1,7,1,12,1,14,1,13,1,8,0,0,6,60,10,7,8.6
288,S150003166,금성초등학교,경상북도 의성군 금성면 탑리길 131,36.262694,128.679607,1,6,1,7,1,12,1,14,1,13,1,8,0,0,6,60,10,7,8.6
289,S160001971,금성초등학교,경상남도 진주시 말티고개로123번길 19,35.198286,128.114981,1,6,1,7,1,12,1,14,1,13,1,8,0,0,6,60,10,7,8.6
290,S010001395,금성초등학교,서울특별시 중랑구 신내로21길 55,37.6150693,127.0900306,0,0,1,6,1,5,1,4,1,3,1,9,1,2,6,29,4.8,7,4.1
13859,S150006550,울릉중학교,경상북도 울릉군 울릉읍 사동2길 219,37.486566,130.887295,2,32,2,40,2,46,,,,,,,1,3,7,121,17.3,18,6.7
292,S060000492,금성초등학교,대전광역시 유성구 신성로72번길 5,36.389311,127.3500432,0,0,1,6,1,5,1,4,1,3,1,9,1,2,6,29,4.8,7,4.1
293,S090001504,금성초등학교,경기도 김포시 하성면 하성로 795번길 26,37.7448814,126.6324357,0,0,1,6,1,5,1,4,1,3,1,9,1,2,6,29,4.8,7,4.1
294,S110000683,금성초등학교,충청북도 제천시 금성면 국사봉로 1615,37.06745616,128.1652913,0,0,1,6,1,5,1,4,1,3,1,9,1,2,6,29,4.8,7,4.1
295,S120000386,금성초등학교,충청남도 금산군 금성면 진산로 370,36.13059059,127.4547637,0,0,1,6,1,5,1,4,1,3,1,9,1,2,6,29,4.8,7,4.1
296,S120000596,금성초등학교,충청남도 아산시 인주면 인주로 129,36.84454,126.879788,0,0,1,6,1,5,1,4,1,3,1,9,1,2,6,29,4.8,7,4.1
297,S140000785,금성초등학교,전라남도 담양군 금성면 석현길 18,35.3445293,127.025314,0,0,1,6,1,5,1,4,1,3,1,9,1,2,6,29,4.8,7,4.1
298,S140002029,금성초등학교,전라남도 진도군 군내면 금골길 58,34.537675,126.293038,0,0,1,6,1,5,1,4,1,3,1,9,1,2,6,29,4.8,7,4.1
299,S150003166,금성초등학교,경상북도 의성군 금성면 탑리길 131,36.262694,128.679607,0,0,1,6,1,5,1,4,1,3,1,9,1,2,6,29,4.8,7,4.1
300,S160001971,금성초등학교,경상남도 진주시 말티고개로123번길 19,35.198286,128.114981,0,0,1,6,1,5,1,4,1,3,1,9,1,2,6,29,4.8,7,4.1
301,S010001395,금성초등학교,서울특별시 중랑구 신내로21길 55,37.6150693,127.0900306,1,4,1,5,1,5,1,8,1,5,1,9,1,3,7,39,5.6,8,4.9
9215,S150003007,천부초등학교,경상북도 울릉군 북면 천부길 95-3,37.5365981,130.8716403,0,0,1,5,0,0,1,6,1,4,1,4,0,0,4,19,4.8,5,3.8
303,S060000492,금성초등학교,대전광역시 유성구 신성로72번길 5,36.389311,127.3500432,1,4,1,5,1,5,1,8,1,5,1,9,1,3,7,39,5.6,8,4.9
304,S090001504,금성초등학교,경기도 김포시 하성면 하성로 795번길 26,37.7448814,126.6324357,1,4,1,5,1,5,1,8,1,5,1,9,1,3,7,39,5.6,8,4.9
305,S110000683,금성초등학교,충청북도 제천시 금성면 국사봉로 1615,37.06745616,128.1652913,1,4,1,5,1,5,1,8,1,5,1,9,1,3,7,39,5.6,8,4.9
306,S120000386,금성초등학교,충청남도 금산군 금성면 진산로 370,36.13059059,127.4547637,1,4,1,5,1,5,1,8,1,5,1,9,1,3,7,39,5.6,8,4.9
307,S120000596,금성초등학교,충청남도 아산시 인주면 인주로 129,36.84454,126.879788,1,4,1,5,1,5,1,8,1,5,1,9,1,3,7,39,5.6,8,4.9
308,S140000785,금성초등학교,전라남도 담양군 금성면 석현길 18,35.3445293,127.025314,1,4,1,5,1,5,1,8,1,5,1,9,1,3,7,39,5.6,8,4.9
309,S140002029,금성초등학교,전라남도 진도군 군내면 금골길 58,34.537675,126.293038,1,4,1,5,1,5,1,8,1,5,1,9,1,3,7,39,5.6,8,4.9
310,S150003166,금성초등학교,경상북도 의성군 금성면 탑리길 131,36.262694,128.679607,1,4,1,5,1,5,1,8,1,5,1,9,1,3,7,39,5.6,8,4.9
311,S160001971,금성초등학교,경상남도 진주시 말티고개로123번길 19,35.198286,128.114981,1,4,1,5,1,5,1,8,1,5,1,9,1,3,7,39,5.6,8,4.9
312,S010001395,금성초등학교,서울특별시 중랑구 신내로21길 55,37.6150693,127.0900306,1,10,1,14,1,12,1,11,1,12,1,10,0,0,6,69,11.5,7,9.9
5893,S150003001,남양초등학교,경상북도 울릉군 서면 남양1길 58,37.469071,130.8402009,3,57,2,52,2,56,3,63,3,83,4,93,2,8,20,417,20.9,24,17.4
314,S060000492,금성초등학교,대전광역시 유성구 신성로72번길 5,36.389311,127.3500432,1,10,1,14,1,12,1,11,1,12,1,10,0,0,6,69,11.5,7,9.9
315,S090001504,금성초등학교,경기도 김포시 하성면 하성로 795번길 26,37.7448814,126.6324357,1,10,1,14,1,12,1,11,1,12,1,10,0,0,6,69,11.5,7,9.9
316,S110000683,금성초등학교,충청북도 제천시 금성면 국사봉로 1615,37.06745616,128.1652913,1,10,1,14,1,12,1,11,1,12,1,10,0,0,6,69,11.5,7,9.9
317,S120000386,금성초등학교,충청남도 금산군 금성면 진산로 370,36.13059059,127.4547637,1,10,1,14,1,12,1,11,1,12,1,10,0,0,6,69,11.5,7,9.9
318,S120000596,금성초등학교,충청남도 아산시 인주면 인주로 129,36.84454,126.879788,1,10,1,14,1,12,1,11,1,12,1,10,0,0,6,69,11.5,7,9.9
319,S140000785,금성초등학교,전라남도 담양군 금성면 석현길 18,35.3445293,127.025314,1,10,1,14,1,12,1,11,1,12,1,10,0,0,6,69,11.5,7,9.9
320,S140002029,금성초등학교,전라남도 진도군 군내면 금골길 58,34.537675,126.293038,1,10,1,14,1,12,1,11,1,12,1,10,0,0,6,69,11.5,7,9.9
321,S150003166,금성초등학교,경상북도 의성군 금성면 탑리길 131,36.262694,128.679607,1,10,1,14,1,12,1,11,1,12,1,10,0,0,6,69,11.5,7,9.9
322,S160001971,금성초등학교,경상남도 진주시 말티고개로123번길 19,35.198286,128.114981,1,10,1,14,1,12,1,11,1,12,1,10,0,0,6,69,11.5,7,9.9
323,S010001395,금성초등학교,서울특별시 중랑구 신내로21길 55,37.6150693,127.0900306,1,7,1,3,1,5,1,13,1,6,1,9,1,1,7,44,6.3,8,5.5
5900,S150003001,남양초등학교,경상북도 울릉군 서면 남양1길 58,37.469071,130.8402009,1,9,1,7,1,10,1,8,1,5,1,9,1,2,7,50,7.1,8,6.3
325,S060000492,금성초등학교,대전광역시 유성구 신성로72번길 5,36.389311,127.3500432,1,7,1,3,1,5,1,13,1,6,1,9,1,1,7,44,6.3,8,5.5
326,S090001504,금성초등학교,경기도 김포시 하성면 하성로 795번길 26,37.7448814,126.6324357,1,7,1,3,1,5,1,13,1,6,1,9,1,1,7,44,6.3,8,5.5
327,S110000683,금성초등학교,충청북도 제천시 금성면 국사봉로 1615,37.06745616,128.1652913,1,7,1,3,1,5,1,13,1,6,1,9,1,1,7,44,6.3,8,5.5
328,S120000386,금성초등학교,충청남도 금산군 금성면 진산로 370,36.13059059,127.4547637,1,7,1,3,1,5,1,13,1,6,1,9,1,1,7,44,6.3,8,5.5
329,S120000596,금성초등학교,충청남도 아산시 인주면 인주로 129,36.84454,126.879788,1,7,1,3,1,5,1,13,1,6,1,9,1,1,7,44,6.3,8,5.5
330,S140000785,금성초등학교,전라남도 담양군 금성면 석현길 18,35.3445293,127.025314,1,7,1,3,1,5,1,13,1,6,1,9,1,1,7,44,6.3,8,5.5
331,S140002029,금성초등학교,전라남도 진도군 군내면 금골길 58,34.537675,126.293038,1,7,1,3,1,5,1,13,1,6,1,9,1,1,7,44,6.3,8,5.5
332,S150003166,금성초등학교,경상북도 의성군 금성면 탑리길 131,36.262694,128.679607,1,7,1,3,1,5,1,13,1,6,1,9,1,1,7,44,6.3,8,5.5
333,S160001971,금성초등학교,경상남도 진주시 말티고개로123번길 19,35.198286,128.114981,1,7,1,3,1,5,1,13,1,6,1,9,1,1,7,44,6.3,8,5.5
334,S010001395,금성초등학교,서울특별시 중랑구 신내로21길 55,37.6150693,127.0900306,1,3,1,5,1,3,1,5,1,5,1,3,0,0,6,24,4,7,3.4
5907,S150003001,남양초등학교,경상북도 울릉군 서면 남양1길 58,37.469071,130.8402009,1,5,1,7,1,5,1,4,1,4,1,1,1,2,7,28,4,8,3.5
336,S060000492,금성초등학교,대전광역시 유성구 신성로72번길 5,36.389311,127.3500432,1,3,1,5,1,3,1,5,1,5,1,3,0,0,6,24,4,7,3.4
337,S090001504,금성초등학교,경기도 김포시 하성면 하성로 795번길 26,37.7448814,126.6324357,1,3,1,5,1,3,1,5,1,5,1,3,0,0,6,24,4,7,3.4
338,S110000683,금성초등학교,충청북도 제천시 금성면 국사봉로 1615,37.06745616,128.1652913,1,3,1,5,1,3,1,5,1,5,1,3,0,0,6,24,4,7,3.4
339,S120000386,금성초등학교,충청남도 금산군 금성면 진산로 370,36.13059059,127.4547637,1,3,1,5,1,3,1,5,1,5,1,3,0,0,6,24,4,7,3.4
340,S120000596,금성초등학교,충청남도 아산시 인주면 인주로 129,36.84454,126.879788,1,3,1,5,1,3,1,5,1,5,1,3,0,0,6,24,4,7,3.4
341,S140000785,금성초등학교,전라남도 담양군 금성면 석현길 18,35.3445293,127.025314,1,3,1,5,1,3,1,5,1,5,1,3,0,0,6,24,4,7,3.4
342,S140002029,금성초등학교,전라남도 진도군 군내면 금골길 58,34.537675,126.293038,1,3,1,5,1,3,1,5,1,5,1,3,0,0,6,24,4,7,3.4
343,S150003166,금성초등학교,경상북도 의성군 금성면 탑리길 131,36.262694,128.679607,1,3,1,5,1,3,1,5,1,5,1,3,0,0,6,24,4,7,3.4
344,S160001971,금성초등학교,경상남도 진주시 말티고개로123번길 19,35.198286,128.114981,1,3,1,5,1,3,1,5,1,5,1,3,0,0,6,24,4,7,3.4
345,S010001395,금성초등학교,서울특별시 중랑구 신내로21길 55,37.6150693,127.0900306,1,9,1,11,1,10,1,8,1,14,1,11,1,4,7,67,9.6,8,8.4
5914,S150003001,남양초등학교,경상북도 울릉군 서면 남양1길 58,37.469071,130.8402009,1,2,1,3,1,3,1,3,1,3,1,6,0,0,6,20,3.3,7,2.9
347,S060000492,금성초등학교,대전광역시 유성구 신성로72번길 5,36.389311,127.3500432,1,9,1,11,1,10,1,8,1,14,1,11,1,4,7,67,9.6,8,8.4
348,S090001504,금성초등학교,경기도 김포시 하성면 하성로 795번길 26,37.7448814,126.6324357,1,9,1,11,1,10,1,8,1,14,1,11,1,4,7,67,9.6,8,8.4
349,S110000683,금성초등학교,충청북도 제천시 금성면 국사봉로 1615,37.06745616,128.1652913,1,9,1,11,1,10,1,8,1,14,1,11,1,4,7,67,9.6,8,8.4
350,S120000386,금성초등학교,충청남도 금산군 금성면 진산로 370,36.13059059,127.4547637,1,9,1,11,1,10,1,8,1,14,1,11,1,4,7,67,9.6,8,8.4
351,S120000596,금성초등학교,충청남도 아산시 인주면 인주로 129,36.84454,126.879788,1,9,1,11,1,10,1,8,1,14,1,11,1,4,7,67,9.6,8,8.4
352,S140000785,금성초등학교,전라남도 담양군 금성면 석현길 18,35.3445293,127.025314,1,9,1,11,1,10,1,8,1,14,1,11,1,4,7,67,9.6,8,8.4
353,S140002029,금성초등학교,전라남도 진도군 군내면 금골길 58,34.537675,126.293038,1,9,1,11,1,10,1,8,1,14,1,11,1,4,7,67,9.6,8,8.4
354,S150003166,금성초등학교,경상북도 의성군 금성면 탑리길 131,36.262694,128.679607,1,9,1,11,1,10,1,8,1,14,1,11,1,4,7,67,9.6,8,8.4
355,S160001971,금성초등학교,경상남도 진주시 말티고개로123번길 19,35.198286,128.114981,1,9,1,11,1,10,1,8,1,14,1,11,1,4,7,67,9.6,8,8.4
356,S010001395,금성초등학교,서울특별시 중랑구 신내로21길 55,37.6150693,127.0900306,3,53,2,49,3,67,3,69,3,82,4,88,1,6,19,414,21.8,22,18.8
5921,S150003001,남양초등학교,경상북도 울릉군 서면 남양1길 58,37.469071,130.8402009,1,2,1,6,1,6,1,4,1,7,1,6,0,0,6,31,5.2,7,4.4
358,S060000492,금성초등학교,대전광역시 유성구 신성로72번길 5,36.389311,127.3500432,3,53,2,49,3,67,3,69,3,82,4,88,1,6,19,414,21.8,22,18.8
359,S090001504,금성초등학교,경기도 김포시 하성면 하성로 795번길 26,37.7448814,126.6324357,3,53,2,49,3,67,3,69,3,82,4,88,1,6,19,414,21.8,22,18.8
360,S110000683,금성초등학교,충청북도 제천시 금성면 국사봉로 1615,37.06745616,128.1652913,3,53,2,49,3,67,3,69,3,82,4,88,1,6,19,414,21.8,22,18.8
361,S120000386,금성초등학교,충청남도 금산군 금성면 진산로 370,36.13059059,127.4547637,3,53,2,49,3,67,3,69,3,82,4,88,1,6,19,414,21.8,22,18.8
362,S120000596,금성초등학교,충청남도 아산시 인주면 인주로 129,36.84454,126.879788,3,53,2,49,3,67,3,69,3,82,4,88,1,6,19,414,21.8,22,18.8
363,S140000785,금성초등학교,전라남도 담양군 금성면 석현길 18,35.3445293,127.025314,3,53,2,49,3,67,3,69,3,82,4,88,1,6,19,414,21.8,22,18.8
364,S140002029,금성초등학교,전라남도 진도군 군내면 금골길 58,34.537675,126.293038,3,53,2,49,3,67,3,69,3,82,4,88,1,6,19,414,21.8,22,18.8
365,S150003166,금성초등학교,경상북도 의성군 금성면 탑리길 131,36.262694,128.679607,3,53,2,49,3,67,3,69,3,82,4,88,1,6,19,414,21.8,22,18.8
366,S160001971,금성초등학교,경상남도 진주시 말티고개로123번길 19,35.198286,128.114981,3,53,2,49,3,67,3,69,3,82,4,88,1,6,19,414,21.8,22,18.8
367,S010001396,서울삼육초등학교,서울특별시 동대문구 회기로10길 63,37.58877033,127.0471736,4,120,4,122,4,120,4,119,4,116,4,119,0,0,24,716,29.8,25,28.6
368,S010001397,서울군자초등학교,서울특별시 동대문구 한천로6길 21,37.56412385,127.0605231,3,53,3,53,2,34,2,47,3,47,3,53,2,11,18,298,16.6,21,14.2
369,S010001398,서울답십리초등학교,서울특별시 동대문구 전농로3길 23,37.568665,127.055616,7,163,8,174,6,131,8,166,6,132,7,141,2,6,44,913,20.8,54,16.9
370,S010001399,서울동답초등학교,서울특별시 동대문구 답십리로60길 12,37.57150295,127.0640336,4,89,3,77,4,82,4,81,4,85,4,79,0,0,23,493,21.4,28,17.6
371,S010001400,서울동원초등학교,서울특별시 중랑구 송림길 114,37.60457653,127.1044914,3,57,3,54,3,57,4,84,3,56,3,65,2,10,21,383,18.2,25,15.3
372,S010001401,서울망우초등학교,서울특별시 중랑구 망우로72길 49,37.59834,127.10358,3,58,2,45,3,52,3,61,3,63,3,62,1,4,18,345,19.2,21,16.4
373,S010001402,서울면남초등학교,서울특별시 중랑구 면목로30나길 38,37.577035,127.088157,3,59,3,46,3,51,3,59,3,53,2,49,2,4,19,321,16.9,23,14
374,S010001403,서울면동초등학교,서울특별시 중랑구 면목로57길 32,37.58535305,127.0865941,10,199,7,164,7,162,7,167,8,172,7,146,2,9,48,1019,21.2,57,17.9
375,S010001404,서울면목초등학교,서울특별시 중랑구 면목로 434,37.59069723,127.0872887,5,104,4,81,5,91,6,105,5,98,6,123,2,6,33,608,18.4,39,15.6
376,S010001405,서울면북초등학교,서울특별시 중랑구 용마공원로5길 32,37.59441779,127.1035487,2,22,2,17,2,19,1,18,2,21,2,26,1,6,12,129,10.8,15,8.6
377,S010001406,서울면일초등학교,서울특별시 중랑구 용마산로100길 13,37.59204241,127.0997953,5,106,5,93,4,87,6,121,6,117,6,110,2,13,34,647,19,42,15.4
378,S010001407,서울면중초등학교,서울특별시 중랑구 용마산로70길 43,37.58244053,127.0965491,4,66,2,43,3,42,3,45,2,42,3,43,1,6,18,287,15.9,22,13
379,S010001408,서울묵동초등학교,서울특별시 중랑구 동일로138길 27,37.60335895,127.0808259,3,63,3,58,3,60,4,86,4,85,4,63,2,7,23,422,18.3,27,15.6
380,S010001409,서울배봉초등학교,서울특별시 동대문구 사가정로 193,37.580154,127.065973,4,73,3,69,3,77,3,65,4,100,3,73,2,3,22,460,20.9,25,18.4
381,S010001410,서울봉화초등학교,서울특별시 중랑구 신내로15길 110,37.61351,127.092392,4,75,5,86,4,88,4,86,4,81,5,90,3,15,29,521,18,35,14.9
382,S010001411,서울상봉초등학교,서울특별시 중랑구 동일로126가길 11,37.59798021,127.0831709,5,89,5,109,5,95,5,97,5,91,5,98,2,7,32,586,18.3,36,16.3
383,S010001412,서울신내초등학교,서울특별시 중랑구 용마산로125나길 22,37.6049335,127.1001296,5,109,5,89,4,92,6,134,6,123,7,151,2,7,35,705,20.1,42,16.8
384,S010001413,서울신답초등학교,서울특별시 동대문구 천호대로 177,37.57270542,127.0429615,5,111,4,89,3,77,3,75,3,66,4,78,2,3,24,499,20.8,28,17.8
385,S010001414,서울신묵초등학교,서울특별시 중랑구 동일로149길 46,37.60652294,127.0758372,3,58,3,62,3,49,4,71,3,69,3,60,1,5,20,374,18.7,24,15.6
386,S010001415,서울신현초등학교,서울특별시 중랑구 봉화산로 188,37.6056743,127.0936591,4,76,4,84,3,66,4,76,4,88,4,87,1,5,24,482,20.1,27,17.9
387,S010001416,서울안평초등학교,서울특별시 동대문구 장한로14길 61,37.56596984,127.0720337,7,191,7,166,7,166,7,178,8,181,7,169,1,9,44,1060,24.1,56,18.9
388,S010001417,서울용두초등학교,서울특별시 동대문구 천호대로13길 43,37.57641471,127.0283873,4,77,3,65,3,73,4,78,3,68,3,70,1,2,21,433,20.6,25,17.3
389,S010001418,서울원묵초등학교,서울특별시 중랑구 숙선옹주로 109,37.6177489,127.0868129,7,148,7,145,9,201,8,194,7,162,8,204,1,7,47,1061,22.6,57,18.6
390,S010001419,서울이문초등학교,서울특별시 동대문구 신이문로 16,37.6022,127.064343,6,114,5,105,6,125,6,138,6,144,7,145,3,15,39,786,20.2,46,17.1
391,S010001420,서울장평초등학교,서울특별시 동대문구 답십리로,37.573776,127.073311,8,182,8,198,6,150,8,200,6,169,8,187,2,9,46,1095,23.8,56,19.6
392,S010001421,서울전곡초등학교,서울특별시 동대문구 전농로 172,37.580525,127.05645,2,43,2,37,3,49,3,61,3,62,4,66,2,7,19,325,17.1,23,14.1
393,S010001422,서울전농초등학교,서울특별시 동대문구 사가정로 66,37.574552,127.054227,8,204,7,190,7,163,7,180,6,156,6,135,2,8,43,1036,24.1,55,18.8
394,S010001423,서울전동초등학교,서울특별시 동대문구 전농로16길 61,37.57908383,127.0608069,5,105,6,119,5,102,5,116,5,120,6,126,2,8,34,696,20.5,43,16.2
395,S010001424,서울종암초등학교,서울특별시 동대문구 무학로44길 25,37.58230633,127.0318584,4,75,4,64,4,77,4,70,4,76,5,97,1,5,26,464,17.8,30,15.5
396,S010001425,서울중곡초등학교,서울특별시 중랑구 면목로23길 20,37.574723,127.083504,7,142,5,106,7,145,7,150,7,152,7,140,2,7,42,842,20,51,16.5
397,S010001426,서울중랑초등학교,서울특별시 중랑구 봉우재로6길 26,37.58966381,127.0755031,5,109,5,109,5,103,6,126,5,100,5,100,2,9,33,656,19.9,40,16.4
398,S010001427,서울중목초등학교,서울특별시 중랑구 동일로 665,37.59008654,127.0793713,4,90,3,75,3,63,3,66,3,48,3,57,2,6,21,405,19.3,24,16.9
399,S010001428,서울중화초등학교,서울특별시 중랑구 신내로7가길 22,37.60292027,127.094066,8,188,8,177,8,195,9,223,9,206,9,226,2,7,53,1222,23.1,63,19.4
400,S010001429,서울중흥초등학교,서울특별시 중랑구 봉화산로 82,37.60167359,127.0841443,2,31,2,29,2,41,2,25,2,27,2,37,3,13,15,203,13.5,18,11.3
401,S010001430,서울청량초등학교,서울특별시 동대문구 회기로25길 31,37.59230922,127.055908,5,106,4,83,5,108,5,113,6,115,6,126,2,4,33,655,19.8,41,16
402,S010001431,서울홍릉초등학교,서울특별시 동대문구 회기로 90,37.591592,127.04719,3,62,3,54,3,50,3,68,3,64,3,51,1,4,19,353,18.6,22,16
403,S010001432,서울홍파초등학교,서울특별시 동대문구 고산자로 518,37.58620351,127.0395183,2,30,2,33,2,38,3,40,3,37,2,33,2,9,16,220,13.8,21,10.5
404,S010001433,서울휘경초등학교,서울특별시 동대문구 망우로6길 48,37.5857622,127.0581161,3,47,2,50,2,36,2,46,3,52,3,48,2,12,17,291,17.1,21,13.9
405,S010001434,은석초등학교,서울특별시 동대문구 장안벚꽃로 205,37.578434,127.075702,4,121,4,121,4,122,4,121,4,98,4,93,0,0,24,676,28.2,63,10.7
406,S120000786,은석초등학교,충청남도 천안시 동남구 북면 용암3길 10,36.7882269,127.2577161,4,121,4,121,4,122,4,121,4,98,4,93,0,0,24,676,28.2,63,10.7
407,S010001434,은석초등학교,서울특별시 동대문구 장안벚꽃로 205,37.578434,127.075702,1,8,1,12,1,5,1,12,1,10,1,16,0,0,6,63,10.5,8,7.9
408,S120000786,은석초등학교,충청남도 천안시 동남구 북면 용암3길 10,36.7882269,127.2577161,1,8,1,12,1,5,1,12,1,10,1,16,0,0,6,63,10.5,8,7.9
409,S010001576,서울강남초등학교,서울특별시 동작구 강남초등길 15,37.505892,126.953153,7,149,5,103,6,134,6,135,6,134,5,120,2,10,37,785,21.2,43,18.3
410,S010001577,서울관악초등학교,서울 관악구 청룡4길 49,37.480703,126.943318,6,103,4,84,4,94,5,95,4,96,4,85,2,14,29,571,19.7,33,17.3
411,S010001578,서울구암초등학교,서울특별시 관악구 구암길 1,37.48,126.94,9,229,8,204,9,227,10,262,10,258,11,276,2,8,59,1464,24.8,75,19.5
412,S010001579,서울난곡초등학교,서울특별시 관악구 난곡로35길 102,37.46912956,126.9163436,3,58,2,44,3,61,2,46,4,68,3,63,2,8,19,348,18.3,22,15.8
413,S010001580,서울난우초등학교,서울특별시 관악구 난우길 40,37.477123,126.917524,5,103,5,106,5,103,7,135,5,113,6,136,2,11,35,707,20.2,42,16.8
414,S010001581,서울난향초등학교,서울특별시 관악구 난향길 9,37.4624143,126.9180741,5,103,6,123,6,132,7,150,6,139,6,123,2,9,38,779,20.5,45,17.3
415,S010001582,서울남부초등학교,서울특별시 관악구 남부순환로163길 14,37.48512106,126.9221826,5,100,3,73,4,85,4,78,4,78,4,75,2,7,26,496,19.1,31,16
416,S010001583,서울남사초등학교,서울특별시 동작구 동작대로13길 22,37.482523,126.978839,5,104,4,91,4,78,4,84,4,88,4,77,1,5,26,527,20.3,30,17.6
417,S010001584,서울남성초등학교,서울특별시 동작구 사당로23길 57-14,37.48459633,126.9754872,5,80,4,93,4,81,4,88,5,95,5,90,2,10,29,537,18.5,34,15.8
418,S010001585,서울노량진초등학교,서울특별시 동작구 장승배기로 160,37.51175119,126.9408222,2,33,3,42,2,31,2,39,2,37,3,51,2,9,16,242,15.1,21,11.5
419,S010001586,서울당곡초등학교,서울특별시 관악구 보라매로2길 23,37.4901,126.92991,7,127,4,92,4,86,5,99,5,100,5,106,2,6,32,616,19.3,37,16.6
420,S010001587,서울대림초등학교,서울특별시 동작구 대방동1길 22,37.500823,126.925235,9,189,7,157,8,164,8,173,9,171,9,185,0,0,50,1039,20.8,58,17.9
421,S010001588,서울동작초등학교,서울특별시 동작구 동작대로29길 214,37.49411478,126.9765109,6,114,4,99,4,90,4,78,3,72,3,72,1,2,25,527,21.1,29,18.2
422,S010001589,서울문창초등학교,서울특별시 동작구 신대방2길 14,37.48898312,126.9148425,6,88,3,51,3,62,3,50,5,86,4,66,2,10,26,413,15.9,31,13.3
423,S010001590,서울미성초등학교,서울특별시 관악구 문성로 79,37.4781377,126.9126553,7,131,6,122,5,105,6,139,5,114,5,115,2,5,36,731,20.3,41,17.8
424,S010001591,서울본동초등학교,서울특별시 동작구 노량진로26길 16-40,37.50992616,126.9538533,2,27,2,23,1,22,1,16,1,12,1,15,1,5,9,120,13.3,13,9.2
425,S010001592,서울봉천초등학교,서울특별시 관악구 행운1라길 17,37.48326879,126.9581888,6,117,5,112,5,113,6,127,6,131,6,124,2,5,36,729,20.3,44,16.6
426,S010001593,서울사당초등학교,서울특별시 관악구 남현4길 51,37.47383781,126.9733518,6,108,5,113,4,82,5,94,5,109,4,74,2,10,31,590,19,37,15.9
427,S010001594,서울삼성초등학교,서울특별시 관악구 대학7길 52,37.468287,126.941004,2,40,3,49,4,74,3,59,4,79,3,51,1,6,20,358,17.9,24,14.9
428,S010001595,서울상도초등학교,서울특별시 동작구 성대로21길 62,37.50034624,126.9372712,7,135,6,127,6,133,7,144,7,146,8,172,2,11,43,868,20.2,51,17
429,S010001596,서울신길초등학교,서울특별시 동작구 알마타길 16,37.51007796,126.9262919,6,135,6,153,7,152,7,174,9,222,10,250,2,11,47,1097,23.3,57,19.2
430,S010001597,서울신남성초등학교,서울특별시 동작구 사당로 146,37.489023,126.965034,5,94,4,97,4,78,4,73,4,90,4,82,1,3,26,517,19.9,30,17.2
431,S010001598,서울신림초등학교,서울특별시 관악구 문성로28길 31,37.4773,126.92726,5,87,4,83,5,110,4,98,5,97,4,98,2,8,29,581,20,35,16.6
432,S010001599,서울신봉초등학교,서울특별시 관악구 양녕로6나길 1,37.48557554,126.9493908,2,38,3,47,2,45,3,54,2,43,3,38,2,12,17,277,16.3,20,13.9
433,S010001600,서울신상도초등학교,서울특별시 동작구 장승배기로 14,37.500323,126.943968,10,264,9,246,9,227,10,264,9,227,9,221,2,14,58,1463,25.2,68,21.5
434,S010001601,서울신성초등학교,서울특별시 관악구 신림로 114,37.47156,126.936951,5,98,3,71,4,91,4,78,5,103,5,103,2,10,28,554,19.8,34,16.3
435,S010001602,서울신우초등학교,서울특별시 관악구 호암로 498,37.46326532,126.9325366,3,45,3,47,3,56,3,50,2,47,3,57,1,7,18,309,17.2,23,13.4
436,S010001603,서울영본초등학교,서울특별시 동작구 만양로12가길 69,37.51117093,126.9484732,7,130,5,123,7,161,6,151,5,121,7,166,1,6,38,858,22.6,46,18.7
437,S010001604,서울영화초등학교,서울특별시 동작구 등용로8길 3,37.50890703,126.9329751,4,59,3,69,4,74,3,77,4,75,4,71,2,11,24,436,18.2,29,15
438,S010001605,서울원당초등학교,서울특별시 관악구 봉천로 505,37.48127866,126.9562498,2,20,2,21,2,25,2,35,2,32,2,29,2,11,14,173,12.4,18,9.6
439,S010001606,서울원신초등학교,서울특별시 관악구 광신길 177,37.467291,126.927331,2,33,2,30,2,18,2,43,2,28,2,31,2,13,14,196,14,17,11.5
440,S010001607,서울은로초등학교,서울특별시 동작구 서달로 115,37.503762,126.960738,8,159,6,128,5,123,5,113,4,98,4,89,2,4,34,714,21,39,18.3
441,S010001608,서울은천초등학교,서울특별시 관악구 은천로 69,37.4865852,126.9426783,8,152,8,166,7,152,7,154,7,159,8,173,3,24,48,980,20.4,55,17.8
442,S010001609,서울인헌초등학교,서울특별시 관악구 낙성대로 23,37.47675328,126.9598656,8,127,7,142,7,153,7,154,7,161,8,168,0,0,44,905,20.6,55,16.5
443,S010001610,서울청룡초등학교,서울특별시 관악구 관악로5길 61,37.47672482,126.9512825,3,51,3,55,3,61,4,76,3,61,3,68,1,2,20,374,18.7,23,16.3
444,S010001611,서울행림초등학교,서울특별시 동작구 솔밭로 47,37.483017,126.9645288,2,41,2,44,2,35,3,43,3,44,2,34,0,0,14,241,17.2,19,12.7
445,S010001612,서울흑석초등학교,서울특별시 동작구 현충로 87,37.5082938,126.9651329,5,91,4,86,4,79,5,107,4,89,4,87,2,6,28,545,19.5,33,16.5
446,S010001613,중앙대학교사범대학부속초등학교,서울특별시 동작구 서달로 135,37.5054521,126.9596784,5,121,5,123,5,122,5,120,5,120,5,121,0,0,30,727,24.2,31,23.5
447,S010001733,동북초등학교,서울특별시 도봉구 시루봉로 53,37.65507873,127.0261507,4,128,4,129,4,128,4,128,4,117,4,112,0,0,24,742,30.9,24,30.9
448,S130000941,동북초등학교,전라북도 부안군 동진면 제전길 63,35.7753937,126.7309184,4,128,4,129,4,128,4,128,4,117,4,112,0,0,24,742,30.9,24,30.9
449,S010001733,동북초등학교,서울특별시 도봉구 시루봉로 53,37.65507873,127.0261507,1,5,0,0,1,3,0,0,0,0,1,2,1,1,4,11,2.8,5,2.2
450,S130000941,동북초등학교,전라북도 부안군 동진면 제전길 63,35.7753937,126.7309184,1,5,0,0,1,3,0,0,0,0,1,2,1,1,4,11,2.8,5,2.2
451,S010001734,상명초등학교,서울특별시 노원구 덕릉로 541,37.6487233,127.066969,4,122,4,121,4,121,4,120,4,120,4,109,0,0,24,713,29.7,23,31
452,S010001735,서울계상초등학교,서울특별시 노원구 한글비석로41가길 24,37.66219741,127.0686766,3,62,4,67,4,70,6,103,4,78,5,93,2,10,28,483,17.3,33,14.6
453,S010001736,서울공릉초등학교,서울특별시 노원구 동일로173길 12,37.61861498,127.0746307,3,45,3,56,3,59,3,62,3,60,3,57,0,0,18,339,18.8,21,16.1
454,S010001737,서울공연초등학교,서울특별시 노원구 동일로192가길 16,37.627368,127.074873,4,80,4,74,3,60,5,93,4,83,3,62,2,10,25,462,18.5,29,15.9
455,S010001738,서울노원초등학교,서울특별시 노원구 동일로230나길 32,37.67323,127.05836,3,49,3,47,2,40,3,53,3,58,2,43,2,7,18,297,16.5,22,13.5
456,S010001739,서울노일초등학교,서울특별시 노원구 동일로 1625,37.67375516,127.054967,4,77,4,81,3,76,4,80,4,77,4,88,0,0,23,479,20.8,28,17.1
457,S010001740,서울녹천초등학교,서울특별시 노원구 마들로3길 34,37.62850733,127.0631173,3,49,2,37,2,36,3,46,3,44,4,57,1,4,18,273,15.2,21,13
458,S010001741,서울누원초등학교,서울특별시 도봉구 마들로 859-44,37.68723271,127.0492675,7,140,6,119,6,118,7,132,7,139,7,125,2,11,42,784,18.7,48,16.3
459,S010001742,서울당현초등학교,서울특별시 노원구 동일로213길 52,37.64825944,127.0582117,4,88,4,78,5,71,4,90,4,86,7,117,1,5,29,535,18.4,33,16.2
460,S010001743,서울도봉초등학교,서울특별시 도봉구 도봉로173길 96,37.67996049,127.0382892,3,61,3,59,3,53,4,66,3,65,4,81,2,10,22,395,18,26,15.2
461,S010001744,서울동일초등학교,서울특별시 노원구 한글비석로 566,37.6648142,127.0541716,5,106,5,103,5,108,5,122,5,115,5,110,0,0,30,664,22.1,35,19
462,S010001745,서울방학초등학교,서울특별시 도봉구 도당로9길 34,37.664101,127.032016,4,86,4,81,4,79,5,105,5,112,5,107,2,11,29,581,20,34,17.1
463,S010001746,서울백운초등학교,서울특별시 도봉구 삼양로146길 17,37.6532035,127.0139875,6,134,6,121,5,115,7,149,7,135,7,135,2,7,40,796,19.9,47,16.9
464,S010001747,서울불암초등학교,서울특별시 노원구 중계로 178,37.65078343,127.0806007,6,105,5,106,6,139,7,159,8,175,9,198,1,3,42,885,21.1,50,17.7
465,S010001748,서울상경초등학교,서울특별시 노원구 수락산로 237,37.67055277,127.0516731,6,114,5,117,5,91,6,112,6,111,5,92,2,9,35,646,18.5,41,15.8
466,S010001749,서울상계초등학교,서울특별시 노원구 상계로9길 39,37.65962546,127.0664937,3,40,2,42,2,35,3,44,3,47,3,47,2,13,18,268,14.9,21,12.8
467,S010001750,서울상곡초등학교,서울특별시 노원구 노원로38길 34,37.66290383,127.0620766,4,90,4,83,4,86,4,92,4,81,4,91,0,0,24,523,21.8,28,18.7
468,S010001751,서울상수초등학교,서울특별시 노원구 동일로216길 66,37.651991,127.064846,5,85,5,108,6,98,6,122,6,117,6,114,0,0,34,644,18.9,42,15.3
469,S010001752,서울상원초등학교,서울특별시 노원구 한글비석로54길 119,37.6671878,127.0598254,4,64,4,71,3,54,4,69,4,65,5,83,1,3,25,409,16.4,29,14.1
470,S010001753,서울상월초등학교,서울특별시 노원구 동일로221길 27,37.65865377,127.0569822,3,43,3,41,2,22,2,26,2,37,1,16,1,1,14,186,13.3,18,10.3
471,S010001754,서울상천초등학교,서울특별시 노원구 덕릉로 443,37.64628468,127.0578068,4,68,4,66,3,62,3,50,3,59,3,61,2,10,22,376,17.1,27,13.9
472,S010001755,서울선곡초등학교,서울특별시 노원구 광운로2길 1,37.61841,127.05804,5,94,6,122,6,110,6,115,6,112,6,128,2,7,37,688,18.6,43,16
473,S010001756,서울수락초등학교,서울특별시 노원구 동일로 1745,37.68450193,127.0551836,4,81,4,68,4,69,4,81,5,90,5,103,2,10,28,502,17.9,33,15.2
474,S010001757,서울수암초등학교,서울특별시 노원구 중계로12길 9,37.648425,127.08154,4,79,3,66,3,83,4,103,4,107,6,139,2,5,26,582,22.4,33,17.6
475,S010001758,서울숭미초등학교,서울특별시 도봉구 노해로 179,37.65102389,127.0279443,5,102,6,114,5,101,6,121,6,126,6,126,2,9,36,699,19.4,42,16.6
476,S010001759,서울신계초등학교,서울특별시 노원구 초안산로 29,37.63045,127.05292,3,40,2,34,3,46,2,40,3,50,3,59,2,8,18,277,15.4,22,12.6
477,S010001760,서울신방학초등학교,서울특별시 도봉구 시루봉로 173,37.66668272,127.0289204,3,52,3,55,3,58,3,66,4,79,3,61,1,5,20,376,18.8,24,15.7
478,S010001761,서울신상계초등학교,서울특별시 노원구 상계로 267,37.66742959,127.0757359,4,70,3,62,3,62,3,60,4,67,4,67,2,8,23,396,17.2,27,14.7
479,S010001762,서울신창초등학교,서울특별시 도봉구 덕릉로60길 93,37.636567,127.041855,3,47,3,42,2,43,3,48,2,40,3,53,0,0,16,273,17.1,20,13.7
480,S010001763,서울신학초등학교,서울특별시 도봉구 방학로 247-21,37.66121991,127.0257222,3,61,3,69,3,52,4,73,4,77,4,68,2,9,23,409,17.8,27,15.1
481,S010001764,서울신화초등학교,서울특별시 도봉구 우이천로 120,37.63319504,127.0408845,3,61,3,49,3,61,3,61,4,64,4,64,2,9,22,369,16.8,28,13.2
482,S010001765,서울쌍문초등학교,서울특별시 도봉구 우이천로 360,37.6489,127.024422,5,108,5,95,5,100,5,101,5,112,5,94,2,10,32,620,19.4,36,17.2
483,S010001766,서울연지초등학교,서울특별시 노원구 월계로55길 48,37.63319071,127.0595368,3,48,2,47,3,47,3,52,2,40,3,46,2,9,18,289,16.1,21,13.8
484,S010001767,서울연촌초등학교,서울특별시 노원구 공릉로58길 36,37.634416,127.0725121,4,72,4,78,5,90,4,89,5,121,6,109,2,2,30,561,18.7,35,16
485,S010001768,서울오봉초등학교,서울특별시 도봉구 시루봉로 285,37.672244,127.040476,3,55,3,66,2,38,3,53,3,57,3,45,1,2,18,316,17.6,21,15
486,S010001769,서울온곡초등학교,서울특별시 노원구 한글비석로52길 59,37.66754,127.0659114,5,90,4,93,4,79,5,96,5,117,6,132,0,0,29,607,20.9,35,17.3
487,S010001770,서울용동초등학교,서울특별시 노원구 한글비석로1길 81-11,37.64108534,127.0690832,3,44,2,30,2,38,3,55,3,53,3,69,2,9,18,298,16.6,23,13
488,S010001771,서울용원초등학교,서울특별시 노원구 섬밭로 144,37.62992402,127.0689414,4,80,5,90,5,106,6,113,5,99,5,102,2,9,32,599,18.7,39,15.4
489,S010001772,서울원광초등학교,서울특별시 노원구 덕릉로76길 18,37.65431182,127.0749157,4,94,4,87,5,122,5,116,6,145,7,167,0,0,31,731,23.6,38,19.2
490,S010001773,서울월계초등학교,서울특별시 노원구 월계로45가길 10,37.62761975,127.0501888,3,57,3,54,2,36,3,48,3,49,2,42,0,0,16,286,17.9,20,14.3
491,S010001774,서울월천초등학교,서울특별시 도봉구 노해로70길 96,37.64804621,127.0517526,3,61,3,49,3,53,4,68,4,72,3,56,2,10,22,369,16.8,27,13.7
492,S010001775,서울을지초등학교,서울특별시 노원구 중계로 239,37.65059011,127.0730898,7,190,8,208,8,216,11,298,11,298,12,321,0,0,57,1531,26.9,71,21.6
493,S010001776,서울자운초등학교,서울특별시 도봉구 마들로13길 166,37.65800959,127.0466824,5,105,6,123,5,84,6,127,6,134,6,132,0,0,34,705,20.7,38,18.6
494,S010001777,서울중계초등학교,서울특별시 노원구 한글비석로19길 39,37.65784108,127.07331,6,136,6,140,6,139,6,161,7,163,6,141,1,4,38,884,23.3,47,18.8
495,S010001778,서울중원초등학교,서울특별시 노원구 섬밭로 316,37.64398283,127.0627678,4,85,3,50,4,71,4,72,4,76,4,71,0,0,23,425,18.5,27,15.7
496,S010001779,서울중평초등학교,서울특별시 노원구 섬밭로 241,37.63753475,127.0639634,9,193,9,223,9,221,10,244,10,253,12,284,1,6,60,1424,23.7,72,19.8
497,S010001780,서울중현초등학교,서울특별시 노원구 섬밭로 181,37.6324103,127.066432,2,28,1,10,2,24,2,25,2,30,2,16,2,6,13,139,10.7,16,8.7
498,S010001781,서울창경초등학교,서울특별시 도봉구 도봉로129길 54,37.656552,127.034969,7,132,7,148,7,134,7,164,7,149,7,161,0,0,42,888,21.1,51,17.4
499,S010001782,서울창도초등학교,서울특별시 도봉구 방학로 32-28,37.66413541,127.0487853,6,117,6,123,6,129,6,132,6,138,7,140,1,1,38,780,20.5,45,17.3
500,S010001783,서울창동초등학교,서울특별시 도봉구 해등로16길 81,37.65536142,127.0448313,3,63,3,68,3,64,3,60,4,72,3,66,1,4,20,397,19.9,24,16.5
501,S010001784,서울창림초등학교,서울특별시 도봉구 덕릉로63길 46,37.64323537,127.0416061,7,141,6,140,6,137,8,174,7,162,8,168,2,13,44,935,21.3,53,17.6
502,S010001785,서울창원초등학교,서울특별시 도봉구 해등로 103,37.652516,127.04056,2,38,3,50,3,53,3,68,3,44,3,60,1,6,18,319,17.7,21,15.2
503,S010001786,서울창일초등학교,서울특별시 도봉구 노해로66길 84,37.64765872,127.0476278,6,117,6,137,7,160,7,157,7,151,7,148,0,0,40,870,21.8,48,18.1
504,S010001787,서울청계초등학교,서울특별시 노원구 공릉로 431,37.64503334,127.0661408,2,39,3,45,2,39,3,53,3,50,3,56,2,10,18,292,16.2,21,13.9
505,S010001788,서울초당초등학교,서울특별시 도봉구 해등로32길 11,37.658421,127.022382,6,134,6,145,6,146,6,135,7,177,8,173,0,0,39,910,23.3,48,19
506,S010001789,서울태랑초등학교,서울특별시 노원구 화랑로51나길 31,37.62625137,127.0906018,6,126,6,152,6,156,6,158,7,146,7,178,1,5,39,921,23.6,50,18.4
507,S010001790,서울태릉초등학교,서울특별시 노원구 노원로1길 36,37.62310204,127.0850611,7,163,6,135,6,136,7,136,7,142,7,153,1,6,41,871,21.2,48,18.1
508,S010001791,서울한천초등학교,서울특별시 노원구 마들로 45,37.620167,127.069042,7,136,7,135,7,139,7,153,8,144,6,122,0,0,42,829,19.7,50,16.6
509,S010001792,청원초등학교,서울특별시 노원구 한글비석로 506,37.665317,127.061327,4,120,4,122,4,120,4,120,4,111,4,105,0,0,24,698,29.1,44,15.9
510,S090004341,청원초등학교,경기도 화성시 마도면 해운로 794,37.187943,126.7614,4,120,4,122,4,120,4,120,4,111,4,105,0,0,24,698,29.1,44,15.9
511,S110000887,청원초등학교,충청북도 청주시 청원구 오창읍 과학산업3로 228,36.709724,127.43081,4,120,4,122,4,120,4,120,4,111,4,105,0,0,24,698,29.1,44,15.9
512,S010001792,청원초등학교,서울특별시 노원구 한글비석로 506,37.665317,127.061327,1,9,1,11,1,5,1,11,1,16,1,10,1,1,7,63,9,8,7.9
513,S090004341,청원초등학교,경기도 화성시 마도면 해운로 794,37.187943,126.7614,1,9,1,11,1,5,1,11,1,16,1,10,1,1,7,63,9,8,7.9
514,S110000887,청원초등학교,충청북도 청주시 청원구 오창읍 과학산업3로 228,36.709724,127.43081,1,9,1,11,1,5,1,11,1,16,1,10,1,1,7,63,9,8,7.9
515,S010001792,청원초등학교,서울특별시 노원구 한글비석로 506,37.665317,127.061327,5,121,5,119,6,133,7,169,6,133,6,140,2,8,37,823,22.2,45,18.3
516,S090004341,청원초등학교,경기도 화성시 마도면 해운로 794,37.187943,126.7614,5,121,5,119,6,133,7,169,6,133,6,140,2,8,37,823,22.2,45,18.3
517,S110000887,청원초등학교,충청북도 청주시 청원구 오창읍 과학산업3로 228,36.709724,127.43081,5,121,5,119,6,133,7,169,6,133,6,140,2,8,37,823,22.2,45,18.3
518,S010001793,태강삼육초등학교,서울특별시 노원구 화랑로 815,37.641795,127.110518,4,129,4,128,4,128,4,128,4,128,4,128,0,0,24,769,32,24,32
519,S010001794,한신초등학교,서울특별시 도봉구 노해로49길 69,37.653226,127.032803,4,112,4,114,4,112,4,95,3,46,4,85,0,0,23,564,24.5,53,10.6
520,S010001795,화랑초등학교,서울특별시 노원구 화랑로 621,37.62878257,127.0889917,4,115,4,115,4,112,4,112,4,112,4,110,0,0,24,676,28.2,24,28.2
5928,S150003001,남양초등학교,경상북도 울릉군 서면 남양1길 58,37.469071,130.8402009,1,12,1,20,1,17,1,20,1,27,1,25,1,4,7,125,17.9,8,15.6
522,S090002793,화랑초등학교,경기도 안산시 단원구 화정천동로 296,37.331619,126.818466,4,115,4,115,4,112,4,112,4,112,4,110,0,0,24,676,28.2,24,28.2
5935,S150003001,남양초등학교,경상북도 울릉군 서면 남양1길 58,37.469071,130.8402009,7,149,6,158,6,153,7,182,7,165,7,181,2,13,42,1001,23.8,50,20
524,S010001795,화랑초등학교,서울특별시 노원구 화랑로 621,37.62878257,127.0889917,2,36,2,28,1,24,2,31,1,25,2,29,1,4,11,177,16.1,14,12.6
9216,S150003009,천부초등학교현포분교장,경상북도 울릉군 북면 현포1길 38,37.5240143,130.822284,1,3,0,0,0,0,0,0,0,0,0,0,0,0,1,3,3,2,1.5
526,S090002793,화랑초등학교,경기도 안산시 단원구 화정천동로 296,37.331619,126.818466,2,36,2,28,1,24,2,31,1,25,2,29,1,4,11,177,16.1,14,12.6
13813,S150003512,구룡포중학교,경상북도 포항시 남구 구룡포읍 호미로 341,35.9,129.6,1,10,1,19,1,11,,,,,,,1,1,4,41,10.3,11,3.7
528,S010001795,화랑초등학교,서울특별시 노원구 화랑로 621,37.62878257,127.0889917,5,107,3,79,4,94,4,104,5,112,5,120,3,20,29,636,21.9,35,18.2
13817,S150003520,대보중학교,경상북도 포항시 남구 호미곶면 해맞이로 122,36.0756133,129.5671421,1,3,1,6,1,4,,,,,,,0,0,3,13,4.3,6,2.2
530,S090002793,화랑초등학교,경기도 안산시 단원구 화정천동로 296,37.331619,126.818466,5,107,3,79,4,94,4,104,5,112,5,120,3,20,29,636,21.9,35,18.2
9288,S150003572,대보초등학교,경상북도 포항시 남구 호미곶면 보천길 16,36.0785544,129.5571805,1,4,0,0,1,4,1,5,1,3,1,6,0,0,5,22,4.4,7,3.1
532,S010001795,화랑초등학교,서울특별시 노원구 화랑로 621,37.62878257,127.0889917,1,8,1,7,1,9,1,18,1,12,1,10,1,4,7,68,9.7,8,8.5
9283,S150003555,구룡포초등학교,경상북도 포항시 남구 구룡포읍 구룡포길 61,35.9905995,129.552321,1,15,1,11,1,19,1,15,1,20,1,10,1,5,7,95,13.6,8,11.9
534,S090002793,화랑초등학교,경기도 안산시 단원구 화정천동로 296,37.331619,126.818466,1,8,1,7,1,9,1,18,1,12,1,10,1,4,7,68,9.7,8,8.5
9300,S150003621,장기초등학교모포분교장,경상북도 포항시 남구 장기면 모포길 59,35.9346481,129.5233879,0,0,0,0,1,1,0,0,1,3,0,0,0,0,2,4,2,3,1.3
536,S010001966,경기초등학교,서울특별시 서대문구 경기대로9길 10,37.5651102,126.9628608,4,96,4,96,4,98,4,97,4,96,4,92,0,0,24,575,24,24,24
537,S010001967,명지초등학교,서울특별시 서대문구 명지2길 32-20,37.58362949,126.9282301,5,122,5,120,5,121,5,120,5,104,5,98,0,0,30,685,22.8,30,22.8
538,S020001263,명지초등학교,부산광역시 강서구 명지국제6로 296,35.102245,128.92442,5,122,5,120,5,121,5,120,5,104,5,98,0,0,30,685,22.8,30,22.8
539,S110000700,명지초등학교,충청북도 제천시 강명길 21,37.1188282,128.2054568,5,122,5,120,5,121,5,120,5,104,5,98,0,0,30,685,22.8,30,22.8
540,S120000958,명지초등학교,충청남도 서산시 대산읍 명지3로 25,36.971685,126.4098,5,122,5,120,5,121,5,120,5,104,5,98,0,0,30,685,22.8,30,22.8
541,S010001967,명지초등학교,서울특별시 서대문구 명지2길 32-20,37.58362949,126.9282301,9,227,9,254,8,200,9,218,10,255,7,185,1,6,53,1345,25.4,62,21.7
542,S020001263,명지초등학교,부산광역시 강서구 명지국제6로 296,35.102245,128.92442,9,227,9,254,8,200,9,218,10,255,7,185,1,6,53,1345,25.4,62,21.7
543,S110000700,명지초등학교,충청북도 제천시 강명길 21,37.1188282,128.2054568,9,227,9,254,8,200,9,218,10,255,7,185,1,6,53,1345,25.4,62,21.7
544,S120000958,명지초등학교,충청남도 서산시 대산읍 명지3로 25,36.971685,126.4098,9,227,9,254,8,200,9,218,10,255,7,185,1,6,53,1345,25.4,62,21.7
545,S010001967,명지초등학교,서울특별시 서대문구 명지2길 32-20,37.58362949,126.9282301,7,162,6,139,6,133,6,128,7,157,7,150,2,9,41,878,21.4,49,17.9
546,S020001263,명지초등학교,부산광역시 강서구 명지국제6로 296,35.102245,128.92442,7,162,6,139,6,133,6,128,7,157,7,150,2,9,41,878,21.4,49,17.9
547,S110000700,명지초등학교,충청북도 제천시 강명길 21,37.1188282,128.2054568,7,162,6,139,6,133,6,128,7,157,7,150,2,9,41,878,21.4,49,17.9
548,S120000958,명지초등학교,충청남도 서산시 대산읍 명지3로 25,36.971685,126.4098,7,162,6,139,6,133,6,128,7,157,7,150,2,9,41,878,21.4,49,17.9
549,S010001967,명지초등학교,서울특별시 서대문구 명지2길 32-20,37.58362949,126.9282301,1,7,1,22,1,7,1,16,1,7,1,8,0,0,6,67,11.2,7,9.6
550,S020001263,명지초등학교,부산광역시 강서구 명지국제6로 296,35.102245,128.92442,1,7,1,22,1,7,1,16,1,7,1,8,0,0,6,67,11.2,7,9.6
551,S110000700,명지초등학교,충청북도 제천시 강명길 21,37.1188282,128.2054568,1,7,1,22,1,7,1,16,1,7,1,8,0,0,6,67,11.2,7,9.6
552,S120000958,명지초등학교,충청남도 서산시 대산읍 명지3로 25,36.971685,126.4098,1,7,1,22,1,7,1,16,1,7,1,8,0,0,6,67,11.2,7,9.6
553,S010001968,서울갈현초등학교,서울특별시 은평구 연서로29길 31,37.619314,126.916511,8,176,7,153,8,177,9,199,9,202,9,213,1,3,51,1123,22,60,18.7
554,S010001969,서울고은초등학교,서울특별시 서대문구 모래내로 441,37.58500031,126.9439752,5,91,4,82,4,80,4,83,3,68,4,94,2,8,26,506,19.5,31,16.3
555,S010001970,서울공덕초등학교,서울 마포구 만리재옛길 13,37.54580443,126.9548225,6,135,6,134,5,110,5,124,4,94,5,109,2,7,33,713,21.6,38,18.8
556,S010001971,서울구산초등학교,서울특별시 은평구 서오릉로15길 16,37.61230025,126.9091025,7,150,7,156,6,136,7,159,7,172,8,196,2,13,44,982,22.3,52,18.9
557,S010001972,서울금화초등학교,서울특별시 서대문구 통일로 165,37.5682696,126.9633164,3,65,4,71,4,86,3,72,4,81,4,80,2,10,24,465,19.4,29,16
558,S010001973,서울녹번초등학교,서울특별시 은평구 녹번로1길 1,37.60458501,126.9257457,6,147,5,113,6,124,7,136,6,134,6,133,0,0,36,787,21.9,42,18.7
559,S010001974,서울대신초등학교,서울특별시 서대문구 이화여대2길 27,37.55770202,126.9480383,2,29,2,27,2,35,2,30,2,26,2,31,1,6,13,184,14.2,16,11.5
560,S010001975,서울대은초등학교,서울특별시 은평구 통일로69길 12-15,37.6121246,126.9259104,2,28,2,17,1,23,2,31,2,34,2,36,1,5,12,174,14.5,14,12.4
561,S010001976,서울대조초등학교,서울특별시 은평구 연서로18길 17,37.6132233,126.9195423,6,128,6,134,5,113,6,145,6,140,6,141,2,14,37,815,22,45,18.1
562,S010001977,서울동교초등학교,서울특별시 마포구 월드컵로25길 86,37.558429,126.902539,6,124,6,131,6,136,6,143,7,160,6,140,0,0,37,834,22.5,45,18.5
563,S010001978,서울마포초등학교,서울특별시 마포구 도화2길 64,37.53860162,126.9498166,6,134,6,128,5,116,5,127,5,108,6,134,2,5,35,752,21.5,41,18.3
564,S010001979,서울망원초등학교,서울특별시 마포구 방울내로5길 28,37.56089011,126.9007624,2,38,2,42,2,31,2,45,2,48,2,41,0,0,12,245,20.4,14,17.5
565,S010001980,서울미동초등학교,서울특별시 서대문구 충정로 52,37.563267,126.965794,3,52,2,40,3,51,2,50,3,54,3,60,1,1,17,308,18.1,22,14
566,S010001981,서울북가좌초등학교,서울특별시 서대문구 거북골로19길 20,37.57785,126.907656,9,178,8,189,9,203,8,206,10,222,9,214,2,14,55,1226,22.3,67,18.3
567,S010001982,서울북성초등학교,서울특별시 서대문구 북아현로1나길 22,37.55963176,126.9518353,8,180,7,179,7,155,7,159,5,118,6,126,1,3,41,920,22.4,48,19.2
568,S010001983,서울북한산초등학교,서울특별시 은평구 대서문길 42-3,37.65363326,126.9504646,1,12,1,19,1,17,1,23,2,26,1,16,1,3,8,116,14.5,11,10.5
569,S010001984,서울불광초등학교,서울특별시 은평구 불광로 51,37.61342855,126.9307204,6,124,5,109,6,128,5,120,5,115,6,126,3,11,36,733,20.4,43,17
570,S010001985,서울상신초등학교,서울특별시 은평구 가좌로 361,37.59795343,126.9052019,5,112,4,90,5,106,4,100,5,104,4,87,2,8,29,607,20.9,34,17.9
571,S010001986,서울상암초등학교,서울특별시 마포구 월드컵북로 353,37.5763366,126.8923421,4,88,3,67,4,77,5,109,4,92,4,95,1,3,25,531,21.2,29,18.3
572,S010001987,서울서강초등학교,서울특별시 마포구 독막로 113,37.54869526,126.9268966,9,197,7,175,7,154,8,189,6,140,7,163,2,4,46,1022,22.2,54,18.9
573,S010001988,서울서교초등학교,서울특별시 마포구 와우산로23길 20-27,37.554941,126.924899,3,54,3,74,3,60,4,85,4,74,5,94,0,0,22,441,20,28,15.8
574,S010001989,서울성산초등학교,서울특별시 마포구 양화로3길 94,37.55355,126.91116,6,128,5,116,5,98,5,110,5,107,5,118,2,9,33,686,20.8,39,17.6
575,S010001990,서울성서초등학교,서울특별시 마포구 성미산로7길 24,37.56062471,126.9114516,4,85,4,81,3,64,4,88,5,109,5,92,2,6,27,525,19.4,31,16.9
576,S010001991,서울성원초등학교,서울특별시 마포구 월드컵로36길 34,37.56697719,126.9050873,3,59,3,52,2,43,3,64,4,82,4,76,0,0,19,376,19.8,26,14.5
577,S010001992,서울소의초등학교,서울특별시 마포구 마포대로24길 42,37.55278024,126.9606578,4,87,3,75,4,73,4,81,3,66,3,71,1,5,22,458,20.8,26,17.6
578,S010001993,서울수색초등학교,서울특별시 은평구 수색로16길 21,37.58517323,126.8960112,3,53,3,51,2,31,2,36,2,37,2,35,1,1,15,244,16.3,17,14.4
579,S010001994,서울신도초등학교,서울특별시 은평구 진관1로 77-23,37.63293942,126.9291978,6,141,6,142,7,155,8,178,9,229,8,205,1,6,45,1056,23.5,53,19.9
580,S010001995,서울신북초등학교,서울특별시 마포구 월드컵북로38길 26,37.57110397,126.9053628,5,108,5,113,6,139,6,138,6,134,7,156,2,5,37,793,21.4,43,18.4
581,S010001996,서울신사초등학교,서울특별시 은평구 가좌로 275-2,37.592835,126.912358,3,58,2,47,3,69,4,75,3,68,3,71,2,11,20,399,20,24,16.6
582,S010001997,서울신석초등학교,서울특별시 마포구 대흥로 33,37.543916,126.93782,6,120,6,114,5,109,5,111,5,117,6,128,2,7,35,706,20.2,44,16
583,S010001998,서울아현초등학교,서울특별시 마포구 굴레방로 6,37.55583127,126.9562424,6,123,5,97,4,86,5,101,4,83,4,89,2,6,30,585,19.5,36,16.3
584,S010001999,서울안산초등학교,서울특별시 서대문구 통일로 321,37.5791691,126.9522121,5,91,5,110,5,97,4,91,6,121,6,128,2,7,33,645,19.5,39,16.5
585,S010002000,서울역촌초등학교,서울특별시 은평구 은평로3길 25,37.6015857,126.9139261,10,204,9,211,9,214,12,290,11,256,12,273,0,0,63,1448,23,74,19.6
586,S010002001,서울연가초등학교,서울특별시 서대문구 증가로12가길 49-50,37.57956428,126.9173296,12,305,10,246,10,230,11,273,10,236,10,248,2,11,65,1549,23.8,76,20.4
587,S010002002,서울연신초등학교,서울특별시 은평구 연서로 347,37.6266794,126.9285544,2,41,2,35,2,40,3,51,3,48,2,36,2,10,16,261,16.3,21,12.4
588,S010002003,서울연은초등학교,서울특별시 은평구 백련산로2길 35,37.590331,126.925224,5,142,5,137,5,154,5,144,4,117,5,113,2,9,31,816,26.3,37,22.1
589,S010002004,서울연천초등학교,서울특별시 은평구 연서로34길 22,37.62134956,126.9299202,2,37,2,34,2,43,2,40,2,47,3,49,2,7,15,257,17.1,19,13.5
590,S010002005,서울연희초등학교,서울 서대문구 연희로 136,37.569167,126.9339564,5,116,6,128,5,118,5,111,5,111,6,129,2,11,34,724,21.3,41,17.7
591,S010002006,서울염리초등학교,서울특별시 마포구 토정로37길 37,37.542562,126.945821,10,267,9,226,10,236,10,264,9,226,9,221,2,6,59,1446,24.5,75,19.3
592,S010002007,서울용강초등학교,서울특별시 마포구 백범로17길 9,37.54910107,126.9440428,4,86,5,100,4,77,5,101,3,70,4,84,2,8,27,526,19.5,32,16.4
593,S010002008,서울은평초등학교,서울특별시 은평구 은평로 239,37.601936,126.934486,10,206,8,174,6,131,6,153,5,117,6,140,2,12,43,933,21.7,48,19.4
594,S010002009,서울응암초등학교,서울특별시 은평구 가좌로6길 20,37.58861679,126.9216357,6,118,5,112,5,108,7,147,6,133,5,126,3,17,37,761,20.6,42,18.1
595,S010002010,서울인왕초등학교,서울특별시 서대문구 세무서길 33-9,37.59021925,126.9448046,4,97,4,96,4,68,4,68,4,85,4,79,1,2,25,495,19.8,30,16.5
596,S010002011,서울중동초등학교,서울특별시 마포구 월드컵북로 152,37.5666246,126.911279,4,80,4,81,3,59,4,99,4,86,4,93,2,7,25,505,20.2,30,16.8
597,S010002012,서울증산초등학교,서울특별시 은평구 증산서길 61,37.58256374,126.904275,5,117,5,88,4,82,6,101,6,95,6,123,2,9,34,615,18.1,40,15.4
598,S010002013,서울창서초등학교,서울 서대문구 연세로5나길 30-3,37.55814161,126.9334788,2,25,2,28,1,22,1,25,2,29,2,29,2,5,12,163,13.6,15,10.9
599,S010002014,서울창천초등학교,서울특별시 마포구 백범로1길 56,37.554877,126.939637,2,43,2,26,1,17,1,16,2,30,2,19,2,8,12,159,13.3,16,9.9
600,S010002015,서울한서초등학교,서울특별시 마포구 대흥로24바길 27,37.55364828,126.9497794,7,128,6,127,6,113,6,137,5,110,5,104,1,3,36,722,20.1,43,16.8
601,S010002016,서울홍연초등학교,서울특별시 서대문구 백련사길 55,37.582078,126.930792,4,83,5,100,5,93,5,124,5,99,6,138,2,8,32,645,20.2,38,17
602,S010002017,서울홍은초등학교,서울특별시 서대문구 세검정로 105,37.59754099,126.94946,3,58,3,47,3,62,3,61,2,42,2,42,2,13,18,325,18.1,24,13.5
603,S010002018,서울홍제초등학교,서울특별시 서대문구 홍은중앙로 13,37.59350636,126.9454227,7,150,5,112,6,128,6,137,6,148,6,148,2,9,38,832,21.9,44,18.9
604,S010002019,선일초등학교,서울특별시 은평구 갈현로29길 27,37.619773,126.913287,3,87,3,85,3,84,3,71,2,48,3,62,0,0,17,437,25.7,18,24.3
605,S090002747,선일초등학교,경기도 안산시 단원구 선이로3길 40,37.3402142,126.7997745,3,87,3,85,3,84,3,71,2,48,3,62,0,0,17,437,25.7,18,24.3
606,S010002019,선일초등학교,서울특별시 은평구 갈현로29길 27,37.619773,126.913287,3,39,3,46,4,57,5,73,4,64,5,83,2,8,26,370,14.2,31,11.9
607,S090002747,선일초등학교,경기도 안산시 단원구 선이로3길 40,37.3402142,126.7997745,3,39,3,46,4,57,5,73,4,64,5,83,2,8,26,370,14.2,31,11.9
608,S010002021,예일초등학교,서울특별시 은평구 연서로 117,37.610224,126.914341,3,86,3,84,3,84,3,85,2,59,3,78,0,0,17,476,28,31,15.4
609,S010002023,이화여자대학교사범대학부속초등학교,서울특별시 서대문구 성산로 512-39,37.5611486,126.9427752,4,104,4,104,4,104,4,104,4,104,4,104,0,0,24,624,26,41,15.2
610,S010002024,추계초등학교,서울특별시 서대문구 북아현로11가길 7,37.56368,126.953127,2,61,2,61,2,62,2,61,2,59,2,48,0,0,12,352,29.3,25,14.1
611,S010002025,충암초등학교,서울특별시 은평구 가좌로5길 5,37.585434,126.922585,4,112,5,130,5,130,5,120,3,75,4,93,0,0,26,660,25.4,26,25.4
612,S010002026,홍익대학교사범대학부속초등학교,서울특별시 마포구 성미산로 51,37.55964573,126.9132093,3,85,3,86,3,86,3,84,3,82,3,63,0,0,18,486,27,42,11.6
613,S010002163,경복초등학교,서울특별시 광진구 천호대로130길 58,37.549722,127.086784,5,122,5,124,5,121,5,121,5,142,5,141,0,0,30,771,25.7,30,25.7
614,S010002164,서울경동초등학교,서울특별시 성동구 성수일로 34,37.54382386,127.0500737,6,126,7,144,6,131,7,151,7,148,7,148,2,14,42,862,20.5,49,17.6
615,S010002165,서울경수초등학교,서울특별시 성동구 뚝섬로13길 22,37.54043604,127.0580689,2,36,2,30,3,47,2,42,2,42,2,32,2,6,15,235,15.7,19,12.4
616,S010002166,서울경일초등학교,서울특별시 성동구 뚝섬로 332,37.54094208,127.0466048,2,34,3,45,3,44,2,31,3,41,3,47,0,0,16,242,15.1,20,12.1
617,S010002167,서울광남초등학교,서울특별시 광진구 아차산로70길 35,37.54078944,127.1006638,7,188,7,185,8,233,9,247,9,257,10,257,0,0,50,1367,27.3,61,22.4
618,S010002168,서울광장초등학교,서울특별시 광진구 광장로1길 27,37.5485053,127.1010583,3,56,2,41,2,45,2,48,3,63,3,51,2,13,17,317,18.6,19,16.7
619,S010002169,서울구남초등학교,서울특별시 광진구 구의강변로 69,37.53709497,127.0922906,5,103,6,123,5,104,6,136,5,115,6,116,0,0,33,697,21.1,40,17.4
620,S010002170,서울구의초등학교,서울특별시 광진구 광나루로30길 49,37.54300708,127.0803126,5,100,4,75,3,72,5,100,3,60,4,97,2,12,26,516,19.8,31,16.6
621,S010002171,서울금북초등학교,서울특별시 성동구 행당로1길 13,37.55749486,127.0235588,7,149,6,127,6,125,6,127,6,115,6,118,2,10,39,771,19.8,45,17.1
622,S010002172,서울금옥초등학교,서울특별시 성동구 독서당로 251,37.54630189,127.0176529,3,78,2,39,2,40,3,43,2,35,3,38,2,5,17,278,16.4,21,13.2
623,S010002173,서울금호초등학교,서울특별시 성동구 무수막길 69,37.55189839,127.020755,6,113,5,101,5,86,5,85,4,84,3,54,2,11,30,534,17.8,36,14.8
624,S010002174,서울동명초등학교,서울특별시 성동구 마장로29길 29,37.568565,127.03537,3,37,2,39,2,37,3,45,4,71,2,45,2,11,18,285,15.8,23,12.4
625,S010002175,서울동의초등학교,서울특별시 광진구 영화사로 111,37.55342281,127.0990466,6,114,5,104,6,124,6,123,6,119,6,116,2,7,37,707,19.1,44,16.1
626,S010002176,서울동자초등학교,서울특별시 광진구 뚝섬로 561,37.5350583,127.0721804,9,204,8,175,8,172,9,196,9,192,9,202,0,0,52,1141,21.9,61,18.7
627,S010002177,서울무학초등학교,서울특별시 성동구 무학봉15길 21,37.563094,127.029438,4,78,4,64,5,87,4,78,4,80,3,58,2,12,26,457,17.6,30,15.2
628,S010002178,서울사근초등학교,서울특별시 성동구 사근동11길 16,37.5,127,2,30,2,32,2,27,2,27,1,20,2,26,2,11,13,173,13.3,16,10.8
629,S010002179,서울성수초등학교,서울특별시 성동구 아차산로17길 21,37.544309,127.063378,3,41,3,43,2,39,3,42,3,43,3,45,1,4,18,257,14.3,23,11.2
630,S010002180,서울성자초등학교,서울특별시 광진구 뚝섬로56길 7,37.531162,127.083148,4,76,4,99,4,87,4,95,4,99,5,106,1,0,26,562,21.6,30,18.7
631,S010002181,서울신양초등학교,서울특별시 광진구 능동로 42,37.53468119,127.0699941,4,84,4,76,4,79,4,74,5,92,4,75,2,7,27,487,18,35,13.9
632,S010002182,서울신자초등학교,서울특별시 광진구 뚝섬로46길 64,37.53024482,127.0755879,3,57,3,52,3,52,3,55,2,41,3,57,2,9,19,323,17,23,14
633,S010002183,서울양남초등학교,서울특별시 광진구 뚝섬로64길 71,37.53079,127.08971,2,21,2,30,2,24,3,29,1,19,1,16,1,7,12,146,12.2,16,9.1
634,S010002184,서울옥수초등학교,서울특별시 성동구 금호로1길 25,37.54592271,127.0221882,5,107,5,90,5,93,4,83,4,83,4,77,2,4,29,537,18.5,35,15.3
635,S010002185,서울옥정초등학교,서울특별시 성동구 한림말길 43,37.54230893,127.0157872,6,138,5,115,6,119,6,128,6,119,5,99,2,7,36,725,20.1,42,17.3
636,S010002186,서울용곡초등학교,서울특별시 광진구 용마산로22길 82,37.56710835,127.088452,4,65,4,73,3,59,4,82,4,87,4,67,1,5,24,438,18.3,28,15.6
637,S010002187,서울용답초등학교,서울특별시 성동구 용답25길 1,37.56072856,127.0537611,2,33,2,32,2,22,2,46,3,47,2,39,2,11,15,230,15.3,20,11.5
638,S010002188,서울용마초등학교,서울특별시 광진구 천호대로113길 10,37.55811,127.0841,9,195,7,156,8,173,8,180,9,195,9,217,2,12,52,1128,21.7,67,16.8
639,S010002189,서울응봉초등학교,서울특별시 성동구 독서당로62길 28,37.55025195,127.033832,5,111,5,110,5,112,6,127,6,131,7,152,0,0,34,743,21.9,41,18.1
640,S010002190,서울자양초등학교,서울특별시 광진구 아차산로44길 26,37.53698878,127.0797404,4,76,4,78,3,70,4,88,4,83,3,68,1,4,23,467,20.3,27,17.3
641,S010002191,서울장안초등학교,서울특별시 광진구 군자로 74,37.5498778,127.0724029,5,88,5,91,3,62,5,99,4,73,4,87,2,11,28,511,18.3,32,16
642,S010002192,서울중광초등학교,서울특별시 광진구 긴고랑로13길 59,37.56524205,127.0826953,3,55,2,33,2,36,2,45,2,33,2,35,1,8,14,245,17.5,17,14.4
643,S010002193,서울중마초등학교,서울특별시 광진구 동일로72길 43,37.5661418,127.0800646,3,64,3,60,3,42,4,88,4,82,4,63,1,6,22,405,18.4,28,14.5
644,S010002194,서울행당초등학교,서울특별시 성동구 고산자로8길 6,37.55701994,127.0348717,6,122,6,133,6,120,5,124,5,110,5,105,2,12,35,726,20.7,41,17.7
645,S010002195,서울화양초등학교,서울특별시 광진구 군자로 9,37.54445962,127.070995,1,7,1,6,1,12,1,19,2,22,2,18,0,0,8,84,10.5,11,7.6
646,S010002196,성동초등학교,서울특별시 광진구 자양로4길 63,37.53328065,127.0892809,4,123,4,123,4,121,4,120,4,119,4,112,0,0,24,718,29.9,24,29.9
9024,S150003607,양포초등학교,경상북도 포항시 남구 장기면 장기로 33,35.8757327,129.5131232,4,100,4,96,3,85,4,109,4,103,5,117,2,14,26,624,24,31,20.1
9026,S150003607,양포초등학교,경상북도 포항시 남구 장기면 장기로 33,35.8757327,129.5131232,1,7,1,8,1,6,1,6,1,6,1,4,0,0,6,37,6.2,7,5.3
649,S120000473,성동초등학교,충청남도 논산시 성동면 성동로240번길 30,36.1994621,127.0334661,4,123,4,123,4,121,4,120,4,119,4,112,0,0,24,718,29.9,24,29.9
650,S150006153,성동초등학교,경상북도 상주시 성동새싹길 14,36.414182,128.170112,4,123,4,123,4,121,4,120,4,119,4,112,0,0,24,718,29.9,24,29.9
651,S010002196,성동초등학교,서울특별시 광진구 자양로4길 63,37.53328065,127.0892809,6,138,6,142,6,155,6,144,6,150,7,164,1,8,38,901,23.7,45,20
13649,S150001122,감포중학교,경상북도 경주시 감포읍 감포로12길 20,35.8111272,129.5066805,1,15,1,11,1,17,,,,,,,1,1,4,44,11,8,5.5
16404,S150000715,한국국제통상마이스터고등학교,경상북도 경주시 감포읍 감포로12길 20,35.811066,129.506668,4,53,4,56,3,51,,,,,,,0,0,11,160,14.5,31,5.2
654,S120000473,성동초등학교,충청남도 논산시 성동면 성동로240번길 30,36.1994621,127.0334661,6,138,6,142,6,155,6,144,6,150,7,164,1,8,38,901,23.7,45,20
655,S150006153,성동초등학교,경상북도 상주시 성동새싹길 14,36.414182,128.170112,6,138,6,142,6,155,6,144,6,150,7,164,1,8,38,901,23.7,45,20
656,S010002196,성동초등학교,서울특별시 광진구 자양로4길 63,37.53328065,127.0892809,1,11,1,12,1,16,1,14,1,18,1,11,0,0,6,82,13.7,7,11.7
8967,S150001144,감포초등학교,경상북도 경주시 감포읍 감포로10길 21,35.8100189,129.501881,1,14,1,17,1,16,1,9,1,24,1,9,1,1,7,90,12.9,8,11.3
4132,S150003620,장기초등학교,경상북도 포항시 남구 장기면 장기로 336,35.89700951,129.4943248,2,24,1,17,1,14,2,23,1,17,1,18,1,6,9,119,13.2,11,10.8
659,S120000473,성동초등학교,충청남도 논산시 성동면 성동로240번길 30,36.1994621,127.0334661,1,11,1,12,1,16,1,14,1,18,1,11,0,0,6,82,13.7,7,11.7
660,S150006153,성동초등학교,경상북도 상주시 성동새싹길 14,36.414182,128.170112,1,11,1,12,1,16,1,14,1,18,1,11,0,0,6,82,13.7,7,11.7
661,S010002196,성동초등학교,서울특별시 광진구 자양로4길 63,37.53328065,127.0892809,1,8,1,13,1,7,1,3,1,8,1,6,1,4,7,49,7,8,6.1
4135,S150003620,장기초등학교,경상북도 포항시 남구 장기면 장기로 336,35.89700951,129.4943248,6,157,5,140,6,147,7,175,7,193,8,194,1,9,40,1015,25.4,49,20.7
4138,S150003620,장기초등학교,경상북도 포항시 남구 장기면 장기로 336,35.89700951,129.4943248,1,6,1,8,1,14,1,9,1,11,1,6,0,0,6,54,9,7,7.7
664,S120000473,성동초등학교,충청남도 논산시 성동면 성동로240번길 30,36.1994621,127.0334661,1,8,1,13,1,7,1,3,1,8,1,6,1,4,7,49,7,8,6.1
665,S150006153,성동초등학교,경상북도 상주시 성동새싹길 14,36.414182,128.170112,1,8,1,13,1,7,1,3,1,8,1,6,1,4,7,49,7,8,6.1
666,S010002196,성동초등학교,서울특별시 광진구 자양로4길 63,37.53328065,127.0892809,2,31,2,43,2,47,3,59,3,56,3,69,1,4,16,309,19.3,20,15.5
11827,S150003536,장기중학교,경상북도 포항시 남구 장기면 읍내길 53,35.8922353,129.492817,1,18,1,11,1,22,,,,,,,1,4,4,55,13.8,9,6.1
11830,S150003536,장기중학교,경상북도 포항시 남구 장기면 읍내길 53,35.8922353,129.492817,12,406,11,383,10,351,,,,,,,1,5,34,1145,33.7,59,19.4
669,S120000473,성동초등학교,충청남도 논산시 성동면 성동로240번길 30,36.1994621,127.0334661,2,31,2,43,2,47,3,59,3,56,3,69,1,4,16,309,19.3,20,15.5
670,S150006153,성동초등학교,경상북도 상주시 성동새싹길 14,36.414182,128.170112,2,31,2,43,2,47,3,59,3,56,3,69,1,4,16,309,19.3,20,15.5
671,S010002197,세종초등학교,서울특별시 광진구 군자로 114,37.5530324,127.0729061,2,58,2,62,2,61,2,62,2,61,2,60,0,0,12,364,30.3,12,30.3
672,S090005186,세종초등학교,경기도 여주시 세종로 204-19,37.2798957,127.6338455,2,58,2,62,2,61,2,62,2,61,2,60,0,0,12,364,30.3,12,30.3
673,S010002197,세종초등학교,서울특별시 광진구 군자로 114,37.5530324,127.0729061,5,134,5,134,5,138,5,130,7,171,5,133,1,5,33,845,25.6,42,20.1
674,S090005186,세종초등학교,경기도 여주시 세종로 204-19,37.2798957,127.6338455,5,134,5,134,5,138,5,130,7,171,5,133,1,5,33,845,25.6,42,20.1
675,S010002198,한양초등학교,서울특별시 성동구 살곶이길 208,37.55761986,127.050264,4,115,4,113,4,113,4,112,4,112,4,101,0,0,24,666,27.8,24,27.8
676,S010002289,광운초등학교,서울특별시 성북구 한천로 693,37.61905819,127.0550899,3,84,4,112,4,112,4,112,3,90,3,88,0,0,21,598,28.5,21,28.5
677,S010002290,대광초등학교,서울특별시 성북구 안암로 5,37.57915122,127.0234479,3,84,3,85,3,86,3,84,3,69,3,75,0,0,18,483,26.8,22,22
678,S090003419,대광초등학교,경기도 연천군 신서면 연신로 1127-1,38.18301875,127.1053533,3,84,3,85,3,86,3,84,3,69,3,75,0,0,18,483,26.8,22,22
679,S010002290,대광초등학교,서울특별시 성북구 안암로 5,37.57915122,127.0234479,1,7,1,6,1,9,1,7,1,5,1,7,1,4,7,45,6.4,8,5.6
680,S090003419,대광초등학교,경기도 연천군 신서면 연신로 1127-1,38.18301875,127.1053533,1,7,1,6,1,9,1,7,1,5,1,7,1,4,7,45,6.4,8,5.6
681,S010002291,매원초등학교,서울특별시 성북구 북악산로 870,37.598015,127.019023,3,86,3,86,3,84,3,84,3,81,3,75,0,0,18,496,27.6,36,13.8
682,S090002457,매원초등학교,경기도 수원시 영통구 광교호수공원로 100,37.274477,127.064178,3,86,3,86,3,84,3,84,3,81,3,75,0,0,18,496,27.6,36,13.8
683,S150003456,매원초등학교,경상북도 칠곡군 왜관읍 매원1길 5-32,35.992183,128.429885,3,86,3,86,3,84,3,84,3,81,3,75,0,0,18,496,27.6,36,13.8
684,S010002291,매원초등학교,서울특별시 성북구 북악산로 870,37.598015,127.019023,10,257,8,222,8,213,10,277,8,213,8,209,2,14,54,1405,26,64,22
685,S090002457,매원초등학교,경기도 수원시 영통구 광교호수공원로 100,37.274477,127.064178,10,257,8,222,8,213,10,277,8,213,8,209,2,14,54,1405,26,64,22
686,S150003456,매원초등학교,경상북도 칠곡군 왜관읍 매원1길 5-32,35.992183,128.429885,10,257,8,222,8,213,10,277,8,213,8,209,2,14,54,1405,26,64,22
687,S010002291,매원초등학교,서울특별시 성북구 북악산로 870,37.598015,127.019023,1,18,1,14,1,20,1,8,1,10,1,4,0,0,6,74,12.3,7,10.6
688,S090002457,매원초등학교,경기도 수원시 영통구 광교호수공원로 100,37.274477,127.064178,1,18,1,14,1,20,1,8,1,10,1,4,0,0,6,74,12.3,7,10.6
689,S150003456,매원초등학교,경상북도 칠곡군 왜관읍 매원1길 5-32,35.992183,128.429885,1,18,1,14,1,20,1,8,1,10,1,4,0,0,6,74,12.3,7,10.6
690,S010002292,서울개운초등학교,서울특별시 성북구 정릉로48길 52,37.601824,127.027576,5,116,5,90,6,111,6,119,6,135,6,132,1,2,35,705,20.1,44,16
691,S010002293,서울길음초등학교,서울특별시 성북구 길음로 142,37.61363151,127.0166585,6,124,7,155,8,191,8,186,10,245,10,244,1,3,50,1148,23,59,19.5
692,S010002294,서울돈암초등학교,서울특별시 성북구 동소문로13길 38,37.593319,127.013137,6,115,6,114,6,130,7,139,7,146,8,186,2,8,42,838,20,56,15
693,S010002295,서울동신초등학교,서울특별시 성북구 보문사길 50,37.58328607,127.0170593,4,77,3,61,3,59,3,70,4,76,3,66,2,7,22,416,18.9,26,16
694,S010002296,서울미아초등학교,서울특별시 성북구 삼양로 77,37.363457,127.012316,8,209,7,191,8,209,8,202,8,202,8,204,2,9,49,1226,25,59,20.8
695,S010002297,서울미양초등학교,서울특별시 강북구 솔샘로 195,37.6212214,127.0137039,3,67,4,74,4,64,5,91,4,87,4,75,2,7,26,465,17.9,30,15.5
696,S010002298,서울번동초등학교,서울특별시 강북구 오현로 204,37.62902557,127.0400394,4,82,4,73,5,93,5,95,5,106,6,121,2,8,31,578,18.6,40,14.5
697,S010002299,서울삼각산초등학교,서울특별시 강북구 삼양로19길 141,37.616162,127.014471,7,146,7,178,7,170,9,216,7,179,8,201,0,0,45,1090,24.2,55,19.8
698,S010002300,서울삼선초등학교,서울특별시 성북구 보문로29길 106,37.58714288,127.0126717,4,82,4,90,5,95,5,105,6,125,5,117,2,4,31,618,19.9,37,16.7
699,S010002301,서울삼양초등학교,서울특별시 강북구 삼양로49길 17,37.62329377,127.0161486,4,80,4,68,4,71,4,74,4,85,4,72,2,5,26,455,17.5,31,14.7
700,S010002302,서울석관초등학교,서울특별시 성북구 돌곶이로22길 21,37.61102341,127.0583548,5,104,5,109,4,85,5,115,4,96,5,95,2,11,30,615,20.5,35,17.6
701,S010002303,서울성북초등학교,서울특별시 성북구 성북로 102-10,37.593839,126.998319,2,30,2,37,2,30,3,47,2,40,2,37,2,8,15,229,15.3,20,11.5
702,S010002304,서울송중초등학교,서울특별시 강북구 오현로 9,37.61700179,127.0314655,5,90,6,120,6,124,5,118,6,123,6,128,2,9,36,712,19.8,46,15.5
703,S010002305,서울송천초등학교,서울특별시 강북구 삼양로20길 29,37.615716,127.023401,3,62,4,79,4,96,4,93,4,88,4,83,1,4,24,505,21,29,17.4
704,S010002306,서울수송초등학교,서울특별시 강북구 한천로124길 14,37.63732397,127.0332052,4,96,4,77,5,108,5,111,6,121,6,122,2,4,32,639,20,42,15.2
705,S010002307,서울수유초등학교,서울특별시 강북구 삼양로74길 39,37.630802,127.020369,5,113,5,92,5,103,5,113,5,114,6,123,2,10,33,668,20.2,41,16.3
706,S010002308,서울숭곡초등학교,서울특별시 성북구 종암로40길 30,37.60843122,127.0328164,6,138,4,100,4,101,4,109,4,83,3,79,2,11,27,621,23,32,19.4
707,S010002309,서울숭덕초등학교,서울특별시 성북구 정릉로 279,37.60381836,127.0132906,9,194,8,190,7,166,9,214,8,191,9,201,2,10,52,1166,22.4,61,19.1
708,S010002310,서울숭례초등학교,서울특별시 성북구 종암로5길 14,37.6,127,5,104,5,122,5,96,7,152,5,105,5,116,2,10,34,705,20.7,42,16.8
709,S010002311,서울숭인초등학교,서울특별시 성북구 오패산로16길 37,37.60916119,127.0382348,8,174,8,170,7,169,9,197,10,225,8,195,2,15,52,1145,22,64,17.9
710,S010002312,서울안암초등학교,서울특별시 성북구 고려대로7가길 39,37.5871997,127.0226313,3,41,3,40,2,34,2,29,3,42,2,34,2,8,17,228,13.4,21,10.9
711,S010002313,서울오현초등학교,서울특별시 강북구 월계로 221,37.623597,127.046649,2,44,3,47,3,53,3,54,3,55,3,67,1,4,18,324,18,21,15.4
712,S010002314,서울우이초등학교,서울특별시 강북구 삼양로99길 36,37.6387116,127.0150054,8,179,7,162,8,175,8,188,8,174,8,196,2,12,49,1086,22.2,59,18.4
713,S010002315,서울월곡초등학교,서울특별시 성북구 장월로3길 42,37.61002333,127.0460816,3,54,3,61,3,49,3,66,3,67,4,84,2,6,21,387,18.4,25,15.5
714,S010002316,서울유현초등학교,서울특별시 강북구 인수봉로37길 24,37.63234744,127.0114196,2,40,3,46,3,54,3,55,3,66,3,61,2,9,19,331,17.4,23,14.4
715,S010002317,서울인수초등학교,서울특별시 강북구 인수봉로 269,37.64305134,127.009137,5,96,4,92,5,95,7,144,6,136,5,107,2,11,34,681,20,39,17.5
716,S010002318,서울일신초등학교,서울특별시 성북구 월곡로 74,37.59881357,127.0401772,6,123,5,124,5,124,6,128,6,137,6,150,1,2,35,788,22.5,43,18.3
717,S010002319,서울장곡초등학교,서울특별시 성북구 장월로23길 16,37.61683038,127.0481563,9,194,5,125,5,114,6,135,5,130,5,106,2,11,37,815,22,45,18.1
718,S010002320,서울장위초등학교,서울특별시 성북구 장월로8가길 41,37.6114417,127.0500057,3,56,3,63,4,75,4,85,4,97,5,90,2,7,25,473,18.9,31,15.3
719,S010002321,서울정덕초등학교,서울특별시 성북구 아리랑로 63,37.597773,127.013625,7,160,7,168,7,151,8,197,7,146,8,180,2,7,46,1009,21.9,54,18.7
720,S010002322,서울정릉초등학교,서울특별시 성북구 솔샘로25가길 8,37.61979533,127.0052558,5,101,5,109,5,110,5,100,6,132,6,133,1,3,33,688,20.8,42,16.4
721,S010002323,서울정수초등학교,서울특별시 성북구 정릉로24길 58,37.60377561,127.0077189,2,48,3,48,1,17,2,32,3,43,3,51,1,3,15,242,16.1,19,12.7
722,S010002324,서울청덕초등학교,서울특별시 성북구 정릉로9라길 11,37.61203253,127.0003352,3,51,2,44,3,48,3,72,3,64,3,71,2,8,19,358,18.8,21,17
723,S010002325,서울화계초등학교,서울특별시 강북구 솔매로50가길 25,37.62388579,127.0297148,4,91,5,96,5,107,6,115,6,129,6,130,2,11,34,679,20,44,15.4
724,S010002326,성신초등학교,서울특별시 성북구 북악산로 918,37.593866,127.0233,3,84,3,84,3,87,3,83,3,74,3,60,0,0,18,472,26.2,18,26.2
725,S090001006,성신초등학교,경기도 고양시 덕양구 성신로 104,37.6267944,126.8399342,3,84,3,84,3,87,3,83,3,74,3,60,0,0,18,472,26.2,18,26.2
726,S120000773,성신초등학교,충청남도 천안시 서북구 성환읍 성환12길 7,36.9191,127.128946,3,84,3,84,3,87,3,83,3,74,3,60,0,0,18,472,26.2,18,26.2
727,S010002326,성신초등학교,서울특별시 성북구 북악산로 918,37.593866,127.0233,4,86,3,75,3,78,5,120,4,95,5,112,2,9,26,575,22.1,33,17.4
728,S090001006,성신초등학교,경기도 고양시 덕양구 성신로 104,37.6267944,126.8399342,4,86,3,75,3,78,5,120,4,95,5,112,2,9,26,575,22.1,33,17.4
729,S120000773,성신초등학교,충청남도 천안시 서북구 성환읍 성환12길 7,36.9191,127.128946,4,86,3,75,3,78,5,120,4,95,5,112,2,9,26,575,22.1,33,17.4
730,S010002326,성신초등학교,서울특별시 성북구 북악산로 918,37.593866,127.0233,1,17,1,19,2,29,2,25,2,28,2,36,2,7,12,161,13.4,15,10.7
731,S090001006,성신초등학교,경기도 고양시 덕양구 성신로 104,37.6267944,126.8399342,1,17,1,19,2,29,2,25,2,28,2,36,2,7,12,161,13.4,15,10.7
732,S120000773,성신초등학교,충청남도 천안시 서북구 성환읍 성환12길 7,36.9191,127.128946,1,17,1,19,2,29,2,25,2,28,2,36,2,7,12,161,13.4,15,10.7
733,S010002327,영훈초등학교,서울특별시 강북구 도봉로13가길 19,37.613195,127.027881,4,114,4,115,4,113,4,115,4,112,4,113,0,0,24,682,28.4,35,19.5
734,S010002328,우촌초등학교,서울특별시 성북구 성북로4길 52-1,37.59552,127.0114,4,114,4,112,4,107,4,95,2,50,3,66,0,0,21,544,25.9,19,28.6
735,S010002365,계성초등학교,서울특별시 서초구 신반포로19길 23,37.50491473,126.9968242,4,115,4,115,4,116,4,120,4,119,4,120,0,0,24,705,29.4,36,19.6
736,S030000658,계성초등학교,대구광역시 중구 달성로 15,35.86607562,128.5815807,4,115,4,115,4,116,4,120,4,119,4,120,0,0,24,705,29.4,36,19.6
737,S090004011,계성초등학교,경기도 평택시 팽성읍 계성새싹길 85,36.9424972,127.0071955,4,115,4,115,4,116,4,120,4,119,4,120,0,0,24,705,29.4,36,19.6
738,S120000884,계성초등학교,충청남도 당진시 당진중앙1로 290,36.89884,126.639287,4,115,4,115,4,116,4,120,4,119,4,120,0,0,24,705,29.4,36,19.6
739,S010002365,계성초등학교,서울특별시 서초구 신반포로19길 23,37.50491473,126.9968242,4,121,4,128,4,128,4,128,4,104,4,129,0,0,24,738,30.8,24,30.8
740,S030000658,계성초등학교,대구광역시 중구 달성로 15,35.86607562,128.5815807,4,121,4,128,4,128,4,128,4,104,4,129,0,0,24,738,30.8,24,30.8
741,S090004011,계성초등학교,경기도 평택시 팽성읍 계성새싹길 85,36.9424972,127.0071955,4,121,4,128,4,128,4,128,4,104,4,129,0,0,24,738,30.8,24,30.8
742,S120000884,계성초등학교,충청남도 당진시 당진중앙1로 290,36.89884,126.639287,4,121,4,128,4,128,4,128,4,104,4,129,0,0,24,738,30.8,24,30.8
743,S010002365,계성초등학교,서울특별시 서초구 신반포로19길 23,37.50491473,126.9968242,1,11,1,9,1,13,1,17,1,9,1,4,1,2,7,65,9.3,9,7.2
744,S030000658,계성초등학교,대구광역시 중구 달성로 15,35.86607562,128.5815807,1,11,1,9,1,13,1,17,1,9,1,4,1,2,7,65,9.3,9,7.2
745,S090004011,계성초등학교,경기도 평택시 팽성읍 계성새싹길 85,36.9424972,127.0071955,1,11,1,9,1,13,1,17,1,9,1,4,1,2,7,65,9.3,9,7.2
746,S120000884,계성초등학교,충청남도 당진시 당진중앙1로 290,36.89884,126.639287,1,11,1,9,1,13,1,17,1,9,1,4,1,2,7,65,9.3,9,7.2
747,S010002365,계성초등학교,서울특별시 서초구 신반포로19길 23,37.50491473,126.9968242,5,112,4,110,5,127,5,136,5,136,7,186,1,8,32,815,25.5,39,20.9
748,S030000658,계성초등학교,대구광역시 중구 달성로 15,35.86607562,128.5815807,5,112,4,110,5,127,5,136,5,136,7,186,1,8,32,815,25.5,39,20.9
749,S090004011,계성초등학교,경기도 평택시 팽성읍 계성새싹길 85,36.9424972,127.0071955,5,112,4,110,5,127,5,136,5,136,7,186,1,8,32,815,25.5,39,20.9
750,S120000884,계성초등학교,충청남도 당진시 당진중앙1로 290,36.89884,126.639287,5,112,4,110,5,127,5,136,5,136,7,186,1,8,32,815,25.5,39,20.9
751,S010002366,동산초등학교,서울특별시 중구 매봉18길 109,37.5562058,127.0167272,3,90,3,90,3,96,3,94,3,95,3,95,0,0,18,560,31.1,18,31.1
752,S090005313,동산초등학교,경기도 부천시 오정로251번길 50,37.531371,126.784929,3,90,3,90,3,96,3,94,3,95,3,95,0,0,18,560,31.1,18,31.1
753,S130001014,동산초등학교,전라북도 순창군 복흥면 동산길 17,35.455811,126.9206083,3,90,3,90,3,96,3,94,3,95,3,95,0,0,18,560,31.1,18,31.1
754,S140001111,동산초등학교,전라남도 순천시 서면 순천로 16,34.9941385,127.4932288,3,90,3,90,3,96,3,94,3,95,3,95,0,0,18,560,31.1,18,31.1
755,S150003314,동산초등학교,경상북도 청도군 매전면 동산길 43,35.6675548,128.8546319,3,90,3,90,3,96,3,94,3,95,3,95,0,0,18,560,31.1,18,31.1
756,S160001797,동산초등학교,경상남도 양산시 동면 양산대로 346,35.3,129,3,90,3,90,3,96,3,94,3,95,3,95,0,0,18,560,31.1,18,31.1
757,S160002389,동산초등학교,경상남도 창원시 성산구 단정로 126,35.2,128.6,3,90,3,90,3,96,3,94,3,95,3,95,0,0,18,560,31.1,18,31.1
758,S010002366,동산초등학교,서울특별시 중구 매봉18길 109,37.5562058,127.0167272,3,69,3,59,2,51,3,74,3,61,2,47,0,0,16,361,22.6,18,20.1
759,S090005313,동산초등학교,경기도 부천시 오정로251번길 50,37.531371,126.784929,3,69,3,59,2,51,3,74,3,61,2,47,0,0,16,361,22.6,18,20.1
760,S130001014,동산초등학교,전라북도 순창군 복흥면 동산길 17,35.455811,126.9206083,3,69,3,59,2,51,3,74,3,61,2,47,0,0,16,361,22.6,18,20.1
761,S140001111,동산초등학교,전라남도 순천시 서면 순천로 16,34.9941385,127.4932288,3,69,3,59,2,51,3,74,3,61,2,47,0,0,16,361,22.6,18,20.1
762,S150003314,동산초등학교,경상북도 청도군 매전면 동산길 43,35.6675548,128.8546319,3,69,3,59,2,51,3,74,3,61,2,47,0,0,16,361,22.6,18,20.1
763,S160001797,동산초등학교,경상남도 양산시 동면 양산대로 346,35.3,129,3,69,3,59,2,51,3,74,3,61,2,47,0,0,16,361,22.6,18,20.1
764,S160002389,동산초등학교,경상남도 창원시 성산구 단정로 126,35.2,128.6,3,69,3,59,2,51,3,74,3,61,2,47,0,0,16,361,22.6,18,20.1
765,S010002366,동산초등학교,서울특별시 중구 매봉18길 109,37.5562058,127.0167272,1,6,1,6,1,5,1,6,1,5,1,7,0,0,6,35,5.8,7,5
766,S090005313,동산초등학교,경기도 부천시 오정로251번길 50,37.531371,126.784929,1,6,1,6,1,5,1,6,1,5,1,7,0,0,6,35,5.8,7,5
767,S130001014,동산초등학교,전라북도 순창군 복흥면 동산길 17,35.455811,126.9206083,1,6,1,6,1,5,1,6,1,5,1,7,0,0,6,35,5.8,7,5
768,S140001111,동산초등학교,전라남도 순천시 서면 순천로 16,34.9941385,127.4932288,1,6,1,6,1,5,1,6,1,5,1,7,0,0,6,35,5.8,7,5
769,S150003314,동산초등학교,경상북도 청도군 매전면 동산길 43,35.6675548,128.8546319,1,6,1,6,1,5,1,6,1,5,1,7,0,0,6,35,5.8,7,5
770,S160001797,동산초등학교,경상남도 양산시 동면 양산대로 346,35.3,129,1,6,1,6,1,5,1,6,1,5,1,7,0,0,6,35,5.8,7,5
771,S160002389,동산초등학교,경상남도 창원시 성산구 단정로 126,35.2,128.6,1,6,1,6,1,5,1,6,1,5,1,7,0,0,6,35,5.8,7,5
772,S010002366,동산초등학교,서울특별시 중구 매봉18길 109,37.5562058,127.0167272,4,82,5,90,6,104,4,94,5,109,4,93,3,14,31,586,18.9,35,16.7
773,S090005313,동산초등학교,경기도 부천시 오정로251번길 50,37.531371,126.784929,4,82,5,90,6,104,4,94,5,109,4,93,3,14,31,586,18.9,35,16.7
774,S130001014,동산초등학교,전라북도 순창군 복흥면 동산길 17,35.455811,126.9206083,4,82,5,90,6,104,4,94,5,109,4,93,3,14,31,586,18.9,35,16.7
775,S140001111,동산초등학교,전라남도 순천시 서면 순천로 16,34.9941385,127.4932288,4,82,5,90,6,104,4,94,5,109,4,93,3,14,31,586,18.9,35,16.7
776,S150003314,동산초등학교,경상북도 청도군 매전면 동산길 43,35.6675548,128.8546319,4,82,5,90,6,104,4,94,5,109,4,93,3,14,31,586,18.9,35,16.7
777,S160001797,동산초등학교,경상남도 양산시 동면 양산대로 346,35.3,129,4,82,5,90,6,104,4,94,5,109,4,93,3,14,31,586,18.9,35,16.7
778,S160002389,동산초등학교,경상남도 창원시 성산구 단정로 126,35.2,128.6,4,82,5,90,6,104,4,94,5,109,4,93,3,14,31,586,18.9,35,16.7
779,S010002366,동산초등학교,서울특별시 중구 매봉18길 109,37.5562058,127.0167272,1,6,1,5,1,4,1,9,1,5,1,7,0,0,6,36,6,7,5.1
780,S090005313,동산초등학교,경기도 부천시 오정로251번길 50,37.531371,126.784929,1,6,1,5,1,4,1,9,1,5,1,7,0,0,6,36,6,7,5.1
781,S130001014,동산초등학교,전라북도 순창군 복흥면 동산길 17,35.455811,126.9206083,1,6,1,5,1,4,1,9,1,5,1,7,0,0,6,36,6,7,5.1
782,S140001111,동산초등학교,전라남도 순천시 서면 순천로 16,34.9941385,127.4932288,1,6,1,5,1,4,1,9,1,5,1,7,0,0,6,36,6,7,5.1
783,S150003314,동산초등학교,경상북도 청도군 매전면 동산길 43,35.6675548,128.8546319,1,6,1,5,1,4,1,9,1,5,1,7,0,0,6,36,6,7,5.1
784,S160001797,동산초등학교,경상남도 양산시 동면 양산대로 346,35.3,129,1,6,1,5,1,4,1,9,1,5,1,7,0,0,6,36,6,7,5.1
785,S160002389,동산초등학교,경상남도 창원시 성산구 단정로 126,35.2,128.6,1,6,1,5,1,4,1,9,1,5,1,7,0,0,6,36,6,7,5.1
786,S010002366,동산초등학교,서울특별시 중구 매봉18길 109,37.5562058,127.0167272,3,62,3,64,2,49,3,65,2,55,4,85,1,3,18,383,21.3,21,18.2
787,S090005313,동산초등학교,경기도 부천시 오정로251번길 50,37.531371,126.784929,3,62,3,64,2,49,3,65,2,55,4,85,1,3,18,383,21.3,21,18.2
788,S130001014,동산초등학교,전라북도 순창군 복흥면 동산길 17,35.455811,126.9206083,3,62,3,64,2,49,3,65,2,55,4,85,1,3,18,383,21.3,21,18.2
789,S140001111,동산초등학교,전라남도 순천시 서면 순천로 16,34.9941385,127.4932288,3,62,3,64,2,49,3,65,2,55,4,85,1,3,18,383,21.3,21,18.2
790,S150003314,동산초등학교,경상북도 청도군 매전면 동산길 43,35.6675548,128.8546319,3,62,3,64,2,49,3,65,2,55,4,85,1,3,18,383,21.3,21,18.2
791,S160001797,동산초등학교,경상남도 양산시 동면 양산대로 346,35.3,129,3,62,3,64,2,49,3,65,2,55,4,85,1,3,18,383,21.3,21,18.2
792,S160002389,동산초등학교,경상남도 창원시 성산구 단정로 126,35.2,128.6,3,62,3,64,2,49,3,65,2,55,4,85,1,3,18,383,21.3,21,18.2
793,S010002366,동산초등학교,서울특별시 중구 매봉18길 109,37.5562058,127.0167272,3,53,2,47,2,49,3,60,3,63,3,67,0,0,16,339,21.2,19,17.8
794,S090005313,동산초등학교,경기도 부천시 오정로251번길 50,37.531371,126.784929,3,53,2,47,2,49,3,60,3,63,3,67,0,0,16,339,21.2,19,17.8
795,S130001014,동산초등학교,전라북도 순창군 복흥면 동산길 17,35.455811,126.9206083,3,53,2,47,2,49,3,60,3,63,3,67,0,0,16,339,21.2,19,17.8
796,S140001111,동산초등학교,전라남도 순천시 서면 순천로 16,34.9941385,127.4932288,3,53,2,47,2,49,3,60,3,63,3,67,0,0,16,339,21.2,19,17.8
797,S150003314,동산초등학교,경상북도 청도군 매전면 동산길 43,35.6675548,128.8546319,3,53,2,47,2,49,3,60,3,63,3,67,0,0,16,339,21.2,19,17.8
798,S160001797,동산초등학교,경상남도 양산시 동면 양산대로 346,35.3,129,3,53,2,47,2,49,3,60,3,63,3,67,0,0,16,339,21.2,19,17.8
799,S160002389,동산초등학교,경상남도 창원시 성산구 단정로 126,35.2,128.6,3,53,2,47,2,49,3,60,3,63,3,67,0,0,16,339,21.2,19,17.8
800,S010002367,리라초등학교,서울특별시 중구 소파로2길 7,37.5576514,126.9881018,3,87,3,84,3,84,3,84,3,81,3,60,0,0,18,480,26.7,18,26.7
801,S010002368,상명대학교사범대학부속초등학교,서울특별시 종로구 홍지문2길 1,37.60044146,126.9567146,2,61,2,62,2,61,2,55,2,48,2,45,0,0,12,332,27.7,16,20.8
802,S010002369,서울광희초등학교,서울특별시 중구 다산로 269,37.56729901,127.0156883,3,55,2,38,3,39,3,43,3,41,3,52,0,0,17,268,15.8,20,13.4
803,S010002370,서울교동초등학교,서울특별시 종로구 삼일대로 446,37.574871,126.988115,2,36,2,29,1,18,2,34,2,27,2,32,1,2,12,178,14.8,14,12.7
804,S010002371,서울금양초등학교,서울특별시 용산구 효창원로 137,37.5409415,126.9618318,6,120,6,113,6,116,6,106,5,100,6,122,1,7,36,684,19,44,15.5
805,S010002372,서울남산초등학교,서울특별시 중구 퇴계로22길 17,37.559945,126.986644,2,38,2,45,2,33,2,40,2,29,2,26,2,7,14,218,15.6,17,12.8
806,S010002373,서울남정초등학교,서울특별시 용산구 원효로64길 17-10,37.5360588,126.9649883,3,46,3,57,2,37,3,52,3,61,4,54,1,4,19,311,16.4,22,14.1
807,S010002375,서울덕수초등학교,서울특별시 중구 덕수궁길 140,37.56908852,126.9746581,4,94,4,73,4,91,4,73,3,58,3,65,1,3,23,457,19.9,28,16.3
808,S010002376,서울독립문초등학교,서울특별시 종로구 통일로12길 23,37.57421652,126.9599719,5,88,4,68,4,73,4,74,4,83,4,76,1,6,26,468,18,32,14.6
809,S010002377,서울매동초등학교,서울특별시 종로구 사직로9길 19,37.577355,126.96689,2,27,2,26,2,24,2,42,2,29,3,44,1,2,14,194,13.9,20,9.7
810,S010002378,서울명신초등학교,서울특별시 종로구 낙산길 250,37.58145198,127.0146226,3,40,3,58,3,54,4,68,2,31,2,50,2,6,19,307,16.2,21,14.6
811,S010002379,서울보광초등학교,서울특별시 용산구 우사단로 20,37.53253948,126.9963931,4,44,3,39,3,38,3,44,3,45,3,35,2,5,21,250,11.9,26,9.6
812,S010002380,서울봉래초등학교,서울특별시 중구 손기정로 73,37.5564109,126.9652508,4,79,3,51,4,70,4,81,3,59,3,63,2,12,23,415,18,27,15.4
813,S010002381,서울삼광초등학교,서울특별시 용산구 두텁바위로1나길 19,37.547386,126.976804,4,71,3,67,4,72,3,70,4,69,3,67,1,6,22,422,19.2,26,16.2
814,S010002382,서울서빙고초등학교,서울특별시 용산구 서빙고로51길 14,37.52142,126.99166,3,48,3,55,3,59,3,72,3,83,4,90,2,12,21,419,20,24,17.5
815,S010002383,서울세검정초등학교,서울특별시 종로구 세검정로9길 1,37.60347028,126.9609709,6,136,6,146,5,121,7,160,5,121,8,177,1,5,38,866,22.8,46,18.8
816,S010002384,서울숭신초등학교,서울특별시 성동구 마장로 161,37.5679207,127.0277146,7,158,7,170,6,151,6,142,5,120,5,119,2,8,38,868,22.8,45,19.3
817,S010002385,서울신용산초등학교,서울특별시 용산구 이촌로 255,37.52062932,126.9753668,10,255,10,252,9,225,11,266,10,245,10,232,2,8,62,1483,23.9,76,19.5
818,S010002386,서울용산초등학교,서울 용산구 한강대로57길 33,37.53561416,126.9725514,4,86,4,75,2,44,3,60,2,50,2,45,1,2,18,362,20.1,21,17.2
819,S010002387,서울용암초등학교,서울특별시 용산구 녹사평대로60길 39,37.5448696,126.9891625,2,15,2,16,1,14,1,17,2,27,3,33,1,1,12,123,10.3,17,7.2
820,S010002388,서울원효초등학교,서울특별시 용산구 효창원로13길 38,37.53616243,126.9515471,5,86,4,76,5,88,4,87,5,103,5,95,1,5,29,540,18.6,37,14.6
821,S010002389,서울이태원초등학교,서울특별시 용산구 녹사평대로40길 19,37.5360669,126.987859,3,44,2,32,2,36,3,40,3,39,3,51,1,6,17,248,14.6,20,12.4
822,S010002390,서울장충초등학교,서울특별시 중구 청구로17길 40,37.55997257,127.0117028,3,60,3,48,3,45,4,71,4,66,3,59,2,4,22,353,16,26,13.6
823,S010002391,서울재동초등학교,서울특별시 종로구 북촌로4길 7,37.58002838,126.9851785,3,56,2,25,2,32,2,30,2,48,2,39,0,0,13,230,17.7,16,14.4
824,S010002392,서울창신초등학교,서울특별시 종로구 지봉로 73,37.57621184,127.0142955,4,61,3,50,4,50,4,67,4,80,5,82,1,8,25,398,15.9,30,13.3
825,S010002393,서울청구초등학교,서울특별시 중구 다산로 170,37.558493,127.013917,4,81,5,86,5,90,6,107,5,98,5,100,2,8,32,570,17.8,41,13.9
826,S010002394,서울청운초등학교,서울특별시 종로구 자하문로 105,37.6,127,4,71,4,74,4,70,4,86,4,81,4,87,2,6,26,475,18.3,31,15.3
827,S010002395,서울청파초등학교,서울특별시 용산구 효창원로 228,37.547495,126.96417,3,57,3,67,3,61,4,70,3,53,3,56,2,6,21,370,17.6,24,15.4
828,S010002396,서울충무초등학교,서울 중구 퇴계로50길 13,37.56194813,127.001236,2,30,2,25,2,27,2,39,2,32,3,54,1,1,14,208,14.9,17,12.2
829,S010002397,서울한강초등학교,서울특별시 용산구 한강대로14길 9,37.52522545,126.9650978,2,35,3,45,2,34,2,28,3,41,2,37,2,6,16,226,14.1,20,11.3
830,S010002398,서울한남초등학교,서울특별시 용산구 한남대로 112,37.5392032,127.0055986,4,68,2,49,2,36,3,43,3,49,2,46,1,4,17,295,17.4,23,12.8
