,Unnamed: 0,정보공시 학교코드,학교명,학교도로명 주소,위도,경도,1학년 학급수,1학년 학생수,2학년 학급수,2학년 학생수,3학년 학급수,3학년 학생수,4학년 학급수,4학년 학생수,5학년 학급수,5학년 학생수,6학년 학급수,6학년 학생수,특수학급 학급수,특수학급 학생수,학급수(계),학생수(계),학급당 학생수(계),교사수,수업교원 1인당 학생수
0,14965,S040000457,북포초등학교,인천광역시 옹진군 백령면 가을길 117,37.95862243,124.6616318,2,27,1,22,1,19,2.0,28.0,1.0,15.0,1.0,18.0,1,2,9,131,14.6,11,11.9
1,14931,S040000212,백령고등학교,인천광역시 옹진군 백령면 백령로 708,37.963777,124.67605800000001,2,20,2,23,2,22,,,,,,,0,0,6,65,10.8,16,4.1
2,14920,S040000422,백령중학교,인천광역시 옹진군 백령면 백령로 708,37.963756,124.67606299999998,2,24,2,22,2,35,,,,,,,1,4,7,85,12.1,15,5.7
3,13613,S040000200,대청고등학교,인천광역시 옹진군 대청면 대청로244번길 116-45,37.83258492,124.6939789,1,3,1,2,1,4,,,,,,,1,1,4,10,2.5,11,0.9
4,11326,S040000417,대청중학교,인천광역시 옹진군 대청면 대청로244번길 116-45,37.832085,124.6968135,11,354,10,334,11,376,,,,,,,0,0,32,1064,33.3,58,18.3
5,11861,S040000417,대청중학교,인천광역시 옹진군 대청면 대청로244번길 116-45,37.832085,124.6968135,6,149,7,152,8,201,,,,,,,1,7,22,509,23.1,37,13.8
6,13500,S040000417,대청중학교,인천광역시 옹진군 대청면 대청로244번길 116-45,37.832085,124.6968135,1,5,1,7,1,4,,,,,,,0,0,3,16,5.3,6,2.7
7,13503,S040000417,대청중학교,인천광역시 옹진군 대청면 대청로244번길 116-45,37.832085,124.6968135,10,295,12,345,12,363,,,,,,,1,3,35,1006,28.7,60,16.8
8,9795,S040000448,대청초등학교,인천광역시 옹진군 대청면 대청로244번길 110,37.832601399999994,124.6968449,4,69,4,71,4,86,4.0,90.0,5.0,93.0,5.0,107.0,1,7,27,523,19.4,34,15.4
9,9799,S040000448,대청초등학교,인천광역시 옹진군 대청면 대청로244번길 110,37.832601399999994,124.6968449,0,0,1,2,1,5,1.0,5.0,1.0,7.0,1.0,6.0,1,1,6,26,4.3,8,3.3
10,9803,S040000448,대청초등학교,인천광역시 옹진군 대청면 대청로244번길 110,37.832601399999994,124.6968449,4,91,4,87,4,106,4.0,107.0,4.0,109.0,4.0,111.0,1,3,25,614,24.6,30,20.5
11,11314,S040000448,대청초등학교,인천광역시 옹진군 대청면 대청로244번길 110,37.832601399999994,124.6968449,7,177,7,170,7,176,7.0,201.0,8.0,201.0,8.0,190.0,2,10,46,1125,24.5,56,20.1
12,9791,S040000455,백령초등학교,인천광역시 옹진군 백령면 백령로316번길 91,37.97583579999999,124.71837479999999,1,15,1,8,1,10,1.0,12.0,1.0,16.0,1.0,8.0,0,0,6,69,11.5,8,8.6
13,8901,S140003934,가거도초등학교신안흑산중학교가거도분교장,전라남도 신안군 흑산면 가거도길 18-31,34.0528771,125.13040919999999,0,0,1,4,1,3,,,,,,,0,0,2,7,3.5,5,1.4
14,8900,S140001241,가거도초등학교,전라남도 신안군 흑산면 가거도길 18-31,34.0528952,125.13041979999998,0,0,1,3,1,2,0.0,0.0,0.0,0.0,1.0,3.0,0,0,3,8,2.7,3,2.7
15,8888,S140003946,흑산초등학교홍도분교장,전라남도 신안군 흑산면 홍도1길 53,34.6854388,125.1924035,0,0,0,0,0,0,0.0,0.0,1.0,1.0,0.0,0.0,1,2,2,3,1.5,2,1.5
16,8887,S140001317,흑산초등학교,전라남도 신안군 흑산면 진마을길 12-13,34.6847013,125.4272875,1,3,1,3,1,5,1.0,7.0,1.0,6.0,1.0,4.0,0,0,6,28,4.7,8,3.5
17,8750,S140001232,신안흑산중학교,전라남도 신안군 흑산면 흑산일주로 124,34.683637,125.43296399999998,1,6,1,4,1,8,,,,,,,0,0,3,18,6.0,9,2.0
18,8734,S140003479,흑산초등학교흑산동분교장,전라남도 신안군 흑산면 김이수길 29-2,34.73153048,125.464771,0,0,0,0,0,0,0.0,0.0,0.0,0.0,1.0,2.0,0,0,1,2,2.0,1,2.0
19,8732,S040000429,연평중학교,인천광역시 옹진군 연평면 연평로 137번길,37.664011,125.70078600000001,1,7,1,3,1,14,,,,,,,0,0,3,24,8.0,6,4.0
20,8733,S040000242,연평고등학교,인천광역시 옹진군 연평면 연평로 137번길,37.664011,125.70078600000001,1,12,1,5,1,6,,,,,,,0,0,3,23,7.7,10,2.3
21,8731,S040000462,연평초등학교,인천광역시 옹진군 연평면 연평로137번길 101,37.664035999999996,125.70078799999999,1,9,1,9,1,6,1.0,4.0,1.0,7.0,1.0,6.0,0,0,6,41,6.8,8,5.1
22,2807,S140003490,조도초등학교거차분교장,전라남도 진도군 조도면 서거차도1길 116,34.2528295,125.91802109999999,1,2,0,0,0,0,0.0,0.0,1.0,2.0,1.0,4.0,0,0,3,8,2.7,3,2.7
23,2806,S140001253,비금초등학교,전라남도 신안군 비금면 유옥우길 21-4,34.76058307,125.92093919999999,1,12,1,8,1,10,1.0,7.0,1.0,12.0,1.0,14.0,1,5,7,68,9.7,8,8.5
24,2805,S140001227,비금중학교,전라남도 신안군 비금면 유옥우길 65,34.760408,125.92460700000001,2,29,2,33,2,36,,,,,,,1,4,7,102,14.6,13,7.8
25,2111,S140000194,도초고등학교,전라남도 신안군 도초면 서남문로 1493,34.704564500000004,125.95104369999999,3,47,3,53,3,65,,,,,,,1,2,10,167,16.7,22,7.6
26,2107,S140001248,도초초등학교,전라남도 신안군 도초면 서남문로 1698,34.690744099999996,125.9635959,1,14,1,9,1,11,1.0,11.0,1.0,14.0,1.0,13.0,1,4,7,76,10.9,9,8.4
27,2103,S140001251,비금동초등학교,전라남도 신안군 비금면 용소길 181-6,34.784805299999995,125.97958229999999,1,3,0,0,1,3,1.0,5.0,1.0,4.0,1.0,2.0,1,3,6,20,3.3,7,2.9
28,2099,S140003951,조도초등학교대마분교장,전라남도 진도군 조도면 대마도길 26,34.271319399999996,125.993873,0,0,0,0,1,2,0.0,0.0,0.0,0.0,1.0,1.0,0,0,2,3,1.5,2,1.5
29,2967,S040000871,인천안산초등학교,인천광역시 계양구 임학서로 15,37.0,126.0,3,49,2,43,2,49,3.0,65.0,3.0,69.0,4.0,84.0,2,5,19,364,19.2,23,15.8
30,5976,S090004312,상신초등학교,경기도 화성시 향남읍 손개길 7,37.0,126.0,4,88,4,87,3,75,3.0,77.0,3.0,72.0,3.0,61.0,2,10,22,470,21.4,26,18.1
31,6546,S090006131,산현초등학교,경기도 시흥시 목감남서로 68,37.0,126.0,8,217,7,190,6,161,6.0,166.0,6.0,151.0,4.0,116.0,1,4,38,1005,26.4,44,22.8
32,6548,S090006131,산현초등학교,경기도 시흥시 목감남서로 68,37.0,126.0,1,9,1,6,1,9,1.0,7.0,1.0,7.0,1.0,8.0,0,0,6,46,7.7,7,6.6
33,6655,S090007226,배곧해솔초등학교,경기도 시흥시 서울대학로 150-17,37.0,126.0,11,292,11,302,10,280,11.0,295.0,10.0,266.0,9.0,245.0,2,8,64,1688,26.4,74,22.8
34,6679,S090007321,창릉초등학교,경기도 고양시 덕양구 덕수천2로 118,37.0,126.0,5,133,5,128,4,98,3.0,80.0,3.0,69.0,3.0,59.0,2,9,25,576,23.0,29,19.9
35,6714,S090007603,원흥초등학교,경기도 고양시 덕양구 원흥1로 26,37.0,126.0,4,94,4,93,2,57,2.0,38.0,2.0,36.0,1.0,27.0,1,5,16,350,21.9,19,18.4
36,11309,S040000420,덕적중학교,인천광역시 옹진군 덕적면 덕적남로 15,37.0,126.0,1,8,1,1,1,2,,,,,,,1,2,4,13,3.3,7,1.9
37,12578,S090006158,산내중학교,경기도 파주시 산내로 15,37.0,126.0,9,315,8,287,12,436,,,,,,,1,6,30,1044,34.8,52,20.1
38,12581,S090006158,산내중학교,경기도 파주시 산내로 15,37.0,126.0,1,17,1,14,1,15,,,,,,,1,2,4,48,12.0,9,5.3
39,12584,S090006158,산내중학교,경기도 파주시 산내로 15,37.0,126.0,1,2,1,2,1,2,,,,,,,0,0,3,6,2.0,7,0.9
40,14924,S040000203,덕적고등학교,인천광역시 옹진군 덕적면 덕적남로 15,37.0,126.0,1,10,1,15,1,16,,,,,,,0,0,3,41,13.7,11,3.7
41,8749,S140001314,하의초등학교,전라남도 신안군 하의면 안곰실길 33,34.600335,126.03588810000001,1,3,1,5,1,8,1.0,4.0,1.0,12.0,1.0,7.0,0,0,6,39,6.5,7,5.6
42,13510,S140001240,하의중학교,전라남도 신안군 하의면 곰실길 11-8,34.6058372,126.03754509999999,1,1,1,11,1,6,,,,,,,0,0,3,18,6.0,9,2.0
43,16375,S140000318,하의고등학교,전라남도 신안군 하의면 곰실길 11-8,34.6058372,126.03754509999999,1,6,1,5,1,3,,,,,,,0,0,3,14,4.7,9,1.6
44,13583,S140002017,조도중학교,전라남도 진도군 조도면 명지길 66,34.312912,126.042649,1,17,1,8,1,14,,,,,,,0,0,3,39,13.0,9,4.3
45,16367,S140000307,조도고등학교,전라남도 진도군 조도면 명지길 64,34.311628999999996,126.043054,1,6,1,2,1,8,,,,,,,0,0,3,16,5.3,10,1.6
46,13508,S140001237,자은중학교,전라남도 신안군 자은면 구영2길 82,34.88848,126.04318,1,9,1,7,1,10,,,,,,,0,0,3,26,8.7,9,2.9
47,8842,S140002050,조도초등학교,전라남도 진도군 조도면 창유1길 36-14,34.2959179,126.0482959,1,4,1,8,1,8,1.0,6.0,1.0,6.0,1.0,7.0,0,0,6,39,6.5,9,4.3
48,8743,S140001288,자은초등학교,전라남도 신안군 자은면 구영1길 44-36,34.890915,126.04833799999999,1,7,1,7,1,7,1.0,11.0,1.0,5.0,1.0,11.0,0,0,6,48,8.0,7,6.9
49,8745,S140001288,자은초등학교,전라남도 신안군 자은면 구영1길 44-36,34.890915,126.04833799999999,2,43,2,48,2,45,3.0,72.0,3.0,63.0,3.0,81.0,2,11,17,363,21.4,20,18.2
50,8889,S140003492,진도서초등학교가사도분교장,전라남도 진도군 조도면 가사도길 88-22,34.4767902,126.0590716,0,0,0,0,1,2,0.0,0.0,0.0,0.0,0.0,0.0,0,0,1,2,2.0,1,2.0
51,8741,S140001282,임자남초등학교,전라남도 신안군 임자면 장동길 86,35.0834821,126.07735,1,5,1,5,1,4,1.0,4.0,1.0,8.0,1.0,3.0,1,2,7,31,4.4,8,3.9
52,13501,S140001228,신안신의중학교,전라남도 신안군 신의면 상서길 94,34.590588000000004,126.079704,1,11,1,10,1,11,,,,,,,0,0,3,32,10.7,9,3.6
53,7993,S120001099,외연도초등학교,충청남도 보령시 오천면 외연도1길 134,36.228784499999996,126.0817499,0,0,1,1,1,2,0.0,0.0,1.0,1.0,1.0,1.0,0,0,4,5,1.3,5,1.0
54,8735,S140001257,신의초등학교,전라남도 신안군 신의면 신의로 710-57,34.5829602,126.09621059999999,1,7,1,3,1,9,1.0,10.0,1.0,11.0,1.0,5.0,0,0,6,45,7.5,7,6.4
55,13507,S140001236,임자중학교,전라남도 신안군 임자면 임자로 230-9,35.0908393,126.0995208,1,20,1,19,1,14,,,,,,,1,2,4,55,13.8,10,5.5
56,16356,S140000294,임자고등학교,전라남도 신안군 임자면 임자로 230-9,35.0908393,126.0995208,1,9,1,15,1,10,,,,,,,0,0,3,34,11.3,10,3.4
57,11054,S140001238,장산중학교,전라남도 신안군 장산면 장산대리길 64,34.6,126.1,10,278,10,264,10,260,,,,,,,1,5,31,807,26.0,49,16.5
58,11057,S140001238,장산중학교,전라남도 신안군 장산면 장산대리길 64,34.6,126.1,1,4,1,3,1,6,,,,,,,0,0,3,13,4.3,8,1.6
59,11060,S140001238,장산중학교,전라남도 신안군 장산면 장산대리길 64,34.6,126.1,8,222,10,268,10,262,,,,,,,1,6,29,758,26.1,47,16.1
60,8742,S140001284,임자초등학교,전남 신안군 임자면 임자로 216-4,35.0901627,126.10181259999999,1,10,1,14,1,12,1.0,14.0,1.0,20.0,1.0,10.0,1,2,7,82,11.7,9,9.1
61,8737,S140001271,암태초등학교,전라남도 신안군 암태면 장단고길 56,34.8292664,126.1076412,1,9,1,11,1,5,1.0,6.0,1.0,8.0,1.0,7.0,0,0,6,46,7.7,7,6.6
62,13505,S140001234,암태중학교,전라남도 신안군 암태면 장단고길 10,34.8298753,126.1126879,1,6,1,4,1,4,,,,,,,0,0,3,14,4.7,9,1.6
63,8736,S140001263,안좌초등학교,전라남도 신안군 안좌면 김환기길 6,34.75495,126.12427,1,10,1,10,1,7,1.0,13.0,1.0,7.0,1.0,10.0,0,0,7,58,8.3,8,7.3
64,13504,S140001233,안좌중학교,전라남도 신안군 안좌면 중부로 743,34.74482661,126.12739180000001,1,10,1,11,1,10,,,,,,,0,0,3,31,10.3,7,4.4
65,16326,S140000258,안좌고등학교,전라남도 신안군 안좌면 중부로 790-7,34.75029907,126.1298067,2,24,2,26,2,26,,,,,,,1,2,7,78,11.1,15,5.2
66,8782,S140001668,염산초등학교낙월분교장,전라남도 영광군 염산면 칠산로5길 124,35.2021295,126.13655159999998,0,0,0,0,0,0,1.0,4.0,0.0,0.0,0.0,0.0,0,0,1,4,4.0,1,4.0
67,8747,S140001295,증도초등학교,전라남도 신안군 증도면 문준경길,34.997451399999996,126.1373155,1,6,1,7,1,7,1.0,6.0,1.0,6.0,1.0,3.0,0,0,6,35,5.8,7,5.0
68,8029,S120001172,안흥초등학교신진도분교장,충청남도 태안군 근흥면 신진도길 44-23,36.6828598,126.13924309999999,0,0,0,0,1,1,1.0,2.0,0.0,0.0,0.0,0.0,0,0,2,3,1.5,3,1.0
69,8022,S120001146,모항초등학교,충청남도 태안군 소원면 모항파도로 116,36.773142,126.14001299999998,1,3,1,5,1,3,1.0,6.0,1.0,4.0,1.0,6.0,0,0,6,27,4.5,7,3.9
70,2267,S140001291,장산초등학교,전라남도 신안군 장산면 장산로 277,34.6381515,126.14420919999999,5,129,6,129,6,129,6.0,138.0,6.0,151.0,6.0,135.0,1,8,36,819,22.8,42,19.5
71,2271,S140001291,장산초등학교,전라남도 신안군 장산면 장산로 277,34.6381515,126.14420919999999,5,112,6,133,4,81,6.0,131.0,4.0,93.0,5.0,111.0,2,13,32,674,21.1,39,17.3
72,2275,S140001291,장산초등학교,전라남도 신안군 장산면 장산로 277,34.6381515,126.14420919999999,1,4,1,5,1,3,1.0,7.0,1.0,8.0,1.0,6.0,1,2,7,35,5.0,8,4.4
73,2279,S140001291,장산초등학교,전라남도 신안군 장산면 장산로 277,34.6381515,126.14420919999999,3,81,3,83,3,80,3.0,75.0,4.0,95.0,4.0,94.0,2,7,22,515,23.4,28,18.4
74,8748,S140001310,팔금초등학교,전라남도 신안군 팔금면 삼층석탑길 173,34.785906700000005,126.14431100000002,1,1,1,4,0,0,1.0,5.0,0.0,0.0,1.0,3.0,0,0,4,13,3.3,3,4.3
75,13502,S140001229,신안증도중학교,전라남도 신안군 증도면 증동길 53,34.9987403,126.1443852,1,5,1,3,1,2,,,,,,,0,0,3,10,3.3,8,1.3
76,2804,S040000450,덕적초등학교,인천광역시 옹진군 덕적면 덕적남로 15,37.22538059,126.1481969,1,3,1,3,1,3,1.0,6.0,1.0,5.0,1.0,6.0,0,0,6,26,4.3,7,3.7
77,8025,S120001154,소원초등학교의항분교장,충청남도 태안군 소원면 송의로 691,36.82995,126.16078799999998,0,0,0,0,1,2,0.0,0.0,1.0,2.0,0.0,0.0,0,0,2,4,2.0,3,1.3
78,5750,S140002064,지산초등학교,전라남도 진도군 지산면 인지독치1길 21-12,34.421488000000004,126.16695390000001,8,211,7,187,7,191,8.0,206.0,8.0,227.0,7.0,178.0,2,8,47,1208,25.7,52,23.2
79,5753,S140002064,지산초등학교,전라남도 진도군 지산면 인지독치1길 21-12,34.421488000000004,126.16695390000001,1,5,1,8,1,12,1.0,13.0,1.0,11.0,1.0,8.0,0,0,6,57,9.5,7,8.1
80,5756,S140002064,지산초등학교,전라남도 진도군 지산면 인지독치1길 21-12,34.421488000000004,126.16695390000001,1,6,1,2,1,7,1.0,11.0,1.0,5.0,1.0,10.0,1,5,7,46,6.6,9,5.1
81,13586,S140002021,진도지산중학교,전라남도 진도군 지산면 인지독치1길 21-62,34.4187886,126.1707489,1,23,1,10,1,7,,,,,,,0,0,3,40,13.3,9,4.4
82,5667,S120001169,안흥초등학교,충청남도 태안군 근흥면 죽림길 45,36.6957034,126.1743534,6,156,6,149,5,142,6.0,159.0,6.0,149.0,5.0,133.0,2,9,36,897,24.9,43,20.9
83,5670,S120001169,안흥초등학교,충청남도 태안군 근흥면 죽림길 45,36.6957034,126.1743534,1,5,1,2,1,9,1.0,5.0,1.0,9.0,1.0,7.0,1,3,7,40,5.7,8,5.0
84,5673,S120001169,안흥초등학교,충청남도 태안군 근흥면 죽림길 45,36.6957034,126.1743534,1,3,1,4,1,5,1.0,6.0,1.0,5.0,1.0,1.0,0,0,6,24,4.0,7,3.4
85,5560,S170000174,고산초등학교,제주특별자치도 제주시 한경면 고산로1길 16,33.304328600000005,126.1774915,1,2,1,6,1,6,1.0,6.0,1.0,12.0,1.0,5.0,1,5,7,42,6.0,7,6.0
86,5565,S170000174,고산초등학교,제주특별자치도 제주시 한경면 고산로1길 16,33.304328600000005,126.1774915,1,10,1,12,1,12,1.0,9.0,1.0,5.0,1.0,12.0,0,0,6,60,10.0,7,8.6
87,5570,S170000174,고산초등학교,제주특별자치도 제주시 한경면 고산로1길 16,33.304328600000005,126.1774915,1,11,1,8,1,11,1.0,10.0,1.0,9.0,1.0,7.0,1,4,7,60,8.6,8,7.5
88,5575,S170000174,고산초등학교,제주특별자치도 제주시 한경면 고산로1길 16,33.304328600000005,126.1774915,1,26,1,21,1,17,1.0,22.0,1.0,24.0,1.0,19.0,1,1,7,130,18.6,8,16.3
89,5580,S170000174,고산초등학교,제주특별자치도 제주시 한경면 고산로1길 16,33.304328600000005,126.1774915,1,14,1,13,1,13,1.0,6.0,1.0,11.0,1.0,16.0,1,5,7,78,11.1,9,8.7
90,13582,S140002016,의신중학교,전라남도 진도군 의신면 진도대로 2446,34.439587,126.179198,1,10,1,8,1,9,,,,,,,0,0,3,27,9.0,8,3.4
91,11249,S170000172,고산중학교,제주특별자치도 제주시 한경면 용고로 70,33.3003705,126.181345,10,223,10,238,10,274,,,,,,,1,5,31,740,23.9,51,14.5
92,11252,S170000172,고산중학교,제주특별자치도 제주시 한경면 용고로 70,33.3003705,126.181345,2,32,2,28,2,36,,,,,,,1,2,7,98,14.0,16,6.1
93,11255,S170000172,고산중학교,제주특별자치도 제주시 한경면 용고로 70,33.3003705,126.181345,1,14,1,13,1,16,,,,,,,0,0,3,43,14.3,8,5.4
94,16780,S170000152,한국뷰티고등학교,제주특별자치도 제주시 한경면 용고로 70,33.3003705,126.181345,3,69,3,63,3,55,,,,,,,0,0,9,187,20.8,20,9.4
95,10350,S170000163,신창중학교,제주특별자치도 제주시 한경면 두신로 72,33.349118,126.18413600000001,5,97,5,109,5,125,,,,,,,2,10,17,341,20.1,31,11.0
96,10354,S170000163,신창중학교,제주특별자치도 제주시 한경면 두신로 72,33.349118,126.18413600000001,10,270,10,259,12,302,,,,,,,1,7,33,838,25.4,52,16.1
97,10358,S170000163,신창중학교,제주특별자치도 제주시 한경면 두신로 72,33.349118,126.18413600000001,4,106,3,68,4,88,,,,,,,1,3,12,265,22.1,20,13.3
98,10362,S170000163,신창중학교,제주특별자치도 제주시 한경면 두신로 72,33.349118,126.18413600000001,1,16,1,17,1,13,,,,,,,0,0,3,46,15.3,8,5.8
99,3403,S170000194,신창초등학교,제주특별자치도 제주시 한경면 두신로 72,33.3491626,126.184601,9,204,7,171,9,220,9.0,222.0,9.0,216.0,10.0,234.0,1,3,54,1270,23.5,65,19.5
100,3406,S170000194,신창초등학교,제주특별자치도 제주시 한경면 두신로 72,33.3491626,126.184601,5,76,4,59,5,72,5.0,82.0,5.0,85.0,5.0,78.0,0,0,29,452,15.6,33,13.7
101,3409,S170000194,신창초등학교,제주특별자치도 제주시 한경면 두신로 72,33.3491626,126.184601,1,18,1,18,1,27,1.0,27.0,1.0,16.0,1.0,14.0,0,0,6,120,20.0,8,15.0
102,16038,S120000165,만리포고등학교,충청남도 태안군 소원면 서해로 631,36.760324,126.19093500000001,2,31,2,37,2,23,,,,,,,0,0,6,91,15.2,16,5.7
103,16310,S140000235,진도국악고등학교,전라남도 진도군 임회면 석교길 20-4,34.407657,126.191222,2,26,1,20,1,15,,,,,,,0,0,4,61,15.3,14,4.4
104,7499,S140002036,석교초등학교,전라남도 진도군 임회면 석교길 47-18,34.405721,126.1919851,2,30,2,32,2,28,2.0,38.0,2.0,44.0,2.0,46.0,1,6,13,224,17.2,15,14.9
105,7501,S140002036,석교초등학교,전라남도 진도군 임회면 석교길 47-18,34.405721,126.1919851,1,9,1,9,1,7,1.0,11.0,1.0,11.0,1.0,11.0,1,2,7,60,8.6,8,7.5
106,8024,S120001152,소원초등학교,충청남도 태안군 소원면 은골길 42,36.7639984,126.193386,0,0,1,6,1,5,1.0,4.0,1.0,3.0,1.0,2.0,0,0,5,20,4.0,6,3.3
107,13133,S120001125,만리포중학교,충청남도 태안군 소원면 소근로 63-12,36.7656083,126.19405,1,10,1,8,1,11,,,,,,,1,2,4,31,7.8,9,3.4
108,13581,S140002015,석교중학교,전라남도 진도군 임회면 십일시길 67,34.408945,126.19584499999999,1,4,1,7,1,10,,,,,,,1,3,4,24,6.0,11,2.2
109,11205,S040000322,교동중학교,인천광역시 강화군 교동면 교동남로 77,37.7,126.2,1,3,2,31,3,49,,,,,,,1,2,7,85,12.1,18,4.7
110,11207,S040000322,교동중학교,인천광역시 강화군 교동면 교동남로 77,37.7,126.2,1,10,1,5,1,12,,,,,,,0,0,3,27,9.0,6,4.5
111,14917,S040000194,교동고등학교,인천광역시 강화군 교동면 교동남로 77,37.7,126.2,1,4,1,10,1,6,,,,,,,1,1,4,21,5.3,14,1.5
112,6941,S170000303,무릉초등학교,제주특별자치도 서귀포시 대정읍 서삼중로 106,33.272798200000004,126.20138030000001,1,3,1,4,1,5,1.0,9.0,1.0,4.0,1.0,8.0,0,0,6,33,5.5,7,4.7
113,6943,S170000303,무릉초등학교,제주특별자치도 서귀포시 대정읍 서삼중로 106,33.272798200000004,126.20138030000001,1,7,1,6,1,8,1.0,21.0,1.0,22.0,1.0,18.0,0,0,6,82,13.7,9,9.1
114,14085,S170000277,무릉중학교,제주특별자치도 서귀포시 대정읍 서삼중로 106,33.272798200000004,126.20138030000001,1,10,1,16,1,10,,,,,,,0,0,3,36,12.0,9,4.0
115,16369,S140000311,지명고등학교,전라남도 신안군 지도읍 해제지도로 1362,35.06375,126.2024625,1,11,1,13,1,6,,,,,,,1,2,4,32,8.0,11,2.9
116,4371,S140001301,지도초등학교,전라남도 신안군 지도읍 서촌길 52-1,35.063722799999994,126.2071953,4,92,4,104,4,101,5.0,117.0,5.0,110.0,5.0,139.0,1,5,28,668,23.9,33,20.2
117,4373,S140001301,지도초등학교,전라남도 신안군 지도읍 서촌길 52-1,35.063722799999994,126.2071953,1,12,1,15,1,13,1.0,18.0,1.0,21.0,1.0,14.0,1,2,7,95,13.6,8,11.9
118,13509,S140001239,지명중학교,전라남도 신안군 지도읍 원광정길 18,35.0605299,126.2140284,1,15,1,19,1,19,,,,,,,1,2,4,55,13.8,12,4.6
119,16296,S140000211,목포혜인여자고등학교,전라남도 목포시 죽선로 39-2,34.47,126.22,7,159,7,142,7,152,,,,,,,0,0,21,453,21.6,48,9.4
120,8020,S120001140,근흥초등학교,충청남도 태안군 근흥면 근흥로 716-8,36.71455511,126.2278928,1,3,1,7,1,2,1.0,6.0,1.0,5.0,1.0,4.0,0,0,6,27,4.5,7,3.9
121,13132,S120001124,근흥중학교,충청남도 태안군 근흥면 근흥로 690,36.716214,126.229335,1,10,1,10,1,7,,,,,,,0,0,3,27,9.0,8,3.4
122,9701,S170000201,재릉초등학교,제주특별자치도 제주시 한림읍 한림로 288-18,33.3885118,126.238941,3,52,2,35,2,38,2.0,45.0,2.0,35.0,2.0,46.0,1,6,14,257,18.4,17,15.1
123,9720,S170000299,대정서초등학교,제주특별자치도 서귀포시 대정읍 동일하모로 43,33.231867,126.23944099999999,1,9,1,14,1,13,1.0,13.0,1.0,22.0,1.0,8.0,0,0,6,79,13.2,8,9.9
124,8843,S140002066,진도서초등학교,전라남도 진도군 진도읍 신흥정자로 25,34.49842720000001,126.2411125,1,5,1,5,1,6,1.0,5.0,1.0,10.0,1.0,3.0,1,2,7,36,5.1,8,4.5
125,8027,S120001156,시목초등학교,충청남도 태안군 소원면 서해로 1147-26,36.76890248,126.2453585,1,12,1,3,1,9,1.0,11.0,1.0,9.0,1.0,4.0,0,0,6,48,8.0,7,6.9
126,9702,S170000202,저청초등학교,제주특별자치도 제주시 한경면 중산간서로 3591,33.32659085,126.25129890000001,1,24,1,19,1,27,1.0,18.0,1.0,25.0,1.0,26.0,0,0,6,139,23.2,8,17.4
127,2779,S040000355,서도초등학교,인천광역시 강화군 서도면 주문도길 173,37.647549,126.25180900000001,0,0,0,0,0,0,0.0,0.0,1.0,3.0,0.0,0.0,1,1,2,4,2.0,2,2.0
128,2781,S040000355,서도초등학교,인천광역시 강화군 서도면 주문도길 173,37.647549,126.25180900000001,1,19,1,21,1,15,1.0,13.0,1.0,13.0,1.0,17.0,1,2,7,100,14.3,8,12.5
129,11303,S040000326,서도중학교,인천광역시 강화군 서도면 주문도길 173,37.647566,126.251811,1,2,1,1,1,4,,,,,,,0,0,3,7,2.3,6,1.2
130,14950,S040000228,서도고등학교,인천광역시 강화군 서도면 주문도길 173,37.647566,126.251811,1,2,1,2,0,0,,,,,,,0,0,2,4,2.0,7,0.6
131,14078,S170000166,저청중학교,제주특별자치도 제주시 한경면 중산간서로 3590,33.32537507,126.25242630000001,1,16,1,13,1,14,,,,,,,0,0,3,43,14.3,8,5.4
132,2989,S040001386,인천남부초등학교이작분교장,인천광역시 옹진군 자월면 대이작로 60,37.17676407,126.2527612,0,0,0,0,1,3,0.0,0.0,1.0,5.0,0.0,0.0,0,0,2,8,4.0,2,4.0
133,16762,S170000123,대정여자고등학교,제주특별자치도 서귀포시 대정읍 대한로88번길 82-22,33.229618,126.25311299999998,4,90,4,85,4,83,,,,,,,0,0,12,258,21.5,29,8.9
134,14084,S170000276,대정중학교,제주특별자치도 서귀포시 대정읍 비행장로 18,33.2195962,126.2538721,5,119,5,120,5,115,,,,,,,1,7,16,361,22.6,28,12.9
135,8042,S170000298,대정초등학교,제주특별자치도 서귀포시 대정읍 상모대서로 15,33.225155,126.25541399999999,1,2,1,2,1,6,1.0,9.0,1.0,7.0,1.0,4.0,1,3,7,33,4.7,8,4.1
136,8044,S170000298,대정초등학교,제주특별자치도 서귀포시 대정읍 상모대서로 15,33.225155,126.25541399999999,3,75,3,59,3,70,3.0,77.0,4.0,79.0,3.0,61.0,2,14,21,435,20.7,24,18.1
137,8021,S120001145,대기초등학교,충청남도 태안군 원북면 대기길 12-21,36.800507200000006,126.2567298,1,11,1,8,1,12,1.0,12.0,1.0,15.0,1.0,7.0,1,6,7,71,10.1,8,8.9
138,16767,S170000129,한림고등학교,제주특별자치도 제주시 한림읍 월계로 74,33.398123999999996,126.258225,7,182,7,172,7,161,,,,,,,0,0,21,515,24.5,44,11.7
139,13585,S140002020,진도중학교,전라남도 진도군 진도읍 교동3길 9,34.483663,126.258393,4,105,4,99,5,140,,,,,,,1,6,14,350,25.0,26,13.5
140,8030,S120001175,원북초등학교,충청남도 태안군 원북면 원이로 849-3,36.82565053,126.2586869,1,3,1,10,1,9,1.0,13.0,1.0,11.0,1.0,13.0,1,3,7,62,8.9,8,7.8
141,16371,S140000313,진도실업고등학교,전라남도 진도군 진도읍 교동3길 10,34.4827559,126.2604895,3,53,4,59,4,49,,,,,,,1,4,12,165,13.8,24,6.9
142,14081,S170000169,한림여자중학교,제주특별자치도 제주시 한림읍 한림로 604,33.41049,126.26058799999998,4,88,3,71,3,72,,,,,,,1,3,11,234,21.3,20,11.7
143,16761,S170000122,대정고등학교,제주특별자치도 서귀포시 대정읍 일주서로2498번길 21,33.232339,126.260698,4,97,4,94,4,97,,,,,,,1,5,13,293,22.5,30,9.8
144,9427,S170000212,한림초등학교,제주특별자치도 제주시 한림읍 한림로4길 16,33.411407000000004,126.260713,1,10,1,10,1,13,1.0,16.0,1.0,13.0,1.0,14.0,1,3,7,79,11.3,8,9.9
145,9429,S170000212,한림초등학교,제주특별자치도 제주시 한림읍 한림로4길 16,33.411407000000004,126.260713,3,78,3,68,3,78,4.0,89.0,3.0,80.0,3.0,73.0,2,9,21,475,22.6,26,18.3
146,8844,S140002068,진도초등학교,전라남도 진도군 진도읍 성내길 9,34.486428100000005,126.26545549999999,5,83,4,88,4,91,5.0,117.0,4.0,103.0,5.0,106.0,2,11,29,599,20.7,35,17.1
147,13904,S170000170,한림중학교,제주특별자치도 제주시 한림읍 명월성로 21,33.40580739999999,126.2665011,2,35,2,27,2,33,,,,,,,0,0,6,95,15.8,14,6.8
148,13906,S170000170,한림중학교,제주특별자치도 제주시 한림읍 명월성로 21,33.40580739999999,126.2665011,4,88,4,90,3,74,,,,,,,1,7,12,259,21.6,25,10.4
149,13136,S120001129,원이중학교,충청남도 태안군 원북면 마산길 180,36.829567,126.26653799999998,2,43,2,43,2,49,,,,,,,1,5,7,140,20.0,18,7.8
150,8018,S120001120,청파초등학교호도분교장,충청남도 보령시 오천면 호도길 81,36.3025559,126.26736240000001,0,0,0,0,1,2,0.0,0.0,0.0,0.0,1.0,2.0,0,0,2,4,2.0,2,2.0
151,16778,S170000148,한림공업고등학교,제주특별자치도 제주시 한림읍 한림중앙로 87,33.407607,126.268975,10,230,10,209,10,212,,,,,,,2,10,32,661,20.7,84,7.9
152,4913,S170000192,수원초등학교,제주특별자치도 제주시 한림읍 한림로 822,33.425776,126.27025,7,192,5,136,5,120,5.0,129.0,5.0,125.0,5.0,123.0,3,15,35,840,24.0,39,21.5
153,4915,S170000192,수원초등학교,제주특별자치도 제주시 한림읍 한림로 822,33.425776,126.27025,1,21,1,27,1,23,1.0,23.0,2.0,30.0,2.0,31.0,1,5,9,160,17.8,12,13.3
154,9718,S170000294,가파초등학교,제주특별자치도 서귀포시 대정읍 가파로67번길 45,33.169329,126.270288,0,0,1,4,0,0,0.0,0.0,0.0,0.0,1.0,1.0,0,0,2,5,2.5,2,2.5
155,8739,S140001276,압해서초등학교,전라남도 신안군 압해읍 압해로 1336-2,34.862628,126.27341100000001,0,0,1,5,1,6,1.0,2.0,1.0,10.0,1.0,7.0,1,4,6,34,5.7,7,4.9
156,16370,S140000312,진도고등학교,전라남도 진도군 진도읍 동외4길 117-5,34.487131,126.2756646,4,79,4,77,4,73,,,,,,,0,0,12,229,19.1,29,7.9
157,7805,S170000307,보성초등학교,제주특별자치도 서귀포시 대정읍 추사로55번길 6-1,33.249587,126.27589499999999,3,55,2,44,2,40,2.0,43.0,2.0,29.0,1.0,22.0,1,5,13,238,18.3,15,15.9
158,7809,S170000307,보성초등학교,제주특별자치도 서귀포시 대정읍 추사로55번길 6-1,33.249587,126.27589499999999,1,4,1,7,1,6,1.0,12.0,1.0,10.0,1.0,13.0,1,6,7,58,8.3,8,7.3
159,7813,S170000307,보성초등학교,제주특별자치도 서귀포시 대정읍 추사로55번길 6-1,33.249587,126.27589499999999,3,49,2,41,2,37,2.0,46.0,2.0,53.0,2.0,40.0,1,3,14,269,19.2,16,16.8
160,7817,S170000307,보성초등학교,제주특별자치도 서귀포시 대정읍 추사로55번길 6-1,33.249587,126.27589499999999,2,60,2,45,2,40,2.0,51.0,2.0,47.0,2.0,46.0,0,0,12,289,24.1,15,19.3
161,8841,S140002045,의신초등학교,전라남도 진도군 의신면 돈지1길 13,34.440642,126.27813710000001,1,8,1,3,1,6,1.0,8.0,1.0,6.0,1.0,8.0,1,1,7,40,5.7,8,5.0
162,7343,S120001179,이원초등학교,충청남도 태안군 이원면 원이로 1536-31,36.869239,126.281396,1,6,1,6,1,9,1.0,9.0,1.0,14.0,1.0,13.0,1,4,7,61,8.7,9,6.8
163,7345,S120001179,이원초등학교,충청남도 태안군 이원면 원이로 1536-31,36.869239,126.281396,1,4,1,4,1,4,1.0,6.0,1.0,3.0,1.0,6.0,0,0,6,27,4.5,7,3.9
164,1151,S040000333,교동초등학교,인천광역시 강화군 교동면 대룡안길 29,37.78369537,126.2817106,7,151,6,139,7,143,7.0,155.0,6.0,126.0,8.0,173.0,1,6,42,893,21.3,48,18.6
165,1160,S040000333,교동초등학교,인천광역시 강화군 교동면 대룡안길 29,37.78369537,126.2817106,1,2,1,9,1,4,1.0,5.0,1.0,7.0,1.0,6.0,1,1,7,34,4.9,9,3.8
166,1169,S040000333,교동초등학교,인천광역시 강화군 교동면 대룡안길 29,37.78369537,126.2817106,4,106,5,113,5,116,6.0,158.0,4.0,112.0,5.0,118.0,1,5,30,728,24.3,36,20.2
167,1178,S040000333,교동초등학교,인천광역시 강화군 교동면 대룡안길 29,37.78369537,126.2817106,2,48,2,50,2,45,3.0,57.0,3.0,66.0,3.0,53.0,1,6,16,325,20.3,19,17.1
168,1187,S040000333,교동초등학교,인천광역시 강화군 교동면 대룡안길 29,37.78369537,126.2817106,6,119,5,110,4,95,6.0,152.0,6.0,152.0,7.0,166.0,1,6,35,800,22.9,41,19.5
169,1196,S040000333,교동초등학교,인천광역시 강화군 교동면 대룡안길 29,37.78369537,126.2817106,2,44,3,54,3,66,3.0,58.0,3.0,56.0,3.0,63.0,2,12,19,353,18.6,22,16.0
170,1205,S040000333,교동초등학교,인천광역시 강화군 교동면 대룡안길 29,37.78369537,126.2817106,1,19,1,12,1,12,1.0,14.0,1.0,9.0,1.0,15.0,1,4,7,85,12.1,8,10.6
171,1214,S040000333,교동초등학교,인천광역시 강화군 교동면 대룡안길 29,37.78369537,126.2817106,6,132,5,127,5,131,6.0,154.0,7.0,164.0,6.0,154.0,2,10,37,872,23.6,44,19.8
172,1223,S040000333,교동초등학교,인천광역시 강화군 교동면 대룡안길 29,37.78369537,126.2817106,1,15,1,11,1,8,1.0,14.0,1.0,13.0,1.0,14.0,1,3,7,78,11.1,8,9.8
173,8840,S140002027,군내북초등학교,전라남도 진도군 군내면 대야길 54,34.5640028,126.2884376,1,2,1,6,1,6,1.0,5.0,1.0,2.0,1.0,3.0,1,3,7,27,3.9,8,3.4
174,16100,S120000260,태안여자고등학교,충청남도 태안군 태안읍 원이로 7-1,36.759172899999996,126.2891693,7,147,9,157,9,172,,,,,,,1,7,26,483,18.6,47,10.3
175,8285,S130000959,위도초등학교,전라북도 부안군 위도면 진리잔등로 113-3,35.595895299999995,126.29222730000001,1,4,1,2,1,5,1.0,3.0,1.0,1.0,1.0,3.0,0,0,6,18,3.0,7,2.6
176,254,S140002029,금성초등학교,전라남도 진도군 군내면 금골길 58,34.537675,126.293038,4,121,4,122,4,121,4.0,108.0,3.0,88.0,3.0,72.0,0,0,22,632,28.7,43,14.7
177,265,S140002029,금성초등학교,전라남도 진도군 군내면 금골길 58,34.537675,126.293038,1,12,1,9,1,10,1.0,13.0,1.0,20.0,1.0,14.0,1,2,7,80,11.4,9,8.9
178,276,S140002029,금성초등학교,전라남도 진도군 군내면 금골길 58,34.537675,126.293038,4,77,4,69,4,79,5.0,93.0,4.0,75.0,6.0,119.0,1,4,28,516,18.4,37,13.9
179,287,S140002029,금성초등학교,전라남도 진도군 군내면 금골길 58,34.537675,126.293038,1,6,1,7,1,12,1.0,14.0,1.0,13.0,1.0,8.0,0,0,6,60,10.0,7,8.6
180,298,S140002029,금성초등학교,전라남도 진도군 군내면 금골길 58,34.537675,126.293038,0,0,1,6,1,5,1.0,4.0,1.0,3.0,1.0,9.0,1,2,6,29,4.8,7,4.1
181,309,S140002029,금성초등학교,전라남도 진도군 군내면 금골길 58,34.537675,126.293038,1,4,1,5,1,5,1.0,8.0,1.0,5.0,1.0,9.0,1,3,7,39,5.6,8,4.9
182,320,S140002029,금성초등학교,전라남도 진도군 군내면 금골길 58,34.537675,126.293038,1,10,1,14,1,12,1.0,11.0,1.0,12.0,1.0,10.0,0,0,6,69,11.5,7,9.9
183,331,S140002029,금성초등학교,전라남도 진도군 군내면 금골길 58,34.537675,126.293038,1,7,1,3,1,5,1.0,13.0,1.0,6.0,1.0,9.0,1,1,7,44,6.3,8,5.5
184,342,S140002029,금성초등학교,전라남도 진도군 군내면 금골길 58,34.537675,126.293038,1,3,1,5,1,3,1.0,5.0,1.0,5.0,1.0,3.0,0,0,6,24,4.0,7,3.4
185,353,S140002029,금성초등학교,전라남도 진도군 군내면 금골길 58,34.537675,126.293038,1,9,1,11,1,10,1.0,8.0,1.0,14.0,1.0,11.0,1,4,7,67,9.6,8,8.4
186,364,S140002029,금성초등학교,전라남도 진도군 군내면 금골길 58,34.537675,126.293038,3,53,2,49,3,67,3.0,69.0,3.0,82.0,4.0,88.0,1,6,19,414,21.8,22,18.8
187,9689,S170000179,귀덕초등학교,제주특별자치도 제주시 한림읍 귀덕14길 14-5,33.442139000000005,126.29356499999999,1,11,1,11,1,18,1.0,19.0,1.0,15.0,1.0,17.0,0,0,6,91,15.2,8,11.4
188,8676,S140000958,해제남초등학교,전라남도 무안군 해제면 돌기길 5,35.082018,126.29502600000001,0,0,1,4,1,2,1.0,5.0,1.0,3.0,1.0,5.0,1,4,6,23,3.8,7,3.3
189,13584,S140002019,진도군내중학교,전라남도 진도군 군내면 금골길 26,34.5384968,126.29532759999998,1,7,1,9,1,14,,,,,,,0,0,3,30,10.0,10,3.0
190,9705,S170000206,추자초등학교,제주특별자치도 제주시 추자면 대서3길 10,33.964360299999996,126.2953612,1,4,1,5,1,6,1.0,6.0,1.0,7.0,1.0,8.0,0,0,6,36,6.0,8,4.5
191,8879,S140003256,의신초등학교접도분교장,전라남도 진도군 의신면 황모길 25-1,34.3859826,126.29537250000001,0,0,0,0,1,2,0.0,0.0,1.0,4.0,1.0,1.0,0,0,3,7,2.3,4,1.8
192,6208,S120001189,태안초등학교,충청남도 태안군 태안읍 백화로 49,36.759133,126.29541299999998,5,117,4,101,5,115,5.0,133.0,5.0,131.0,5.0,138.0,1,7,30,742,24.7,37,20.1
193,6210,S120001189,태안초등학교,충청남도 태안군 태안읍 백화로 49,36.759133,126.29541299999998,3,49,3,56,3,73,3.0,71.0,3.0,63.0,3.0,58.0,3,15,21,385,18.3,24,16.0
194,9690,S170000180,금악초등학교,제주특별자치도 제주시 한림읍 금악남2길 1,33.356741,126.29569199999999,1,15,1,10,1,19,1.0,21.0,1.0,14.0,1.0,17.0,0,0,6,96,16.0,8,12.0
195,13249,S130000929,위도중학교,전라북도 부안군 위도면 위도로 245,35.604994500000004,126.2960892,0,0,1,2,1,1,,,,,,,0,0,2,3,1.5,8,0.4
196,16201,S130000386,위도고등학교,전라북도 부안군 위도면 위도로 245,35.604994500000004,126.2960892,0,0,1,4,0,0,,,,,,,0,0,1,4,4.0,7,0.6
197,8677,S140000963,해제초등학교,전라남도 무안군 해제면 양간로 77,35.1147467,126.29629969999999,1,6,1,11,1,11,1.0,11.0,1.0,6.0,1.0,10.0,0,0,6,55,9.2,7,7.9
198,13476,S140000933,해제중학교,전라남도 무안군 해제면 양간로 97,35.1149773,126.29768440000001,1,16,1,23,1,16,,,,,,,1,3,4,58,14.5,9,6.4
199,8031,S120001180,이원초등학교관동분교장,충청남도 태안군 이원면 원이로 1956,36.901342,126.299195,0,0,1,4,0,0,1.0,4.0,0.0,0.0,1.0,3.0,0,0,3,11,3.7,4,2.8
200,9726,S170000308,사계초등학교,제주특별자치도 서귀포시 안덕면 산방로 346,33.233447,126.29978799999999,1,15,1,22,1,19,1.0,17.0,1.0,18.0,1.0,15.0,0,0,6,106,17.7,8,13.3
201,8659,S140000869,목포중앙초등학교,전라남도 목포시 청호로 11,34.7,126.3,1,12,1,12,1,8,1.0,10.0,1.0,13.0,1.0,16.0,0,0,6,71,11.8,7,10.1
202,8740,S140001277,압해초등학교,전라남도 신안군 압해읍 복룡로 33-8,34.8,126.3,1,8,1,11,1,8,1.0,12.0,1.0,12.0,1.0,7.0,1,7,7,65,9.3,10,6.5
203,16286,S140000196,목포고등학교,전라남도 목포시 산정로224번길 11,34.8,126.3,7,162,7,154,7,159,,,,,,,1,5,22,480,21.8,45,10.7
204,16345,S140000278,영광전자고등학교,전라남도 영광군 염산면 칠산로 98-27,35.2,126.3,1,11,1,20,1,9,,,,,,,1,4,4,44,11.0,11,4.0
205,4641,S120001141,남면초등학교,충청남도 태안군 남면 남면로 125,36.673726,126.30008799999999,2,36,2,29,2,27,2.0,31.0,1.0,16.0,2.0,32.0,1,4,12,175,14.6,14,12.5
206,4644,S120001141,남면초등학교,충청남도 태안군 남면 남면로 125,36.673726,126.30008799999999,1,5,1,2,1,4,1.0,3.0,1.0,6.0,1.0,5.0,1,2,7,27,3.9,8,3.4
207,4647,S120001141,남면초등학교,충청남도 태안군 남면 남면로 125,36.673726,126.30008799999999,1,2,1,9,1,4,1.0,6.0,1.0,9.0,1.0,8.0,1,4,7,42,6.0,8,5.3
208,13134,S120001126,남면중학교,충청남도 태안군 남면 남면로 125,36.673726,126.30008799999999,1,10,1,11,1,18,,,,,,,1,3,4,42,10.5,9,4.7
209,8026,S120001155,송암초등학교,충청남도 태안군 태안읍 순환길 130,36.7356194,126.30034740000002,1,7,1,12,1,7,1.0,9.0,1.0,7.0,1.0,11.0,0,0,6,53,8.8,7,7.6
210,13139,S120001133,태안중학교,충청남도 태안군 태안읍 중앙로 115,36.753402200000004,126.3010246,5,143,5,131,5,137,,,,,,,3,17,18,428,23.8,30,14.3
211,9721,S170000300,덕수초등학교,제주특별자치도 서귀포시 안덕면 덕수서로 10,33.2518,126.30455,1,14,1,14,1,16,1.0,18.0,1.0,24.0,1.0,19.0,0,0,6,105,17.5,8,13.1
212,13138,S120001132,태안여자중학교,충청남도 태안군 태안읍 다락미4길 27,36.7518,126.30638799999998,4,119,5,134,5,137,,,,,,,2,8,16,398,24.9,31,12.8
213,2990,S040001466,인천용현남초등학교자월분교장,인천광역시 옹진군 자월면 자월서로 177,37.25303412,126.3066313,0,0,0,0,1,4,0.0,0.0,1.0,1.0,0.0,0.0,0,0,2,5,2.5,2,2.5
214,9685,S170000175,곽금초등학교,제주특별자치도 제주시 애월읍 일주서로 6000,33.44712643,126.30716629999999,1,10,1,17,1,17,1.0,18.0,1.0,19.0,1.0,16.0,0,0,6,97,16.2,9,10.8
215,8073,S120002537,백화초등학교,충청남도 태안군 태안읍 다락미1길 85,36.7524541,126.3080385,5,99,4,95,5,118,6.0,139.0,5.0,137.0,5.0,115.0,3,14,33,717,21.7,38,18.9
216,2703,S120001150,삼성초등학교,충청남도 태안군 남면 마검포길 93-1,36.6221726,126.3115243,1,4,1,8,1,6,1.0,5.0,1.0,4.0,1.0,2.0,1,5,7,34,4.9,9,3.8
217,2712,S120001150,삼성초등학교,충청남도 태안군 남면 마검포길 93-1,36.6221726,126.3115243,5,132,6,152,5,119,7.0,168.0,6.0,141.0,6.0,139.0,2,14,37,865,23.4,44,19.7
218,2721,S120001150,삼성초등학교,충청남도 태안군 남면 마검포길 93-1,36.6221726,126.3115243,1,19,1,11,1,16,1.0,13.0,1.0,16.0,1.0,12.0,0,0,6,87,14.5,7,12.4
219,2730,S120001150,삼성초등학교,충청남도 태안군 남면 마검포길 93-1,36.6221726,126.3115243,1,5,1,4,1,5,1.0,9.0,1.0,14.0,1.0,7.0,0,0,6,44,7.3,7,6.3
220,2739,S120001150,삼성초등학교,충청남도 태안군 남면 마검포길 93-1,36.6221726,126.3115243,1,19,1,19,1,22,2.0,26.0,1.0,22.0,2.0,30.0,2,11,10,149,14.9,12,12.4
221,2748,S120001150,삼성초등학교,충청남도 태안군 남면 마검포길 93-1,36.6221726,126.3115243,1,4,1,6,1,8,1.0,12.0,1.0,7.0,1.0,8.0,0,0,6,45,7.5,7,6.4
222,2757,S120001150,삼성초등학교,충청남도 태안군 남면 마검포길 93-1,36.6221726,126.3115243,5,111,4,110,4,110,4.0,98.0,4.0,98.0,4.0,103.0,2,8,27,638,23.6,32,19.9
223,2766,S120001150,삼성초등학교,충청남도 태안군 남면 마검포길 93-1,36.6221726,126.3115243,3,51,2,47,2,35,2.0,49.0,2.0,45.0,2.0,51.0,1,6,14,284,20.3,16,17.8
224,2775,S120001150,삼성초등학교,충청남도 태안군 남면 마검포길 93-1,36.6221726,126.3115243,5,117,4,97,5,127,5.0,132.0,5.0,125.0,4.0,108.0,2,15,30,721,24.0,36,20.0
225,8858,S140002190,우수영초등학교,전라남도 해남군 문내면 동영길 117,34.6038523,126.31273859999999,1,11,1,13,1,16,1.0,24.0,1.0,21.0,1.0,13.0,1,5,7,103,14.7,8,12.9
226,13596,S140002148,우수영중학교,전라남도 해남군 문내면 우수영로 21-6,34.594998700000005,126.3128625,1,24,1,21,1,18,,,,,,,1,2,4,65,16.3,11,5.9
227,9699,S170000197,어도초등학교,제주특별자치도 제주시 애월읍 봉성로 76,33.4201872,126.31304070000002,1,12,1,20,1,24,1.0,16.0,1.0,13.0,1.0,21.0,0,0,6,106,17.7,8,13.3
228,13506,S140001235,압해중학교,전라남도 신안군 압해읍 구항길 31-5,34.863938700000006,126.3133247,1,14,1,23,1,18,,,,,,,1,4,4,59,14.8,11,5.4
229,8891,S140003509,목포유달초등학교달리분교장,전라남도 목포시 달리길157번길 35,34.774741999999996,126.31416200000001,0,0,0,0,0,0,1.0,2.0,0.0,0.0,0.0,0.0,0,0,1,2,2.0,1,2.0
230,16327,S140000259,신안해양과학고등학교,전라남도 신안군 압해읍 구항길 41,34.861868900000005,126.3143592,2,39,2,29,2,30,,,,,,,1,2,7,100,14.3,16,6.3
231,16099,S120000259,태안고등학교,충청남도 태안군 태안읍 백화로 251,36.7542537,126.31776090000001,6,124,6,114,6,124,,,,,,,2,14,20,376,18.8,40,9.4
232,11302,S040000325,승영중학교,인천광역시 강화군 삼산면 삼산북로 473,37.701676500000005,126.31877050000001,1,28,1,23,1,22,,,,,,,0,0,3,73,24.3,10,7.3
233,7061,S120001191,화동초등학교,충청남도 태안군 태안읍 중앙로 321,36.7537577,126.320357,1,4,1,5,1,3,1.0,2.0,0.0,0.0,1.0,7.0,1,3,6,24,4.0,7,3.4
234,7064,S120001191,화동초등학교,충청남도 태안군 태안읍 중앙로 321,36.7537577,126.320357,3,48,3,55,2,40,2.0,41.0,2.0,44.0,2.0,25.0,2,10,16,263,16.4,18,14.6
235,7067,S120001191,화동초등학교,충청남도 태안군 태안읍 중앙로 321,36.7537577,126.320357,1,2,1,5,1,7,1.0,2.0,1.0,11.0,1.0,9.0,1,4,7,40,5.7,8,5.0
236,2682,S040000350,삼산초등학교,인천광역시 강화군 삼산면 삼산북로 451,37.70304434,126.32161550000001,1,3,0,0,1,4,1.0,3.0,1.0,3.0,1.0,3.0,1,1,6,17,2.8,7,2.4
237,2686,S040000350,삼산초등학교,인천광역시 강화군 삼산면 삼산북로 451,37.70304434,126.32161550000001,6,115,5,123,5,107,5.0,119.0,4.0,102.0,4.0,97.0,2,9,31,672,21.7,36,18.7
238,2690,S040000350,삼산초등학교,인천광역시 강화군 삼산면 삼산북로 451,37.70304434,126.32161550000001,1,6,1,10,1,7,1.0,10.0,1.0,8.0,1.0,13.0,0,0,6,54,9.0,7,7.7
239,2694,S040000350,삼산초등학교,인천광역시 강화군 삼산면 삼산북로 451,37.70304434,126.32161550000001,1,2,1,1,1,4,1.0,8.0,1.0,4.0,1.0,9.0,1,4,7,32,4.6,8,4.0
240,8836,S140002022,고성초등학교,전라남도 진도군 고군면 고성길 2-3,34.498642600000004,126.32175090000001,1,5,1,8,1,12,1.0,12.0,1.0,11.0,1.0,8.0,2,8,8,64,8.0,9,7.1
241,8838,S140002022,고성초등학교,전라남도 진도군 고군면 고성길 2-3,34.498642600000004,126.32175090000001,5,111,5,117,5,122,6.0,159.0,6.0,161.0,7.0,169.0,2,9,36,848,23.6,43,19.7
242,9698,S170000196,애월초등학교,제주특별자치도 제주시 애월읍 애월로 139-10,33.46532,126.32297,1,21,2,27,2,31,2.0,34.0,2.0,31.0,1.0,25.0,0,0,10,169,16.9,12,14.1
243,12678,S140002014,고성중학교,전라남도 진도군 고군면 진도대로 83,34.50061567,126.32307109999999,3,67,3,67,3,62,,,,,,,1,2,10,198,19.8,22,9.0
244,12681,S140002014,고성중학교,전라남도 진도군 고군면 진도대로 83,34.50061567,126.32307109999999,1,18,1,26,1,23,,,,,,,1,1,4,68,17.0,11,6.2
245,12684,S140002014,고성중학교,전라남도 진도군 고군면 진도대로 83,34.50061567,126.32307109999999,3,64,3,71,3,76,,,,,,,1,6,10,217,21.7,20,10.9
246,10032,S140002156,화원중학교,전라남도 해남군 화원면 신평리길 25-19,34.6702751,126.3233469,8,187,6,153,8,191,,,,,,,0,0,22,531,24.1,43,12.3
247,10035,S140002156,화원중학교,전라남도 해남군 화원면 신평리길 25-19,34.6702751,126.3233469,5,82,5,95,6,100,,,,,,,1,2,17,279,16.4,30,9.3
248,10038,S140002156,화원중학교,전라남도 해남군 화원면 신평리길 25-19,34.6702751,126.3233469,1,22,1,15,1,21,,,,,,,0,0,3,58,19.3,9,6.4
249,14876,S140000337,화원고등학교,전라남도 해남군 화원면 신평리길 25-19,34.6702751,126.3233469,8,221,8,211,9,240,,,,,,,2,9,27,681,25.2,54,12.6
250,14878,S140000337,화원고등학교,전라남도 해남군 화원면 신평리길 25-19,34.6702751,126.3233469,2,41,2,40,2,43,,,,,,,0,0,6,124,20.7,15,8.3
251,14076,S170000164,애월중학교,제주특별자치도 제주시 애월읍 애월로15길 8,33.464335,126.32433799999998,4,85,4,79,4,94,,,,,,,1,4,13,262,20.2,25,10.5
252,14080,S170000168,추자중학교,제주특별자치도 제주시 추자면 신양3길 15,33.945785,126.32578799999999,1,6,1,6,1,6,,,,,,,0,0,3,18,6.0,8,2.3
253,9716,S170000229,추자초등학교신양분교장,제주특별자치도 제주시 추자면 추자로 553-10,33.9452509,126.3258551,0,0,0,0,0,0,0.0,0.0,0.0,0.0,1.0,1.0,0,0,1,1,1.0,1,1.0
254,3273,S170000311,서광초등학교,제주특별자치도 서귀포시 안덕면 중산간서로 1842,33.288392200000004,126.32637720000001,4,81,3,70,4,71,3.0,74.0,3.0,66.0,3.0,65.0,2,8,22,435,19.8,26,16.7
255,3275,S170000311,서광초등학교,제주특별자치도 서귀포시 안덕면 중산간서로 1842,33.288392200000004,126.32637720000001,1,17,1,17,1,17,1.0,23.0,1.0,19.0,1.0,25.0,0,0,6,118,19.7,8,14.8
256,9692,S170000182,납읍초등학교,제주특별자치도 제주시 애월읍 납읍로2길 47,33.435418,126.33045,1,17,2,28,2,32,1.0,26.0,1.0,22.0,1.0,23.0,0,0,8,148,18.5,10,14.8
257,6554,S140002204,화원초등학교,전라남도 해남군 화원면 청용길 117,34.6729332,126.33295840000001,7,207,7,203,8,219,8.0,220.0,6.0,162.0,7.0,203.0,2,14,45,1228,27.3,52,23.6
258,6556,S140002204,화원초등학교,전라남도 해남군 화원면 청용길 117,34.6729332,126.33295840000001,1,4,1,10,1,12,1.0,5.0,1.0,20.0,1.0,10.0,1,3,7,64,9.1,9,7.1
259,16774,S170000140,애월고등학교,제주특별자치도 제주시 애월읍 일주서로 6372-20,33.46022062,126.3333982,6,141,6,130,6,117,,,,,,,0,0,18,388,21.6,39,9.9
260,13137,S120001131,창기중학교,충청남도 태안군 안면읍 황도로 3-16,36.5775274,126.3336608,1,4,1,5,1,3,,,,,,,0,0,3,12,4.0,9,1.3
261,7958,S120000994,팔봉초등학교고파도분교장,충청남도 서산시 팔봉면 고파도3길 60,36.9101691,126.3341108,0,0,0,0,0,0,0.0,0.0,0.0,0.0,1.0,2.0,0,0,1,2,2.0,1,2.0
262,9258,S170000324,안덕초등학교,제주특별자치도 서귀포시 안덕면 화순로56번길 32,33.2505987,126.336046,1,6,1,5,1,3,1.0,11.0,1.0,11.0,1.0,7.0,1,2,7,45,6.4,8,5.6
263,9260,S170000324,안덕초등학교,제주특별자치도 서귀포시 안덕면 화순로56번길 32,33.2505987,126.336046,2,34,2,31,2,43,2.0,36.0,2.0,34.0,2.0,42.0,2,10,14,230,16.4,18,12.8
264,8014,S120001115,청룡초등학교장고분교장,충청남도 보령시 오천면 장고도2길 18,36.3889682,126.3362446,0,0,1,3,0,0,0.0,0.0,0.0,0.0,1.0,3.0,0,0,2,6,3.0,3,2.0
265,13800,S170000284,안덕중학교,제주특별자치도 서귀포시 안덕면 화순로 74,33.2490087,126.33749089999999,1,6,1,8,1,10,,,,,,,0,0,3,24,8.0,11,2.2
266,13802,S170000284,안덕중학교,제주특별자치도 서귀포시 안덕면 화순로 74,33.2490087,126.33749089999999,4,81,3,72,3,79,,,,,,,1,3,11,235,21.4,21,11.2
267,2993,S040001633,인천삼목초등학교장봉분교장,인천광역시 옹진군 북도면 장봉로 553,37.53391097,126.3376006,1,1,1,3,1,2,1.0,2.0,1.0,2.0,1.0,2.0,0,0,6,12,2.0,3,4.0
268,8032,S120001185,창기초등학교,충청남도 태안군 안면읍 황도로 72,36.5797355,126.33804779999998,1,9,1,3,1,5,1.0,6.0,1.0,3.0,1.0,1.0,0,0,6,27,4.5,7,3.9
269,3299,S140000946,운남초등학교,전라남도 무안군 운남면 운해로 543,34.95953794,126.33827340000002,4,77,5,95,5,109,5.0,100.0,6.0,117.0,5.0,99.0,2,10,32,607,19.0,38,16.0
270,3301,S140000946,운남초등학교,전라남도 무안군 운남면 운해로 543,34.95953794,126.33827340000002,1,4,1,7,1,9,1.0,14.0,1.0,13.0,1.0,12.0,0,0,6,59,9.8,8,7.4
271,5356,S140002040,오산초등학교,전라남도 진도군 고군면 진도대로 288,34.4919235,126.3417846,1,9,1,12,1,8,1.0,9.0,1.0,11.0,1.0,9.0,1,6,7,64,9.1,8,8.0
272,5362,S140002040,오산초등학교,전라남도 진도군 고군면 진도대로 288,34.4919235,126.3417846,4,90,3,80,4,101,4.0,93.0,4.0,108.0,4.0,101.0,2,11,25,584,23.4,29,20.1
273,5368,S140002040,오산초등학교,전라남도 진도군 고군면 진도대로 288,34.4919235,126.3417846,1,5,1,5,1,13,1.0,9.0,1.0,7.0,1.0,8.0,0,0,6,47,7.8,7,6.7
274,5374,S140002040,오산초등학교,전라남도 진도군 고군면 진도대로 288,34.4919235,126.3417846,1,14,1,9,1,11,1.0,14.0,1.0,13.0,1.0,8.0,1,4,7,73,10.4,8,9.1
275,5380,S140002040,오산초등학교,전라남도 진도군 고군면 진도대로 288,34.4919235,126.3417846,1,4,1,2,1,5,1.0,6.0,1.0,5.0,1.0,5.0,1,3,7,30,4.3,8,3.8
276,5386,S140002040,오산초등학교,전라남도 진도군 고군면 진도대로 288,34.4919235,126.3417846,1,10,1,17,1,13,1.0,12.0,1.0,16.0,1.0,20.0,0,0,6,88,14.7,7,12.6
277,13466,S140000925,망운중학교,전라남도 무안군 운남면 운해로 568-51,34.95868784,126.34240120000001,1,20,1,18,1,19,,,,,,,0,0,3,57,19.0,8,7.1
278,9712,S170000219,더럭초등학교,제주특별자치도 제주시 애월읍 하가로 195,33.4536332,126.3454814,1,17,1,22,1,12,1.0,20.0,1.0,12.0,1.0,23.0,0,0,6,106,17.7,8,13.3
279,8028,S120001161,안면초등학교,충청남도 태안군 안면읍 장터로 230,36.5279594,126.3471608,1,15,1,18,2,26,1.0,19.0,2.0,30.0,2.0,27.0,1,4,10,139,13.9,10,13.9
280,8023,S120001149,방포초등학교,충청남도 태안군 안면읍 꽃지해안로 519,36.506822799999995,126.34744599999999,1,5,1,7,1,3,1.0,4.0,1.0,7.0,1.0,9.0,0,0,6,35,5.8,7,5.0
281,13135,S120001128,안면중학교,충청남도 태안군 안면읍 조운막터길 43,36.509053,126.353963,2,37,3,66,2,53,,,,,,,1,3,8,159,19.9,17,9.4
282,8738,S140001274,압해동초등학교,전라남도 신안군 압해읍 압해로 378-6,34.8411696,126.3542649,1,4,1,4,1,6,1.0,9.0,1.0,9.0,1.0,11.0,0,0,6,43,7.2,8,5.4
283,8880,S140003262,의신초등학교모도분교장,전라남도 진도군 의신면 모도길 12-3,34.407583,126.355599,0,0,0,0,1,3,0.0,0.0,0.0,0.0,1.0,2.0,0,0,2,5,2.5,2,2.5
284,16061,S120000195,안면고등학교,충청남도 태안군 안면읍 조운막터길 73,36.5095093,126.35586599999999,3,47,3,42,3,49,,,,,,,1,3,10,141,14.1,21,6.7
285,7983,S120001089,오천초등학교삽시분교장,충청남도 보령시 오천면 삽시도1길 159-34,36.3501445,126.35846709999998,0,0,0,0,0,0,0.0,0.0,1.0,3.0,0.0,0.0,0,0,1,3,3.0,1,3.0
286,8678,S140000966,현경북초등학교,전라남도 무안군 현경면 현해로 757,35.05966289999999,126.3606045,1,1,1,3,1,4,1.0,4.0,1.0,5.0,1.0,5.0,0,0,6,22,3.7,7,3.1
287,13106,S120000943,팔봉중학교,충청남도 서산시 팔봉면 팔봉2로 133,36.782125,126.36115,2,51,2,53,3,55,,,,,,,0,0,7,159,22.7,14,11.4
288,7957,S120000993,팔봉초등학교,충청남도 서산시 팔봉면 한재무두리1길 233,36.827317,126.362475,1,13,1,8,1,9,1.0,12.0,1.0,9.0,1.0,8.0,0,0,6,59,9.8,7,8.4
289,2799,S040000375,해명초등학교,인천광역시 강화군 삼산면 삼산남로 345,37.66869823,126.3627091,1,4,1,3,1,5,1.0,6.0,1.0,3.0,1.0,5.0,1,2,7,28,4.0,8,3.5
290,8788,S140001689,염산초등학교,전라남도 영광군 염산면 칠산로 124,35.2209042,126.3671878,1,5,1,9,1,12,1.0,9.0,1.0,12.0,1.0,8.0,1,5,7,60,8.6,8,7.5
291,14075,S170000162,신엄중학교,제주특별자치도 제주시 애월읍 일주서로 6711,33.472286,126.36899,3,67,2,58,3,66,,,,,,,1,5,9,196,21.8,22,8.9
292,9739,S170000332,창천초등학교,제주특별자치도 서귀포시 안덕면 창천중앙로 12,33.263433899999995,126.3693091,1,6,1,8,1,5,1.0,6.0,1.0,7.0,1.0,8.0,0,0,6,40,6.7,9,4.4
293,8650,S140000855,목포서부초등학교,전라남도 목포시 원산로 27,34.802996,126.37143300000001,4,82,4,90,6,123,6.0,141.0,5.0,131.0,5.0,146.0,3,15,33,728,22.1,40,18.2
294,5770,S120000945,가사초등학교,충청남도 서산시 부석면 강경벌로 478,36.752533,126.3719,1,13,1,14,1,9,1.0,11.0,1.0,10.0,1.0,6.0,0,0,6,63,10.5,8,7.9
295,5772,S120000945,가사초등학교,충청남도 서산시 부석면 강경벌로 478,36.752533,126.3719,1,15,1,19,1,15,1.0,15.0,1.0,15.0,1.0,15.0,0,0,6,94,15.7,7,13.4
296,5804,S120001164,안중초등학교,충청남도 태안군 안면읍 율포길 31,36.473732,126.37227800000001,2,34,2,44,2,45,3.0,57.0,2.0,49.0,3.0,62.0,2,8,16,299,18.7,20,15.0
297,5806,S120001164,안중초등학교,충청남도 태안군 안면읍 율포길 31,36.473732,126.37227800000001,1,4,1,2,1,3,1.0,7.0,1.0,3.0,0.0,0.0,0,0,5,19,3.8,6,3.2
298,13454,S140000827,목포덕인중학교,전라남도 목포시 죽선로 39-2,34.7994614,126.37276670000001,5,142,5,147,5,150,,,,,,,0,0,15,439,29.3,28,15.7
299,13463,S140000839,목포혜인여자중학교,전라남도 목포시 죽선로 39-2,34.7994614,126.37276670000001,6,165,5,144,6,181,,,,,,,0,0,17,490,28.8,30,16.3
300,16288,S140000199,목포덕인고등학교,전라남도 목포시 죽선로 39-2,34.7994614,126.37276670000001,7,162,7,153,7,158,,,,,,,0,0,21,473,22.5,49,9.7
301,13537,S140001659,영광염산중학교,전라남도 영광군 염산면 칠산로2길 31,35.2205054,126.373282,1,13,1,18,1,7,,,,,,,0,0,3,38,12.7,9,4.2
302,8651,S140000856,목포서산초등학교,전라남도 목포시 유달로 28,34.781890000000004,126.374521,0,0,1,3,1,2,1.0,2.0,1.0,2.0,1.0,5.0,1,1,6,15,2.5,8,1.9
303,13464,S140000841,목포홍일중학교,전라남도 목포시 북항로 88,34.8017167,126.3746625,6,175,5,152,6,180,,,,,,,0,0,17,507,29.8,31,16.4
304,9687,S170000177,구엄초등학교,제주특별자치도 제주시 애월읍 일주서로 6768,33.47289373,126.3750123,1,26,1,22,2,31,2.0,43.0,3.0,53.0,1.0,24.0,1,8,11,207,18.8,14,14.8
305,16297,S140000212,목포홍일고등학교,전라남도 목포시 북항로 88,34.7998782,126.37619140000001,7,162,7,142,8,178,,,,,,,0,0,22,482,21.9,49,9.8
306,13461,S140000837,목포청호중학교,전라남도 목포시 연산백련로31번길,34.816594,126.377384,4,112,4,118,4,118,,,,,,,3,16,15,364,24.3,26,14.0
307,8646,S140000851,목포북교초등학교,전라남도 목포시 수문로 83,34.79622,126.378095,1,8,1,20,1,18,1.0,20.0,1.0,21.0,1.0,19.0,2,7,8,113,14.1,9,12.6
308,8798,S140001761,삼호서초등학교,전라남도 영암군 삼호읍 신항로 77,34.745459600000004,126.37855,2,39,2,36,3,47,3.0,59.0,3.0,60.0,5.0,64.0,1,4,19,309,16.3,22,14.0
309,8656,S140000864,목포유달초등학교,전라남도 목포시 영산로10번길 10,34.7858667,126.379125,1,10,1,8,1,14,1.0,13.0,1.0,14.0,1.0,19.0,0,0,6,78,13.0,7,11.1
310,13455,S140000829,목포여자중학교,전라남도 목포시 유동로 35,34.7850379,126.3801985,2,37,2,41,2,41,,,,,,,1,3,7,122,17.4,15,8.1
311,8642,S140000847,목포대성초등학교,전라남도 목포시 청호로 79,34.799554,126.38029099999999,4,83,3,64,3,65,3.0,77.0,3.0,74.0,2.0,57.0,2,9,20,429,21.5,23,18.7
312,8654,S140000861,목포연산초등학교,전라남도 목포시 원산중앙로 88,34.811265500000005,126.38053810000001,3,71,4,77,4,89,4.0,95.0,4.0,89.0,4.0,110.0,1,4,24,535,22.3,28,19.1
313,8908,S140004878,목포서해초등학교,전라남도 목포시 연산로 148,34.8105823,126.38156299999999,3,71,3,63,3,53,3.0,80.0,4.0,94.0,4.0,93.0,1,5,21,459,21.9,25,18.4
314,13458,S140000833,목포정명여자중학교,전라남도 목포시 삼일로 45,34.7954404,126.38346409999998,6,167,6,175,6,180,,,,,,,0,0,18,522,29.0,35,14.9
315,16294,S140000208,목포정명여자고등학교,전라남도 목포시 삼일로 45,34.795706,126.383524,8,183,8,167,8,180,,,,,,,0,0,24,530,22.1,53,10.0
316,13544,S140001733,삼호서중학교,전라남도 영암군 삼호읍 모밀항길 20,34.7474846,126.3838125,3,64,3,71,3,71,,,,,,,1,3,10,209,20.9,19,11.0
317,16292,S140000205,목포여자고등학교,전라남도 목포시 청호로 34,34.7980798,126.3844027,7,161,7,154,7,156,,,,,,,1,3,22,474,21.5,48,9.9
318,8069,S120002519,서산대진초등학교,충청남도 서산시 대산읍 기은아섬길 16,36.9775044,126.3845077,1,5,1,5,1,5,1.0,8.0,1.0,5.0,1.0,9.0,0,0,6,37,6.2,7,5.3
319,8644,S140000849,목포동초등학교,전라남도 목포시 산정로 245,34.8094667,126.387625,3,57,3,60,3,60,3.0,73.0,3.0,80.0,3.0,72.0,3,15,21,417,19.9,23,18.1
320,11287,S040000318,강서중학교,인천광역시 강화군 하점면 강화서로 909-19,37.77314567,126.3880827,1,4,1,12,1,9,,,,,,,1,2,4,27,6.8,12,2.3
321,11289,S040000318,강서중학교,인천광역시 강화군 하점면 강화서로 909-19,37.77314567,126.3880827,1,16,1,15,1,7,,,,,,,0,0,3,38,12.7,9,4.2
322,8647,S140000852,목포산정초등학교,전라남도 목포시 산대로 26,34.801404,126.389444,1,16,2,24,1,19,1.0,20.0,2.0,29.0,1.0,18.0,3,14,11,140,12.7,14,10.0
323,13457,S140000832,목포유달중학교,전라남도 목포시 산정로 171,34.8041416,126.38968740000001,4,96,4,103,4,95,,,,,,,3,18,15,312,20.8,26,12.0
324,8944,S140005523,목포백련초등학교,전라남도 목포시 연산백련로 40,34.81847,126.389917,7,177,8,179,8,185,7.0,196.0,7.0,178.0,5.0,144.0,2,12,44,1071,24.3,50,21.4
325,2680,S040000345,명신초등학교,인천광역시 강화군 하점면 강화서로560번길 22,37.74443564,126.39047040000001,1,11,1,12,1,14,1.0,8.0,1.0,10.0,1.0,5.0,0,0,6,60,10.0,8,7.5
326,1378,S170000200,장전초등학교,제주특별자치도 제주시 애월읍 장전로 122,33.449467999999996,126.39048799999999,5,101,3,76,4,104,5.0,107.0,5.0,111.0,5.0,115.0,1,8,28,622,22.2,32,19.4
327,1380,S170000200,장전초등학교,제주특별자치도 제주시 애월읍 장전로 122,33.449467999999996,126.39048799999999,3,54,2,50,3,54,3.0,50.0,3.0,61.0,2.0,51.0,0,0,16,320,20.0,19,16.8
328,8641,S140000846,목포남초등학교,전라남도 목포시 산정로21번길 22,34.79161,126.39092509999999,1,10,1,7,1,15,1.0,15.0,1.0,13.0,1.0,16.0,0,0,6,76,12.7,7,10.9
329,16399,,목포고등학교부설방송통신고등학교,전남 목포시 산정로224번길 11,34.8085031,126.39116899999999,3,58,3,66,3,61,,,,,,,0,0,9,185,20.6,19,9.7
330,2675,S040000338,내가초등학교,인천광역시 강화군 내가면 강화서로 264,37.72152697,126.3913387,1,3,1,8,1,11,1.0,4.0,1.0,6.0,1.0,4.0,1,1,7,37,5.3,8,4.6
331,9734,S170000327,예래초등학교,제주특별자치도 서귀포시 예래로 210-14,33.246329100000004,126.39138659999999,1,14,1,17,1,10,1.0,19.0,1.0,17.0,1.0,16.0,0,0,6,93,15.5,8,11.6
332,9694,S170000186,물메초등학교,제주특별자치도 제주시 애월읍 엄수로 202-4,33.466051,126.39141299999999,1,18,1,15,1,22,1.0,24.0,1.0,18.0,1.0,19.0,0,0,6,116,19.3,8,14.5
333,7942,S120000961,부석초등학교,충청남도 서산시 부석면 취평2길 37-6,36.7167346,126.392525,1,10,1,12,1,9,1.0,11.0,1.0,8.0,1.0,8.0,1,3,7,61,8.7,8,7.6
334,7944,S120000961,부석초등학교,충청남도 서산시 부석면 취평2길 37-6,36.7167346,126.392525,1,4,1,8,1,7,1.0,7.0,1.0,5.0,1.0,13.0,0,0,6,44,7.3,8,5.5
335,14944,S040000225,한국글로벌셰프고등학교,인천광역시 강화군 내가면 강화서로 184,37.71181505,126.3928199,4,80,4,74,4,77,,,,,,,0,0,12,231,19.3,25,9.2
336,14945,S040000225,한국글로벌셰프고등학교,인천광역시 강화군 내가면 강화서로 184,37.71181505,126.3928199,4,80,4,74,4,77,,,,,,,0,0,12,231,19.3,25,9.2
337,8663,S140000934,망운초등학교,전라남도 무안군 망운면 망운로 34,35.01627831,126.39373300000001,1,4,1,6,1,4,1.0,3.0,1.0,5.0,1.0,8.0,1,3,7,33,4.7,8,4.1
338,13096,S120000932,부석중학교,충청남도 서산시 부석면 무학로 1034,36.70916448,126.39377739999999,1,21,1,18,1,18,,,,,,,0,0,3,57,19.0,10,5.7
339,13098,S120000932,부석중학교,충청남도 서산시 부석면 무학로 1034,36.70916448,126.39377739999999,1,7,1,8,1,9,,,,,,,0,0,3,24,8.0,9,2.7
340,8653,S140000860,목포연동초등학교,전라남도 목포시 연동로17번길 9,34.796592700000005,126.39429960000001,1,10,1,19,1,24,1.0,19.0,2.0,30.0,1.0,27.0,1,3,8,132,16.5,10,13.2
341,16289,S140000200,목포마리아회고등학교,전라남도 목포시 양을로 229,34.8126169,126.39516100000002,7,162,7,146,7,158,,,,,,,0,0,21,466,22.2,46,10.1
342,16366,S140000305,목상고등학교,전라남도 목포시 소영길 13,34.807066299999995,126.3962367,7,158,7,155,7,159,,,,,,,2,8,23,480,20.9,45,10.7
343,8929,S140005309,목포용해초등학교,전라남도 목포시 포미로 35,34.818965399999996,126.39638799999999,5,113,4,82,5,104,5.0,116.0,6.0,152.0,6.0,158.0,2,13,33,738,22.4,41,18.0
344,8784,S140001676,백수서초등학교,전라남도 영광군 백수읍 지산길4길 50-11,35.2824161,126.3965616,0,0,1,2,1,2,1.0,3.0,1.0,2.0,1.0,6.0,0,0,5,15,3.0,6,2.5
345,8643,S140000848,목포대연초등학교,전라남도 목포시 용당로 374,34.82065,126.3990625,2,30,1,22,2,29,2.0,35.0,2.0,36.0,2.0,35.0,1,4,12,191,15.9,15,12.7
346,1072,S140001773,용당초등학교,전라남도 영암군 삼호읍 아산길 26-10,34.7619167,126.3996625,1,21,1,11,2,23,2.0,21.0,2.0,29.0,1.0,18.0,2,11,11,134,12.2,14,9.6
347,1075,S140001773,용당초등학교,전라남도 영암군 삼호읍 아산길 26-10,34.7619167,126.3996625,1,3,1,4,1,1,1.0,3.0,1.0,4.0,1.0,3.0,0,0,6,18,3.0,7,2.6
348,1078,S140001773,용당초등학교,전라남도 영암군 삼호읍 아산길 26-10,34.7619167,126.3996625,1,11,1,5,1,7,1.0,11.0,1.0,6.0,1.0,5.0,1,3,7,48,6.9,8,6.0
349,2784,S040000364,송해초등학교,인천광역시 강화군 송해면 전망대로 93-12,37.7,126.4,1,10,1,11,1,8,1.0,8.0,1.0,6.0,1.0,5.0,0,0,6,48,8.0,7,6.9
350,2798,S040000374,합일초등학교,인천광역시 강화군 강화읍 합일길 3,37.7,126.4,1,17,2,24,2,25,2.0,21.0,2.0,37.0,2.0,31.0,1,6,12,161,13.4,14,11.5
351,2843,S040000491,인천승학초등학교,인천광역시 미추홀구 주승로 259,37.2,126.4,3,75,3,73,4,82,4.0,81.0,4.0,90.0,4.0,85.0,2,11,24,497,20.7,29,17.1
352,2867,S040000645,인천남촌초등학교,인천광역시 남동구 남촌로 101,37.4,126.4,3,60,3,67,3,56,3.0,58.0,4.0,87.0,3.0,80.0,2,7,21,415,19.8,24,17.3
353,8110,S120002915,서산서남초등학교,충청남도 서산시 예천2로 19,36.7,126.4,8,206,7,188,6,172,6.0,167.0,6.0,160.0,5.0,134.0,2,10,40,1037,25.9,46,22.5
354,8652,S140000859,목포신흥초등학교,전라남도 목포시 교육로 10,34.7,126.4,4,88,4,100,4,90,5.0,112.0,4.0,110.0,5.0,116.0,0,0,26,616,23.7,30,20.5
355,8785,S140001678,백수초등학교,전라남도 영광군 백수읍 백수로10길 21,35.2,126.4,1,15,1,7,1,8,1.0,10.0,1.0,12.0,1.0,7.0,0,0,7,60,8.6,8,7.5
356,11304,S040000329,심도중학교,인천광역시 강화군 화도면 마니산로 703-20,37.6,126.4,1,14,1,13,1,7,,,,,,,0,0,3,34,11.3,10,3.4
357,11738,S140001734,삼호중학교,전라남도 영암군 삼호읍 방아제로 102,34.7,126.4,2,27,3,57,4,69,,,,,,,1,6,10,159,15.9,21,7.6
358,11740,S140001734,삼호중학교,전라남도 영암군 삼호읍 방아제로 102,34.7,126.4,8,180,5,145,7,182,,,,,,,1,4,21,511,24.3,38,13.4
359,13532,S140001655,영광백수중학교,전라남도 영광군 백수읍 백수로 875,35.2,126.4,1,6,1,1,1,7,,,,,,,0,0,3,14,4.7,8,1.8
360,13621,S140005312,목포하당중학교,전라남도 목포시 삼향천로 119,34.8,126.4,6,162,5,145,6,177,,,,,,,3,15,20,499,25.0,35,14.3
361,14108,S170000835,노형중학교,제주특별자치도 제주시 노형1길 28,33.4,126.4,13,375,13,397,13,412,,,,,,,2,11,41,1195,29.1,73,16.4
362,15390,S090000580,부천공업고등학교,경기도 부천시 경인로120번길 82,37.2,126.4,9,133,11,172,12,140,,,,,,,2,10,34,455,13.4,74,6.1
363,7956,S120000991,차동초등학교,충청남도 서산시 인지면 차동길 140,36.776625,126.40056299999999,2,20,1,15,1,20,1.0,10.0,1.0,20.0,1.0,15.0,1,6,8,106,13.3,9,11.8
364,8655,S140000863,목포용호초등학교,전라남도 목포시 용당로 139,34.800059000000005,126.400624,2,34,2,33,2,40,2.0,31.0,2.0,44.0,2.0,37.0,2,7,14,226,16.1,16,14.1
365,8648,S140000853,목포삼학초등학교,전라남도 목포시 남해로39번길 8,34.791285200000004,126.4007617,3,56,2,46,3,63,3.0,78.0,3.0,63.0,3.0,70.0,1,6,18,382,21.2,23,16.6
366,16042,S120000169,부석고등학교,충청남도 서산시 부석면 무학로 1180-9,36.71916823,126.40117590000001,5,121,5,112,5,117,,,,,,,0,0,15,350,23.3,32,10.9
367,9707,S170000209,하귀초등학교,제주특별자치도 제주시 애월읍 하귀로 44,33.479818,126.401975,2,48,2,42,2,53,2.0,48.0,2.0,52.0,2.0,41.0,1,10,13,294,22.6,16,18.4
368,7924,S120000946,강당초등학교,충청남도 서산시 부석면 인정로 183,36.66221498,126.40206029999999,1,12,1,9,1,10,1.0,8.0,1.0,11.0,1.0,6.0,0,0,6,56,9.3,8,7.0
369,13465,S140000842,문태중학교,전라남도 목포시 용당로 138,34.800575,126.4030875,6,178,6,184,6,183,,,,,,,0,0,18,545,30.3,33,16.5
370,16299,S140000215,문태고등학교,전라남도 목포시 용당로 138,34.800575,126.4030875,7,162,7,160,7,161,,,,,,,0,0,21,483,23.0,42,11.5
371,16287,S140000198,목포공업고등학교,전라남도 목포시 용당로 100,34.795537,126.403782,9,181,9,155,11,214,,,,,,,2,13,31,563,18.2,61,9.2
372,8019,S120001134,고남초등학교,충청남도 태안군 고남면 안면대로 4189,36.426440899999996,126.4041705,1,5,1,11,1,4,1.0,9.0,1.0,7.0,1.0,4.0,0,0,6,40,6.7,7,5.7
373,8541,S000003504,광주교육대학교목포부설초등학교,전라남도 목포시 안태길 13,34.807916299999995,126.40472340000002,3,72,3,72,3,72,3.0,71.0,3.0,69.0,3.0,69.0,1,4,19,429,22.6,22,19.5
374,14083,S170000173,귀일중학교,제주특별자치도 제주시 애월읍 항몽로 44,33.479193,126.4055,6,174,5,141,6,158,,,,,,,0,0,17,473,27.8,28,16.9
375,8657,S140000867,목포이로초등학교,전라남도 목포시 이로로9번길 3,34.8051417,126.4067608,5,101,5,103,5,108,5.0,143.0,4.0,109.0,5.0,133.0,3,15,32,712,22.3,45,15.8
376,8845,S140002109,손불서초등학교,전라남도 함평군 손불면 양재길 15,35.156818200000004,126.4068397,1,2,1,7,1,7,1.0,7.0,1.0,3.0,1.0,6.0,0,0,6,32,5.3,8,4.0
377,13459,S140000835,목포제일중학교,전라남도 목포시 삼학로 277,34.7961513,126.40726090000001,5,128,6,155,6,150,,,,,,,0,0,17,433,25.5,31,14.0
378,13456,S140000830,목포영화중학교,전라남도 목포시 영산로 413-2,34.8073583,126.4091375,6,164,6,171,6,183,,,,,,,0,0,18,518,28.8,33,15.7
379,16293,S140000206,목포여자상업고등학교,전라남도 목포시 영산로 413-3,34.8073583,126.4091375,9,159,10,152,11,169,,,,,,,0,0,30,480,16.0,60,8.0
380,16290,S140000202,목포성신고등학교,전라남도 목포시 상동로 87-1,34.815632,126.40938529999998,3,59,3,51,3,36,,,,,,,0,0,9,146,16.2,22,6.6
381,540,S120000958,명지초등학교,충청남도 서산시 대산읍 명지3로 25,36.971685,126.4098,5,122,5,120,5,121,5.0,120.0,5.0,104.0,5.0,98.0,0,0,30,685,22.8,30,22.8
382,544,S120000958,명지초등학교,충청남도 서산시 대산읍 명지3로 25,36.971685,126.4098,9,227,9,254,8,200,9.0,218.0,10.0,255.0,7.0,185.0,1,6,53,1345,25.4,62,21.7
383,548,S120000958,명지초등학교,충청남도 서산시 대산읍 명지3로 25,36.971685,126.4098,7,162,6,139,6,133,6.0,128.0,7.0,157.0,7.0,150.0,2,9,41,878,21.4,49,17.9
384,552,S120000958,명지초등학교,충청남도 서산시 대산읍 명지3로 25,36.971685,126.4098,1,7,1,22,1,7,1.0,16.0,1.0,7.0,1.0,8.0,0,0,6,67,11.2,7,9.6
385,13157,S120002525,서산명지중학교,충청남도 서산시 대산읍 명지1로 15,36.967634600000004,126.4102875,1,17,2,35,2,25,,,,,,,0,0,5,77,15.4,16,4.8
386,13474,S140000931,무안현경중학교,전라남도 무안군 현경면 장군로 23,35.0239996,126.41085509999999,1,14,1,16,1,17,,,,,,,1,3,4,50,12.5,11,4.5
387,8854,S140002173,산이서초등학교,전라남도 해남군 산이면 산이로 1736,34.67684536,126.41088219999999,1,3,1,5,1,5,1.0,14.0,1.0,7.0,1.0,18.0,1,2,7,54,7.7,8,6.8
388,13462,S140000838,목포항도여자중학교,전라남도 목포시 상동로21번길 111,34.81645,126.4111125,2,38,3,66,3,78,,,,,,,0,0,8,182,22.8,16,11.4
389,8649,S140000854,목포상동초등학교,전라남도 목포시 상동로21번길 73,34.813632299999995,126.4116601,1,13,1,16,1,15,1.0,21.0,1.0,14.0,1.0,22.0,1,5,7,106,15.1,9,11.8
390,2849,S040000500,인천용유초등학교,인천광역시 중구 남북로 87,37.44825087,126.41237360000001,1,6,1,3,1,13,1.0,9.0,1.0,5.0,1.0,8.0,1,2,7,46,6.6,8,5.8
391,11332,S040000432,용유중학교,인천광역시 중구 남북로87번길 4,37.44825087,126.41237360000001,1,9,1,13,1,21,,,,,,,1,5,4,48,12.0,12,4.0
392,8156,S130000612,선유도초등학교,전라북도 군산시 옥도면 선유북길 89-1,35.811605,126.4127469,0,0,1,1,0,0,1.0,2.0,1.0,1.0,0.0,0.0,0,0,3,4,1.3,3,1.3
393,13194,S130000563,선유도중학교,전라북도 군산시 옥도면 선유북길 89-1,35.811907,126.413347,1,1,1,1,1,1,,,,,,,0,0,3,3,1.0,8,0.4
394,8679,S140000967,현경초등학교,전라남도 무안군 현경면 황토길 17,35.0196416,126.4141317,1,9,1,11,1,12,1.0,15.0,1.0,10.0,1.0,12.0,1,5,7,74,10.6,8,9.3
395,2797,S040000373,하점초등학교,인천광역시 강화군 하점면 강화대로 1190,37.77373255,126.4142155,1,7,1,10,1,3,1.0,14.0,1.0,8.0,1.0,11.0,0,0,6,53,8.8,6,8.8
396,9768,S170000839,하귀일초등학교,제주특별자치도 제주시 애월읍 하귀9길 42,33.483420100000004,126.4153643,4,100,4,99,4,103,5.0,119.0,4.0,94.0,4.0,97.0,1,6,26,618,23.8,30,20.6
397,8930,S140005310,목포항도초등학교,전라남도 목포시 텃골로33번길 94-8,34.8162583,126.4154625,6,150,6,140,6,148,6.0,156.0,6.0,166.0,6.0,152.0,0,0,36,912,25.3,41,22.2
398,11329,S140000843,영흥중학교,전라남도 목포시 삼각로43번길 9,34.8051752,126.4166473,2,37,2,29,2,40,,,,,,,1,4,7,110,15.7,14,7.9
399,11331,S140000843,영흥중학교,전라남도 목포시 삼각로43번길 9,34.8051752,126.4166473,7,207,7,212,7,204,,,,,,,0,0,21,623,29.7,40,15.6
400,16351,S140000288,영흥고등학교,전라남도 목포시 삼각로43번길 9,34.8051752,126.4166473,7,156,7,142,7,158,,,,,,,0,0,21,456,21.7,47,9.7
401,2800,S040000378,화도초등학교,인천광역시 강화군 화도면 마니산로 717,37.63183902,126.41877959999998,1,8,1,15,1,11,1.0,16.0,1.0,13.0,2.0,23.0,1,2,8,88,11.0,9,9.8
402,2802,S040000378,화도초등학교,인천광역시 강화군 화도면 마니산로 717,37.63183902,126.41877959999998,5,140,5,115,6,162,7.0,172.0,8.0,191.0,7.0,174.0,2,10,40,964,24.1,47,20.5
403,13640,,목포중앙여자중학교부설방송통신중학교,전남 목포시 백년대로280번길 24,34.8008497,126.4189619,2,39,2,43,1,25,,,,,,,0,0,5,107,21.4,18,5.9
404,8661,S140000871,목포하당초등학교,전라남도 목포시 백년대로307번길 27,34.806416799999994,126.41910959999998,1,23,2,28,2,34,2.0,33.0,2.0,35.0,2.0,40.0,2,9,13,202,15.5,14,14.4
405,13460,S140000836,목포중앙여자중학교,전라남도 목포시 백년대로280번길 24,34.801308299999995,126.41915,6,156,6,156,6,167,,,,,,,2,8,20,487,24.4,36,13.5
406,7946,S120000962,부석초등학교간월도분교장,충청남도 서산시 부석면 간월달발길 57,36.610470899999996,126.4193273,0,0,1,2,0,0,0.0,0.0,1.0,4.0,1.0,3.0,0,0,3,9,3.0,4,2.3
407,2785,S040000367,양도초등학교,인천광역시 강화군 양도면 강화남로 1036,37.68894912,126.41939540000001,1,9,1,11,1,9,1.0,14.0,1.0,10.0,1.0,10.0,1,3,7,66,9.4,8,8.3
408,2787,S040000367,양도초등학교,인천광역시 강화군 양도면 강화남로 1036,37.68894912,126.41939540000001,4,97,4,105,4,99,6.0,146.0,5.0,135.0,5.0,141.0,1,7,29,730,25.2,35,20.9
409,8670,S140000942,삼향북초등학교,전라남도 무안군 삼향읍 원지산길 66,34.879471,126.41999299999999,1,5,1,2,1,7,1.0,7.0,1.0,2.0,1.0,12.0,1,4,7,39,5.6,8,4.9
410,2789,S040000368,양사초등학교,인천광역시 강화군 양사면 덕하로 145,37.80316851,126.4215318,1,4,1,9,1,5,1.0,4.0,1.0,8.0,1.0,4.0,1,5,7,39,5.6,8,4.9
411,2791,S040000368,양사초등학교,인천광역시 강화군 양사면 덕하로 145,37.80316851,126.4215318,2,27,2,34,2,27,2.0,38.0,1.0,22.0,2.0,49.0,2,9,14,208,14.9,16,13.0
412,8662,S140000872,목포한빛초등학교,전라남도 목포시 교육로66번길 22,34.803369,126.422409,3,61,3,61,3,52,3.0,56.0,3.0,77.0,2.0,52.0,1,7,18,366,20.3,20,18.3
413,11293,S040000323,동광중학교,인천광역시 강화군 양도면 강화남로 704,37.66235691,126.4232202,1,22,1,21,1,19,,,,,,,0,0,3,62,20.7,9,6.9
414,11296,S040000323,동광중학교,인천광역시 강화군 양도면 강화남로 704,37.66235691,126.4232202,2,54,3,68,4,106,,,,,,,1,10,10,238,23.8,21,11.3
415,11299,S040000323,동광중학교,인천광역시 강화군 양도면 강화남로 704,37.66235691,126.4232202,1,14,1,10,1,8,,,,,,,0,0,3,32,10.7,7,4.6
416,8151,S130000604,무녀도초등학교,전라북도 군산시 옥도면 무녀도2길 33,35.804672700000005,126.4237271,1,4,0,0,0,0,0.0,0.0,1.0,2.0,1.0,4.0,0,0,3,10,3.3,3,3.3
417,8931,S140005311,목포석현초등학교,전라남도 목포시 옥암로186번길 20,34.81519,126.42446000000001,6,151,7,167,6,145,7.0,195.0,8.0,207.0,7.0,177.0,1,4,42,1046,24.9,50,20.9
418,16291,S140000204,목포중앙고등학교,전라남도 목포시 지적로 36,34.835021399999995,126.42492079999998,6,118,6,96,6,98,,,,,,,0,0,18,312,17.3,37,8.4
419,2313,S120000988,인지초등학교,충청남도 서산시 인지면 둔산1길 1,36.755833,126.425475,5,106,4,87,5,118,5.0,122.0,5.0,119.0,6.0,136.0,1,7,31,695,22.4,38,18.3
420,2315,S120000988,인지초등학교,충청남도 서산시 인지면 둔산1길 1,36.755833,126.425475,3,52,2,49,3,53,3.0,54.0,2.0,46.0,3.0,61.0,1,8,17,323,19.0,21,15.4
421,14918,S040000195,산마을고등학교,인천광역시 강화군 양도면 강화남로1002번길 73-29,37.6863631,126.425601,1,12,1,14,1,18,,,,,,,0,0,3,44,14.7,10,4.4
422,16785,S170000773,제주외국어고등학교,제주특별자치도 제주시 애월읍 고성남길 34,33.433989000000004,126.42580900000002,4,101,4,93,4,87,,,,,,,0,0,12,281,23.4,29,9.7
423,2991,S040001467,인천용유초등학교무의분교장,인천광역시 중구 대무의로 302-17,37.39008403,126.42600829999999,0,0,0,0,0,0,1.0,1.0,0.0,0.0,1.0,3.0,0,0,2,4,2.0,2,2.0
424,11045,S120000941,인지중학교,충청남도 서산시 인지면 무학로 1654-9,36.7500336,126.42687579999999,6,154,8,198,8,205,,,,,,,1,4,23,561,24.4,44,12.8
425,11047,S120000941,인지중학교,충청남도 서산시 인지면 무학로 1654-9,36.7500336,126.42687579999999,3,54,3,63,3,71,,,,,,,1,4,10,192,19.2,21,9.1
426,8660,S140000870,목포청호초등학교,전라남도 목포시 옥암로96번길 25,34.8099248,126.4276837,3,52,3,53,2,45,3.0,77.0,3.0,79.0,3.0,77.0,2,10,19,393,20.7,22,17.9
427,13587,S140002096,함평손불중학교,전라남도 함평군 손불면 손불중앙길 7-6,35.144042,126.427725,1,5,1,15,1,10,,,,,,,0,0,3,30,10.0,8,3.8
428,8210,S140002211,황산초등학교,전라남도 해남군 황산면 시등로 150,34.5759833,126.42855,1,8,1,4,1,5,1.0,4.0,1.0,6.0,1.0,4.0,1,2,7,33,4.7,8,4.1
429,8213,S140002211,황산초등학교,전라남도 해남군 황산면 시등로 150,34.5759833,126.42855,1,4,1,13,1,10,2.0,26.0,1.0,17.0,1.0,8.0,1,2,8,80,10.0,9,8.9
430,8216,S140002211,황산초등학교,전라남도 해남군 황산면 시등로 150,34.5759833,126.42855,6,145,6,158,6,160,6.0,168.0,7.0,169.0,7.0,176.0,1,3,39,979,25.1,46,21.3
431,14090,S170000286,중문중학교,제주특별자치도 서귀포시 천제연로232번길 10,33.250278,126.42887350000001,6,159,6,158,6,161,,,,,,,1,5,19,483,25.4,36,13.4
432,5288,S140000956,청계초등학교,전라남도 무안군 청계면 영산로 1870,34.92575758,126.4291497,7,173,7,167,7,176,6.0,156.0,6.0,159.0,5.0,132.0,2,9,40,972,24.3,46,21.1
433,5290,S140000956,청계초등학교,전라남도 무안군 청계면 영산로 1870,34.92575758,126.4291497,1,11,1,17,1,11,2.0,26.0,1.0,25.0,1.0,25.0,1,2,8,117,14.6,9,13.0
434,16364,S140000303,전남예술고등학교,전라남도 무안군 삼향읍 삼향중앙로 31,34.8467924,126.4297138,5,142,5,135,5,151,,,,,,,1,7,16,435,27.2,31,14.0
435,9738,S170000331,중문초등학교,제주특별자치도 서귀포시 천제연로 231,33.252292,126.43006299999999,4,122,4,111,5,124,6.0,146.0,5.0,133.0,5.0,128.0,1,6,30,770,25.7,35,22.0
436,13473,S140000930,무안청계중학교,전라남도 무안군 청계면 도림길 15-5,34.915056,126.43024340000001,1,30,1,24,2,30,,,,,,,1,3,5,87,17.4,12,7.3
437,16295,S140000209,목포제일여자고등학교,전라남도 목포시 삼향천로 85,34.8076833,126.430725,7,161,7,155,7,158,,,,,,,2,10,23,484,21.0,53,9.1
438,4411,S120001072,광명초등학교,충청남도 보령시 오천면 원산도3길 151-11,36.37123629999999,126.4314014,3,38,3,62,3,59,3.0,71.0,4.0,82.0,4.0,83.0,2,11,22,406,18.5,26,15.6
439,4413,S120001072,광명초등학교,충청남도 보령시 오천면 원산도3길 151-11,36.37123629999999,126.4314014,1,1,1,3,1,3,1.0,5.0,1.0,4.0,1.0,1.0,0,0,6,17,2.8,7,2.4
440,9828,S120000938,서일중학교,충청남도 서산시 지곡면 화천3길 56,36.859724,126.43203799999999,11,341,11,358,11,357,,,,,,,1,5,34,1061,31.2,56,18.9
441,9830,S120000938,서일중학교,충청남도 서산시 지곡면 화천3길 56,36.859724,126.43203799999999,3,83,3,91,3,75,,,,,,,0,0,9,249,27.7,16,15.6
442,15174,S120000182,서일고등학교,충청남도 서산시 지곡면 화천3길 56,36.859724,126.43203799999999,9,178,9,183,9,212,,,,,,,0,0,27,573,21.2,55,10.4
443,15176,S120000182,서일고등학교,충청남도 서산시 지곡면 화천3길 56,36.859724,126.43203799999999,6,157,6,137,6,164,,,,,,,0,0,18,458,25.4,34,13.5
444,8671,S140000943,삼향초등학교,전라남도 무안군 삼향읍 삼향중앙로 84,34.8428591,126.43252920000002,2,39,2,47,2,50,2.0,47.0,2.0,48.0,2.0,37.0,2,7,14,275,19.6,17,16.2
445,7903,S120000898,삼봉초등학교난지분교장,충청남도 당진시 석문면 난지1길 155,37.0484,126.43325,0,0,0,0,0,0,0.0,0.0,1.0,2.0,0.0,0.0,0,0,1,2,2.0,1,2.0
446,8846,S140002110,손불초등학교,전라남도 함평군 손불면 손불중앙길 121,35.145514,126.43344099999999,1,3,1,4,1,8,1.0,11.0,1.0,9.0,1.0,12.0,0,0,6,47,7.8,7,6.7
447,8645,S140000850,목포부영초등학교,전라남도 목포시 통일대로75번길 24,34.802850799999995,126.4335919,1,23,2,34,2,41,2.0,50.0,2.0,41.0,3.0,67.0,1,3,13,259,19.9,15,17.3
448,9756,S170000454,외도초등학교,제주특별자치도 제주시 일주서로 7368,33.4927409,126.4342679,9,231,9,255,9,244,10.0,272.0,9.0,236.0,9.0,254.0,2,20,57,1512,26.5,65,23.3
449,7926,S120000951,대산초등학교,충청남도 서산시 대산읍 구진로 40-5,36.940276000000004,126.43515,2,43,3,63,2,46,2.0,53.0,3.0,56.0,3.0,57.0,0,0,15,318,21.2,18,17.7
450,7930,S120000951,대산초등학교,충청남도 서산시 대산읍 구진로 40-5,36.940276000000004,126.43515,1,3,1,2,1,4,1.0,2.0,1.0,5.0,1.0,4.0,0,0,6,20,3.3,7,2.9
451,7934,S120000951,대산초등학교,충청남도 서산시 대산읍 구진로 40-5,36.940276000000004,126.43515,1,18,1,12,1,15,1.0,7.0,1.0,12.0,1.0,19.0,1,5,7,88,12.6,9,9.8
452,7938,S120000951,대산초등학교,충청남도 서산시 대산읍 구진로 40-5,36.940276000000004,126.43515,1,5,1,1,1,6,1.0,8.0,1.0,9.0,1.0,9.0,1,1,7,39,5.6,8,4.9
453,16346,S140000280,영산성지고등학교,전라남도 영광군 백수읍 성지로 1218-6,35.3219,126.4357625,2,27,2,12,2,19,,,,,,,0,0,6,58,9.7,13,4.5
454,7947,S120000963,부성초등학교,충청남도 서산시 지곡면 화천1로 83,36.864924,126.435825,4,76,3,72,3,75,4.0,82.0,4.0,82.0,4.0,87.0,1,7,23,481,20.9,28,17.2
455,8658,S140000868,목포임성초등학교,전라남도 목포시 신지마을1길 41,34.8251562,126.43645749999999,1,9,1,16,1,9,1.0,15.0,1.0,10.0,1.0,15.0,1,5,7,79,11.3,10,7.9
456,9686,S170000176,광령초등학교,제주특별자치도 제주시 애월읍 광성로 276,33.459468,126.43668799999999,3,66,2,52,3,63,2.0,54.0,3.0,61.0,2.0,49.0,1,8,16,353,22.1,19,18.6
457,8674,S140000953,청계남초등학교,전라남도 무안군 청계면 문화로 105,34.88437841,126.437977,1,8,1,10,1,7,1.0,5.0,1.0,3.0,1.0,7.0,0,0,6,40,6.7,7,5.7
458,16122,S120002600,대산고등학교,충청남도 서산시 대산읍 대산1로 36,36.9362191,126.4383493,6,154,6,135,6,156,,,,,,,1,6,19,451,23.7,40,11.3
459,2793,S040000371,조산초등학교,인천광역시 강화군 양도면 강화남로 510,37.65296022,126.43862279999999,1,8,1,5,1,9,1.0,3.0,1.0,9.0,1.0,6.0,1,3,7,43,6.1,9,4.8
460,2795,S040000371,조산초등학교,인천광역시 강화군 양도면 강화남로 510,37.65296022,126.43862279999999,1,6,1,7,1,5,1.0,7.0,1.0,7.0,1.0,7.0,0,0,6,39,6.5,7,5.6
461,8907,S140004877,목포미항초등학교,전라남도 목포시 미항로 211,34.8011595,126.4393703,2,44,3,60,3,56,3.0,69.0,2.0,49.0,2.0,54.0,1,4,16,336,21.0,17,19.8
462,8791,S140001700,홍농서초등학교,전라남도 영광군 홍농읍 홍농로4길 30,35.418442999999996,126.440125,1,6,1,5,1,2,1.0,5.0,1.0,2.0,1.0,6.0,0,0,6,26,4.3,7,3.7
463,13091,S120000930,대산중학교,충청남도 서산시 대산읍 충의로 1856,36.93326502,126.44040279999999,2,49,3,58,3,61,,,,,,,1,2,9,170,18.9,17,10.0
464,13093,S120000930,대산중학교,충청남도 서산시 대산읍 충의로 1856,36.93326502,126.44040279999999,1,8,1,7,1,14,,,,,,,0,0,3,29,9.7,8,3.6
465,8933,S140005341,목포애향초등학교,전라남도 목포시 당가두로38번길 23,34.8091903,126.44198929999999,4,82,4,86,4,99,4.0,102.0,4.0,109.0,5.0,111.0,0,0,25,589,23.6,29,20.3
466,2995,S040001664,인천공항초등학교신도분교장,인천광역시 옹진군 북도면 신도로896번길 18-31,37.52007788,126.4427781,0,0,1,2,0,0,1.0,6.0,0.0,0.0,1.0,4.0,0,0,3,12,4.0,3,4.0
467,13101,S120000934,서산부춘중학교,충청남도 서산시 부춘2로 42,36.78625,126.443688,5,152,6,160,6,172,,,,,,,1,5,18,489,27.2,33,14.8
468,7959,S120000996,학돌초등학교,충청남도 서산시 부춘1로 35,36.78500220000001,126.44489740000002,5,98,4,102,3,78,4.0,105.0,4.0,105.0,3.0,82.0,3,16,26,586,22.5,29,20.2
469,7948,S120000964,부춘초등학교,충청남도 서산시 양유정3로 9,36.778942,126.44593799999998,6,122,4,106,5,125,5.0,131.0,4.0,118.0,6.0,152.0,1,6,31,760,24.5,41,18.5
470,8675,S140000954,청계북초등학교,전라남도 무안군 청계면 사마길 8,34.956961,126.446262,1,6,1,5,1,7,1.0,3.0,1.0,8.0,1.0,7.0,0,0,6,36,6.0,7,5.1
471,8855,S140002175,산이초등학교,전라남도 해남군 산이면 비석길 95-2,34.6437545,126.44679840000002,1,3,1,3,1,6,1.0,5.0,1.0,9.0,1.0,6.0,1,4,7,36,5.1,8,4.5
472,13542,S140001662,영광홍농중학교,전라남도 영광군 홍농읍 상하길 109,35.401952,126.44723,2,44,2,55,2,55,,,,,,,1,2,7,156,22.3,14,11.1
473,13599,S140002157,황산중학교,전라남도 해남군 황산면 관두길 24,34.5808,126.44725,1,16,1,20,1,23,,,,,,,0,0,3,59,19.7,10,5.9
474,5839,S170000466,도평초등학교,제주특별자치도 제주시 도평길 17,33.4807782,126.44728590000001,1,19,1,6,1,9,1.0,6.0,1.0,8.0,1.0,8.0,0,0,6,56,9.3,7,8.0
475,5842,S170000466,도평초등학교,제주특별자치도 제주시 도평길 17,33.4807782,126.44728590000001,1,7,1,7,1,8,1.0,9.0,1.0,11.0,1.0,6.0,1,1,7,49,7.0,10,4.9
476,5845,S170000466,도평초등학교,제주특별자치도 제주시 도평길 17,33.4807782,126.44728590000001,3,66,3,72,3,69,3.0,65.0,2.0,54.0,2.0,49.0,1,8,17,383,22.5,21,18.2
477,16776,S170000144,중문고등학교,제주특별자치도 서귀포시 일주서로570번길 19,33.2547479,126.44756029999999,5,114,5,105,5,107,,,,,,,2,11,17,337,19.8,33,10.2
478,8792,S140001701,홍농초등학교,전라남도 영광군 홍농읍 상하길 76-22,35.3991154,126.4476,2,35,2,36,2,37,3.0,51.0,2.0,37.0,2.0,55.0,1,5,14,256,18.3,17,15.1
479,7949,S120000971,서령초등학교,충청남도 서산시 남부순환로 749,36.744076,126.4477,2,25,2,39,2,39,2.0,43.0,2.0,39.0,2.0,47.0,1,4,13,236,18.2,15,15.7
480,13594,S140002145,산이중학교,전라남도 해남군 산이면 비석길 98-2,34.64550429999999,126.44839820000001,1,12,1,13,1,15,,,,,,,0,0,3,40,13.3,8,5.0
481,7952,S120000974,성연초등학교,충청남도 서산시 성연면 성연3로 57-10,36.824153,126.44890500000001,11,246,9,226,9,226,9.0,239.0,8.0,195.0,7.0,188.0,4,25,57,1345,23.6,64,21.0
482,2698,S040000354,삼성초등학교,인천광역시 강화군 불은면 중앙로 609,37.70762864,126.4496054,1,4,1,8,1,6,1.0,5.0,1.0,4.0,1.0,2.0,1,5,7,34,4.9,9,3.8
483,2707,S040000354,삼성초등학교,인천광역시 강화군 불은면 중앙로 609,37.70762864,126.4496054,5,132,6,152,5,119,7.0,168.0,6.0,141.0,6.0,139.0,2,14,37,865,23.4,44,19.7
484,2716,S040000354,삼성초등학교,인천광역시 강화군 불은면 중앙로 609,37.70762864,126.4496054,1,19,1,11,1,16,1.0,13.0,1.0,16.0,1.0,12.0,0,0,6,87,14.5,7,12.4
485,2725,S040000354,삼성초등학교,인천광역시 강화군 불은면 중앙로 609,37.70762864,126.4496054,1,5,1,4,1,5,1.0,9.0,1.0,14.0,1.0,7.0,0,0,6,44,7.3,7,6.3
486,2734,S040000354,삼성초등학교,인천광역시 강화군 불은면 중앙로 609,37.70762864,126.4496054,1,19,1,19,1,22,2.0,26.0,1.0,22.0,2.0,30.0,2,11,10,149,14.9,12,12.4
487,2743,S040000354,삼성초등학교,인천광역시 강화군 불은면 중앙로 609,37.70762864,126.4496054,1,4,1,6,1,8,1.0,12.0,1.0,7.0,1.0,8.0,0,0,6,45,7.5,7,6.4
488,2752,S040000354,삼성초등학교,인천광역시 강화군 불은면 중앙로 609,37.70762864,126.4496054,5,111,4,110,4,110,4.0,98.0,4.0,98.0,4.0,103.0,2,8,27,638,23.6,32,19.9
489,2761,S040000354,삼성초등학교,인천광역시 강화군 불은면 중앙로 609,37.70762864,126.4496054,3,51,2,47,2,35,2.0,49.0,2.0,45.0,2.0,51.0,1,6,14,284,20.3,16,17.8
490,2770,S040000354,삼성초등학교,인천광역시 강화군 불은면 중앙로 609,37.70762864,126.4496054,5,117,4,97,5,127,5.0,132.0,5.0,125.0,4.0,108.0,2,15,30,721,24.0,36,20.0
491,8083,S120002661,서산예천초등학교,충청남도 서산시 예천1로 3-21,36.7699648,126.44968429999999,6,161,5,126,4,114,6.0,153.0,5.0,128.0,5.0,146.0,1,5,32,833,26.0,36,23.1
492,8937,S140005409,목포영산초등학교,전라남도 목포시 남악1로16번길 25,34.807968,126.450096,5,112,5,105,6,134,5.0,131.0,5.0,136.0,5.0,135.0,2,11,33,764,23.2,41,18.6
493,8158,S130000616,신시도초등학교,전라북도 군산시 옥도면 신시도2길 18-5,35.8152291,126.4504176,0,0,0,0,0,0,1.0,2.0,0.0,0.0,1.0,2.0,0,0,2,4,2.0,2,2.0
494,13624,S140005343,목포옥암중학교,전라남도 목포시 남악1로42번길 59-6,34.8103,126.45273999999999,8,219,8,227,8,232,,,,,,,2,11,26,689,26.5,48,14.4
495,13530,S140001652,영광군남중학교,전라남도 영광군 군남면 포천길 13,35.2403081,126.4528878,1,7,1,8,1,11,,,,,,,1,5,4,31,7.8,9,3.4
496,8936,S140005376,목포옥암초등학교,전라남도 목포시 남악1로52번길 68-3,34.81132589999999,126.4529433,4,85,5,112,5,122,7.0,163.0,6.0,145.0,5.0,140.0,3,16,35,783,22.4,41,19.1
497,6931,S170000464,해안초등학교,제주특별자치도 제주시 해안마을길 76,33.4567942,126.45413159999998,1,4,1,2,1,5,0.0,0.0,1.0,6.0,1.0,5.0,0,0,5,22,4.4,6,3.7
498,6933,S170000464,해안초등학교,제주특별자치도 제주시 해안마을길 76,33.4567942,126.45413159999998,1,17,1,16,1,19,1.0,28.0,1.0,14.0,1.0,26.0,0,0,6,120,20.0,8,15.0
499,8786,S140001681,법성포초등학교,전라남도 영광군 법성면 용덕로 43,35.3604812,126.45432790000001,1,12,1,18,1,20,1.0,9.0,1.0,21.0,1.0,19.0,1,2,7,101,14.4,7,14.4
500,7951,S120000973,서산초등학교,충청남도 서산시 중앙로 38-1,36.7803655,126.4555298,3,57,2,53,3,69,3.0,61.0,2.0,48.0,3.0,61.0,2,14,18,363,20.2,22,16.5
501,13528,S140001649,법성중학교,전라남도 영광군 법성면 대덕길4길 147,35.3584785,126.45617050000001,1,17,1,17,1,29,,,,,,,1,2,4,65,16.3,11,5.9
502,8943,S140005504,목포부주초등학교,전라남도 목포시 남악2로22번길 37,34.808609999999994,126.45700000000001,6,133,6,152,6,157,7.0,185.0,6.0,152.0,5.0,143.0,0,0,36,922,25.6,43,21.4
503,13626,S140005437,목포애향중학교,전라남도 목포시 남악2로22번길 28-7,34.8070233,126.4570202,8,237,8,229,8,239,,,,,,,0,0,24,705,29.4,43,16.4
504,5396,S140001665,군남초등학교,전라남도 영광군 군남면 군불로 135,35.23652402,126.4574775,1,14,1,13,1,7,1.0,11.0,1.0,7.0,1.0,10.0,0,0,6,62,10.3,7,8.9
505,5399,S140001665,군남초등학교,전라남도 영광군 군남면 군불로 135,35.23652402,126.4574775,1,4,1,6,1,10,1.0,12.0,1.0,10.0,1.0,16.0,2,9,8,67,8.4,9,7.4
506,5402,S140001665,군남초등학교,전라남도 영광군 군남면 군불로 135,35.23652402,126.4574775,1,5,1,2,1,4,1.0,11.0,1.0,8.0,1.0,9.0,1,3,7,42,6.0,8,5.3
507,16304,S140000222,법성고등학교,전라남도 영광군 법성면 용덕로 66,35.3595971,126.45747820000001,3,40,3,31,3,39,,,,,,,0,0,9,110,12.2,20,5.5
508,13100,S120000933,서령중학교,충청남도 서산시 서령로 117,36.7923719,126.45822620000001,5,155,5,160,5,160,,,,,,,0,0,15,475,31.7,25,19.0
509,13103,S120000937,서산중학교,충청남도 서산시 덕지천로 90,36.768966999999996,126.45888799999999,10,296,11,317,10,295,,,,,,,1,6,32,914,28.6,55,16.6
510,16048,S120000176,서령고등학교,충청남도 서산시 서령로 117-1,36.793058,126.45925,9,254,9,219,9,249,,,,,,,0,0,27,722,26.7,49,14.7
511,13529,S140001651,성지송학중학교,전라남도 영광군 군서면 서금길 15,35.271663200000006,126.4593443,1,7,1,10,2,31,,,,,,,0,0,4,48,12.0,10,4.8
512,4849,S170000339,하원초등학교,제주특별자치도 서귀포시 월평하원로 149,33.2529793,126.4593476,3,77,3,69,3,60,3.0,65.0,3.0,80.0,3.0,81.0,1,3,19,435,22.9,24,18.1
513,4851,S170000339,하원초등학교,제주특별자치도 서귀포시 월평하원로 149,33.2529793,126.4593476,1,8,1,6,1,10,1.0,15.0,1.0,5.0,1.0,16.0,0,0,6,60,10.0,8,7.5
514,8793,S140001751,대불초등학교,전라남도 영암군 삼호읍 대불주거6로 41,34.75660739999999,126.46011940000001,5,81,4,72,4,97,3.0,82.0,5.0,91.0,3.0,80.0,1,5,25,508,20.3,29,17.5
515,7950,S120000972,서림초등학교,충청남도 서산시 덕지천로 104,36.767883000000005,126.460325,5,121,5,121,5,119,6.0,159.0,5.0,134.0,5.0,133.0,2,12,33,799,24.2,34,23.5
516,13104,S120000939,성연중학교,충청남도 서산시 성연면 성연로 210-4,36.836930100000004,126.461799,6,152,5,134,4,112,,,,,,,1,5,16,403,25.2,29,13.9
517,9751,S170000443,도리초등학교,제주특별자치도 제주시 도리로 129,33.501758,126.465275,2,40,2,42,2,53,2.0,49.0,2.0,43.0,2.0,47.0,1,7,13,281,21.6,15,18.7
518,8068,S120002518,서산석림초등학교,충청남도 서산시 동서1로 41-6,36.769571,126.46534299999999,4,73,3,78,4,101,4.0,89.0,5.0,125.0,5.0,114.0,2,10,27,590,21.9,32,18.4
519,8085,S120002666,서산동문초등학교,충청남도 서산시 쌍연북2로 31,36.7880947,126.4662696,5,109,6,152,5,123,6.0,143.0,6.0,152.0,6.0,154.0,2,11,36,844,23.4,42,20.1
520,2824,S040000465,영흥초등학교,인천광역시 옹진군 영흥면 영흥로 440-8,37.25379201,126.46687890000001,2,34,2,32,2,37,2.0,34.0,2.0,37.0,2.0,51.0,1,2,13,227,17.5,15,15.1
521,16298,S140000213,무안고등학교,전라남도 무안군 무안읍 성남1길 61-1,34.982757,126.467046,7,176,7,157,7,155,,,,,,,2,9,23,497,21.6,48,10.4
522,16051,S120000180,서산여자고등학교,충청남도 서산시 정주골6길 27,36.770035299999996,126.46742820000001,9,251,9,227,9,247,,,,,,,2,10,29,735,25.3,56,13.1
523,1352,S120000970,서동초등학교,충청남도 서산시 쌍연남1로 19-5,36.7837722,126.46752479999999,1,14,1,16,1,10,1.0,16.0,1.0,21.0,1.0,11.0,1,3,7,91,13.0,9,10.1
524,1354,S120000970,서동초등학교,충청남도 서산시 쌍연남1로 19-5,36.7837722,126.46752479999999,4,76,3,75,3,72,4.0,86.0,4.0,88.0,4.0,91.0,2,10,24,498,20.8,29,17.2
525,13102,S120000935,서산여자중학교,충청남도 서산시 정주골6길 11,36.768698799999996,126.4675307,9,282,9,284,11,338,,,,,,,1,7,30,911,30.4,53,17.2
526,13468,S140000927,무안북중학교,전라남도 무안군 무안읍 교촌길 38,34.9890969,126.4678506,4,104,4,108,4,102,,,,,,,1,6,13,320,24.6,24,13.3
527,13156,S120002524,서산석림중학교,충청남도 서산시 동서2로 8,36.7734964,126.46843729999999,6,184,7,188,7,222,,,,,,,2,11,22,605,27.5,40,15.1
528,16391,S140005325,남악고등학교,전라남도 무안군 삼향읍 남악4로60번 24,34.810401299999995,126.468814,8,209,8,201,8,208,,,,,,,2,14,26,632,24.3,55,11.5
529,16394,S140005410,삼호고등학교,전라남도 영암군 삼호읍 방아제로 84,34.7511279,126.4697519,6,117,6,121,6,123,,,,,,,3,17,21,378,18.0,40,9.5
530,9765,S170000791,백록초등학교,제주특별자치도 제주시 정존5길 62,33.4870501,126.4698267,5,141,6,150,5,134,7.0,174.0,6.0,172.0,6.0,152.0,1,5,36,928,25.8,44,21.1
531,8799,S140001762,삼호중앙초등학교,전라남도 영암군 삼호읍 중앙촌길 35,34.7470256,126.46989369999999,4,75,3,68,5,102,3.0,73.0,3.0,80.0,4.0,99.0,1,3,23,500,21.7,28,17.9
532,13625,S140005345,남악중학교,전라남도 무안군 삼향읍 남악4로60번길 38,34.8105692,126.47022379999999,9,264,6,188,9,270,,,,,,,1,5,25,727,29.1,46,15.8
533,16050,S120000178,서산중앙고등학교,충청남도 서산시 벌말1길 23,36.7782294,126.47117730000001,8,206,8,179,8,211,,,,,,,5,31,29,627,21.6,54,11.6
534,14923,S040000202,덕신고등학교,인천광역시 강화군 강화읍 고비고개로 45,37.74495901,126.47285159999998,3,88,3,58,3,62,,,,,,,0,0,9,208,23.1,23,9.0
535,8046,S120001232,신당초등학교,충청남도 홍성군 서부면 남당항로270번길 43,36.5477383,126.47355259999999,1,4,1,4,1,2,1.0,6.0,1.0,3.0,1.0,4.0,0,0,6,23,3.8,7,3.3
536,16300,S140000217,백제고등학교,전라남도 무안군 무안읍 무안로 422,34.981457299999995,126.4736406,5,125,5,111,5,123,,,,,,,0,0,15,359,23.9,31,11.6
537,14909,S040000183,강화고등학교,인천광역시 강화군 강화읍 고비고개로 20,37.74810605,126.4738595,6,152,6,154,6,138,,,,,,,2,8,20,452,22.6,38,11.9
538,8934,S140005346,남악초등학교,전라남도 무안군 삼향읍 남악영산길 6,34.812659000000004,126.47408100000001,6,139,6,156,7,165,7.0,196.0,7.0,199.0,7.0,198.0,2,12,42,1065,25.4,52,20.5
539,8938,S140005416,오룡초등학교,전라남도 무안군 삼향읍 남악5로22번길 34,34.8071922,126.4744124,9,205,9,206,9,225,10.0,282.0,9.0,254.0,9.0,257.0,2,10,57,1439,25.2,68,21.2
540,8268,S130000934,격포초등학교,전라북도 부안군 변산면 격포윗길 11,35.6260261,126.4744337,1,16,1,16,1,11,1.0,18.0,1.0,16.0,1.0,10.0,0,0,6,87,14.5,7,12.4
541,13630,S140005473,오룡중학교,전라남도 무안군 삼향읍 남악5로22번길 38,34.8078279,126.4752263,7,216,7,218,6,181,,,,,,,1,4,21,619,29.5,38,16.3
542,9749,S170000441,노형초등학교,제주특별자치도 제주시 노형로 383,33.484792999999996,126.475925,6,146,5,140,7,174,7.0,173.0,8.0,201.0,7.0,173.0,2,13,42,1020,24.3,50,20.4
543,8949,S140005585,무안행복초등학교,전라남도 무안군 일로읍 오룡중앙동로 38,34.8928342,126.47623229999999,12,280,10,266,8,227,9.0,252.0,7.0,204.0,7.0,189.0,1,3,54,1421,26.3,66,21.5
544,8665,S140000940,무안초등학교,전라남도 무안군 무안읍 면성2길 30,34.991568799999996,126.476699,4,74,4,80,3,74,4.0,93.0,4.0,84.0,4.0,94.0,2,10,25,509,20.4,34,15.0
545,8667,S140000940,무안초등학교,전라남도 무안군 무안읍 면성2길 30,34.991568799999996,126.476699,1,8,1,4,1,10,1.0,16.0,1.0,14.0,1.0,11.0,0,0,6,63,10.5,7,9.0
546,8857,S140002185,어란진초등학교,전라남도 해남군 송지면 어란로 441,34.351807,126.47719099999999,1,7,1,7,1,3,1.0,4.0,1.0,4.0,1.0,6.0,0,0,6,31,5.2,7,4.4
547,9722,S170000301,도순초등학교,제주특별자치도 서귀포시 도순남로 83,33.2473619,126.4773272,2,31,1,18,1,18,1.0,19.0,1.0,19.0,1.0,7.0,0,0,7,112,16.0,10,11.2
548,7766,S170000801,월랑초등학교,제주특별자치도 제주시 남녕로 63,33.492826,126.47795,10,230,9,240,9,204,9.0,219.0,9.0,214.0,8.0,197.0,3,18,57,1322,23.2,67,19.7
549,7768,S170000801,월랑초등학교,제주특별자치도 제주시 남녕로 63,33.492826,126.47795,3,77,4,91,4,103,5.0,127.0,5.0,127.0,5.0,135.0,1,4,27,664,24.6,32,20.8
550,5053,S140001667,군서초등학교,전라남도 영광군 군서면 군서로 50,35.25713652,126.4781571,5,109,4,94,5,95,5.0,100.0,5.0,90.0,6.0,115.0,2,14,32,617,19.3,36,17.1
551,5056,S140001667,군서초등학교,전라남도 영광군 군서면 군서로 50,35.25713652,126.4781571,1,5,1,4,1,3,1.0,3.0,1.0,5.0,1.0,4.0,1,4,7,28,4.0,7,4.0
552,5059,S140001667,군서초등학교,전라남도 영광군 군서면 군서로 50,35.25713652,126.4781571,1,7,1,5,1,2,1.0,6.0,1.0,9.0,1.0,6.0,0,0,6,35,5.8,8,4.4
553,8669,S140000941,삼향동초등학교,전라남도 무안군 삼향읍 극포길 25,34.838204,126.478249,2,20,1,14,1,17,1.0,15.0,1.0,15.0,1.0,16.0,2,7,9,104,11.6,11,9.5
554,9719,S170000295,강정초등학교,제주특별자치도 서귀포시 말질로 188,33.234992999999996,126.47876299999999,1,8,1,16,1,20,1.0,14.0,1.0,17.0,1.0,12.0,0,0,6,87,14.5,9,9.7
555,14910,S040000184,강화여자고등학교,인천광역시 강화군 강화읍 송악길 58,37.754344,126.478821,7,152,7,166,7,165,,,,,,,1,8,22,491,22.3,42,11.7
556,10196,S040000317,강남중학교,인천광역시 강화군 길상면 강화남로 62-2,37.64385157,126.479128,5,95,4,84,5,109,,,,,,,1,2,15,290,19.3,26,11.2
557,10198,S040000317,강남중학교,인천광역시 강화군 길상면 강화남로 62-2,37.64385157,126.479128,2,39,2,39,2,57,,,,,,,1,4,7,139,19.9,16,8.7
558,14908,S040000182,강남영상미디어고등학교,인천광역시 강화군 길상면 강화남로 57,37.64167491,126.4791477,3,53,3,49,3,64,,,,,,,3,13,12,179,14.9,24,7.5
559,16765,S170000127,제주제일고등학교,제주특별자치도 제주시 진군길 22,33.480146000000005,126.47967299999999,14,413,12,348,13,404,,,,,,,2,15,41,1180,28.8,82,14.4
560,2783,S040000360,선원초등학교,인천광역시 강화군 선원면 강화동로 924,37.71510402,126.4799905,2,43,2,27,2,41,2.0,46.0,2.0,42.0,2.0,47.0,1,3,13,249,19.2,15,16.6
561,15049,S040002186,인천영흥고등학교,인천광역시 옹진군 영흥면 내동로 107,37.265888000000004,126.480226,2,43,2,31,2,30,,,,,,,1,2,7,106,15.1,15,7.1
562,11328,S040000431,영흥중학교,인천광역시 옹진군 영흥면 내동로 107,37.265939,126.480276,2,37,2,29,2,40,,,,,,,1,4,7,110,15.7,14,7.9
563,11330,S040000431,영흥중학교,인천광역시 옹진군 영흥면 내동로 107,37.265939,126.480276,7,207,7,212,7,204,,,,,,,0,0,21,623,29.7,40,15.6
564,16786,,제주제일고등학교부설방송통신고등학교,제주 제주시 진군길 22,33.480280699999994,126.4805314,5,145,5,132,5,153,,,,,,,0,0,15,430,28.7,29,14.8
565,14098,S170000428,제주서중학교,제주특별자치도 제주시 일주서로 7811,33.494526,126.4809,12,347,13,378,14,428,,,,,,,2,10,41,1163,28.4,70,16.6
566,16783,S170000157,제주고등학교,제주특별자치도 제주시 1100로 3213,33.472418,126.48198799999999,9,228,9,219,9,234,,,,,,,3,29,30,710,23.7,65,10.9
567,13638,S140005586,무안행복중학교,전라남도 무안군 일로읍 오룡번영로 110,34.806,126.4825,6,172,9,247,5,131,,,,,,,0,0,20,550,27.5,36,15.3
568,16768,S170000130,남녕고등학교,제주특별자치도 제주시 도령로 55,33.489942,126.48260400000001,13,397,13,394,14,413,,,,,,,0,0,40,1204,30.1,79,15.2
569,5353,S120000977,오산초등학교,충청남도 서산시 덕지천로 436,36.746251,126.48295,1,9,1,12,1,8,1.0,9.0,1.0,11.0,1.0,9.0,1,6,7,64,9.1,8,8.0
570,5359,S120000977,오산초등학교,충청남도 서산시 덕지천로 436,36.746251,126.48295,4,90,3,80,4,101,4.0,93.0,4.0,108.0,4.0,101.0,2,11,25,584,23.4,29,20.1
571,5365,S120000977,오산초등학교,충청남도 서산시 덕지천로 436,36.746251,126.48295,1,5,1,5,1,13,1.0,9.0,1.0,7.0,1.0,8.0,0,0,6,47,7.8,7,6.7
572,5371,S120000977,오산초등학교,충청남도 서산시 덕지천로 436,36.746251,126.48295,1,14,1,9,1,11,1.0,14.0,1.0,13.0,1.0,8.0,1,4,7,73,10.4,8,9.1
573,5377,S120000977,오산초등학교,충청남도 서산시 덕지천로 436,36.746251,126.48295,1,4,1,2,1,5,1.0,6.0,1.0,5.0,1.0,5.0,1,3,7,30,4.3,8,3.8
574,5383,S120000977,오산초등학교,충청남도 서산시 덕지천로 436,36.746251,126.48295,1,10,1,17,1,13,1.0,12.0,1.0,16.0,1.0,20.0,0,0,6,88,14.7,7,12.6
575,11336,S040000436,인천공항중학교,인천광역시 중구 영종대로27번길 49,37.49774822,126.4841658,10,275,10,311,11,336,,,,,,,2,8,33,930,28.2,53,17.5
576,840,S170000449,신광초등학교,제주특별자치도 제주시 성신로 25,33.491787,126.484255,2,58,2,64,2,64,2.0,64.0,2.0,63.0,2.0,54.0,0,0,12,367,30.6,28,13.1
577,845,S170000449,신광초등학교,제주특별자치도 제주시 성신로 25,33.491787,126.484255,2,39,2,48,3,52,3.0,60.0,2.0,43.0,3.0,63.0,3,12,18,317,17.6,21,15.1
578,850,S170000449,신광초등학교,제주특별자치도 제주시 성신로 25,33.491787,126.484255,1,1,1,4,1,3,1.0,5.0,1.0,2.0,1.0,5.0,0,0,6,20,3.3,8,2.5
579,855,S170000449,신광초등학교,제주특별자치도 제주시 성신로 25,33.491787,126.484255,1,8,1,10,1,11,1.0,11.0,1.0,8.0,1.0,9.0,1,3,7,60,8.6,8,7.5
580,860,S170000449,신광초등학교,제주특별자치도 제주시 성신로 25,33.491787,126.484255,5,123,5,114,4,109,5.0,141.0,6.0,155.0,5.0,139.0,2,12,32,793,24.8,39,20.3
581,14107,S170000438,한라중학교,제주특별자치도 제주시 과원북2길 24,33.477787899999996,126.4851169,12,355,13,412,14,432,,,,,,,1,6,40,1205,30.1,74,16.3
582,14982,S040000259,인천공항고등학교,인천광역시 중구 신도시북로 20,37.49762976,126.48592620000001,8,231,7,186,9,258,,,,,,,1,5,25,680,27.2,46,14.8
583,2826,S040000471,인천공항초등학교,인천광역시 중구 신도시남로 43,37.4918637,126.4860019,4,68,4,77,4,80,4.0,73.0,4.0,91.0,5.0,99.0,2,10,27,498,18.4,32,15.6
584,2673,S040000331,강화초등학교,인천광역시 강화군 강화읍 북문길 36,37.75043078,126.4861703,2,31,2,38,2,49,2.0,51.0,3.0,59.0,3.0,72.0,2,8,16,308,19.3,18,17.1
585,2999,S040001725,인천삼목초등학교,인천광역시 중구 신도시북로 42,37.4986554,126.4864122,4,90,5,108,5,100,5.0,114.0,6.0,148.0,6.0,131.0,2,7,33,698,21.2,36,19.4
586,9764,S170000468,한라초등학교,제주특별자치도 제주시 연화로 42,33.47815,126.48651299999999,11,317,12,337,12,336,11.0,300.0,11.0,309.0,13.0,346.0,2,7,72,1952,27.1,78,25.0
587,2681,S040000349,불은초등학교,인천광역시 강화군 불은면 불은남로544번길 9,37.68366441,126.4875154,1,11,1,7,1,11,2.0,23.0,1.0,12.0,1.0,18.0,1,1,8,83,10.4,9,9.2
588,5462,S130000495,상하초등학교,전라북도 고창군 상하면 상하1길 36,35.444418799999994,126.488046,4,101,4,110,4,107,5.0,130.0,5.0,123.0,5.0,118.0,1,8,28,697,24.9,34,20.5
589,5464,S130000495,상하초등학교,전라북도 고창군 상하면 상하1길 36,35.444418799999994,126.488046,1,7,1,8,1,2,1.0,11.0,1.0,4.0,1.0,10.0,1,3,7,45,6.4,8,5.6
590,12551,S130000472,상하중학교,전라북도 고창군 상하면 상하1길 34,35.445342,126.48826799999999,4,115,5,153,5,153,,,,,,,0,0,14,421,30.1,25,16.8
591,12553,S130000472,상하중학교,전라북도 고창군 상하면 상하1길 34,35.445342,126.48826799999999,1,9,1,11,1,8,,,,,,,0,0,3,28,9.3,8,3.5
592,2676,S040000342,대월초등학교,인천광역시 강화군 강화읍 대월로 216,37.76061096,126.49017169999999,1,19,2,22,2,19,1.0,19.0,1.0,15.0,2.0,21.0,1,2,10,117,11.7,13,9.0
593,2678,S040000342,대월초등학교,인천광역시 강화군 강화읍 대월로 216,37.76061096,126.49017169999999,1,15,1,25,1,20,1.0,26.0,1.0,21.0,1.0,19.0,1,5,7,131,18.7,8,16.4
594,11292,S040000321,강화중학교,인천광역시 강화군 강화읍 동문로 53,37.7749827,126.490496,6,175,5,142,6,163,,,,,,,2,11,19,491,25.8,31,15.8
595,2674,S040000334,길상초등학교,인천광역시 강화군 길상면 삼랑성길 22,37.637793,126.490646,2,27,2,31,2,30,2.0,31.0,2.0,40.0,2.0,46.0,2,9,14,214,15.3,17,12.6
596,8159,S130000617,신시도초등학교야미도분교장,전라북도 군산시 옥도면 야미도3길 12,35.8419454,126.4921603,0,0,0,0,1,1,0.0,0.0,0.0,0.0,0.0,0.0,0,0,1,1,1.0,1,1.0
597,16377,S140000323,함평고등학교,전라남도 함평군 함평읍 함영로 1584-28,35.103716,126.49284540000001,4,74,4,63,4,71,,,,,,,0,0,12,208,17.3,27,7.7
598,13469,S140000929,무안중학교,전라남도 무안군 일로읍 죽사동길 15-5,34.8544987,126.4937875,1,30,1,26,1,29,,,,,,,1,3,4,88,22.0,11,8.0
599,13471,S140000929,무안중학교,전라남도 무안군 일로읍 죽사동길 15-5,34.8544987,126.4937875,1,9,1,7,1,16,,,,,,,0,0,3,32,10.7,8,4.0
600,6836,S130000489,동호초등학교,전라북도 고창군 해리면 신동호길 18,35.50755,126.4942625,2,34,2,42,2,47,3.0,56.0,3.0,55.0,2.0,52.0,1,6,15,292,19.5,18,16.2
601,6838,S130000489,동호초등학교,전라북도 고창군 해리면 신동호길 18,35.50755,126.4942625,0,0,1,5,1,6,0.0,0.0,0.0,0.0,1.0,5.0,0,0,3,16,5.3,4,4.0
602,11291,S040000320,강화여자중학교,인천광역시 강화군 강화읍 갑룡길 11,37.744093,126.49461000000001,6,165,7,169,6,166,,,,,,,1,5,20,505,25.3,32,15.8
603,8673,S140000950,일로초등학교,전라남도 무안군 일로읍 일로로 69,34.8506237,126.494975,2,26,2,33,1,19,2.0,36.0,2.0,38.0,2.0,30.0,1,6,12,188,15.7,14,13.4
604,13475,S140000932,전남체육중학교,전라남도 무안군 일로읍 일로로 126,34.8451404,126.497525,2,41,2,35,2,39,,,,,,,0,0,6,115,19.2,15,7.7
605,16389,S140004882,전남체육고등학교,전라남도 무안군 일로읍 일로로 126,34.8451404,126.497525,2,49,2,38,1,32,,,,,,,0,0,5,119,23.8,17,7.0
606,9753,S170000450,신제주초등학교,제주특별자치도 제주시 비월길 29,33.4831403,126.49786540000001,7,198,7,186,7,196,7.0,179.0,7.0,211.0,7.0,199.0,2,14,44,1183,26.9,49,24.1
607,838,S140002112,신광초등학교,전라남도 함평군 신광면 신광중앙길 118,35.157199,126.499175,2,58,2,64,2,64,2.0,64.0,2.0,63.0,2.0,54.0,0,0,12,367,30.6,28,13.1
608,843,S140002112,신광초등학교,전라남도 함평군 신광면 신광중앙길 118,35.157199,126.499175,2,39,2,48,3,52,3.0,60.0,2.0,43.0,3.0,63.0,3,12,18,317,17.6,21,15.1
609,848,S140002112,신광초등학교,전라남도 함평군 신광면 신광중앙길 118,35.157199,126.499175,1,1,1,4,1,3,1.0,5.0,1.0,2.0,1.0,5.0,0,0,6,20,3.3,8,2.5
610,853,S140002112,신광초등학교,전라남도 함평군 신광면 신광중앙길 118,35.157199,126.499175,1,8,1,10,1,11,1.0,11.0,1.0,8.0,1.0,9.0,1,3,7,60,8.6,8,7.5
611,858,S140002112,신광초등학교,전라남도 함평군 신광면 신광중앙길 118,35.157199,126.499175,5,123,5,114,4,109,5.0,141.0,6.0,155.0,5.0,139.0,2,12,32,793,24.8,39,20.3
612,7960,S120000997,해미초등학교,충청남도 서산시 해미면 성지1로 81,36.7,126.5,1,22,2,23,2,27,2.0,39.0,2.0,35.0,2.0,31.0,1,4,12,181,15.1,14,12.9
613,9748,S170000440,남광초등학교,제주특별자치도 제주시 남광로 28,33.4,126.5,7,190,7,173,7,183,8.0,213.0,8.0,202.0,7.0,188.0,2,13,46,1162,25.3,51,22.8
614,13271,S140002155,화산중학교,전라남도 해남군 화산면 연정길 29,34.4,126.5,4,102,4,97,4,87,,,,,,,1,1,13,287,22.1,34,8.4
615,13274,S140002155,화산중학교,전라남도 해남군 화산면 연정길 29,34.4,126.5,1,3,1,4,1,5,,,,,,,0,0,3,12,4.0,8,1.5
616,13277,S140002155,화산중학교,전라남도 해남군 화산면 연정길 29,34.4,126.5,1,1,1,6,1,7,,,,,,,0,0,3,14,4.7,7,2.0
617,13588,S140002097,함평신광중학교,전라남도 함평군 신광면 덕일길 35,35.2,126.5,1,2,1,4,1,4,,,,,,,0,0,3,10,3.3,8,1.3
618,13591,S140002100,함평중학교,전라남도 함평군 함평읍 영수길 275,35.0,126.5,4,87,4,77,5,97,,,,,,,1,4,14,265,18.9,28,9.5
619,14099,S170000429,아라중학교,제주특별자치도 제주시 간월동로 30,33.5,126.5,8,232,8,244,12,315,,,,,,,2,10,30,801,26.7,54,14.8
620,16771,S170000135,신성여자고등학교,제주특별자치도 제주시 아봉로 174-1,33.4,126.5,11,316,11,330,11,327,,,,,,,0,0,33,973,29.5,64,15.2
621,7918,S120000918,조금초등학교,충청남도 당진시 대호지면 4.4만세로 23,36.9013724,126.5000537,1,12,1,9,1,9,1.0,11.0,1.0,9.0,1.0,11.0,1,1,7,62,8.9,7,8.9
622,14102,S170000432,제주중앙중학교,제주특별자치도 제주시 선덕로5길 37,33.486616999999995,126.50052820000002,12,345,12,344,12,354,,,,,,,1,7,37,1050,28.4,67,15.7
623,8903,S140003962,넙도초등학교서리분교장,전라남도 완도군 노화읍 서넙도길 68,34.1883518,126.50108490000001,1,2,0,0,0,0,0.0,0.0,1.0,3.0,0.0,0.0,0,0,2,5,2.5,2,2.5
624,15046,S040002092,인천영종고등학교,인천광역시 중구 영종대로278번길 34,37.485279,126.50148359999999,9,119,9,153,14,381,,,,,,,1,6,33,659,20.0,64,10.3
625,8664,S140000938,몽탄초등학교,전라남도 무안군 몽탄면 몽탄로 878,34.92937501,126.50150020000001,1,7,1,6,1,2,1.0,7.0,1.0,6.0,1.0,5.0,1,2,7,35,5.0,9,3.9
626,16344,S140000277,영광공업고등학교,전라남도 영광군 영광읍 월현로 34,35.2794229,126.5024195,4,57,5,64,5,85,,,,,,,2,11,16,217,13.6,31,7.0
627,8881,S140003272,일로초등학교청망분교장,전라남도 무안군 일로읍 청포로 421,34.7928584,126.50302250000001,0,0,1,3,0,0,1.0,3.0,0.0,0.0,1.0,1.0,1,1,4,8,2.0,4,2.0
628,2672,S040000330,갑룡초등학교,인천광역시 강화군 강화읍 갑룡길 88,37.74331972,126.5036692,4,81,4,88,4,81,5.0,104.0,4.0,86.0,4.0,86.0,2,10,27,536,19.9,35,15.3
629,8810,S140001840,넙도초등학교,전라남도 완도군 노화읍 넙도길 294-31,34.1883439,126.5038262,0,0,1,3,1,2,1.0,5.0,1.0,2.0,1.0,5.0,0,0,5,17,3.4,6,2.8
630,13564,S140001841,넙도초등학교노화중학교넙도분교장,전라남도 완도군 노화읍 넙도길 294-31,34.1883439,126.5038262,0,0,1,3,0,0,,,,,,,1,1,2,4,2.0,4,1.0
631,13538,S140001661,영광중학교,전라남도 영광군 영광읍 옥당로 13-34,35.265946899999996,126.505728,2,56,3,65,3,70,,,,,,,1,6,9,197,21.9,18,10.9
632,13540,S140001661,영광중학교,전라남도 영광군 영광읍 옥당로 13-34,35.265946899999996,126.505728,5,114,5,121,5,119,,,,,,,0,0,15,354,23.6,25,14.2
633,8789,S140001693,영광중앙초등학교,전라남도 영광군 영광읍 천년로13길 57-9,35.2793,126.50635,4,72,3,69,4,87,3.0,71.0,4.0,83.0,3.0,72.0,1,5,22,459,20.9,27,17.0
634,14087,S170000281,서귀포대신중학교,제주특별자치도 서귀포시 신중로13번길 15,33.257137,126.506607,8,201,8,223,7,207,,,,,,,0,0,23,631,27.4,43,14.7
635,16340,S140000275,영광고등학교,전라남도 영광군 영광읍 옥당로 13-22,35.2665166,126.5067085,5,96,5,89,5,91,,,,,,,0,0,15,276,18.4,37,7.5
636,16342,S140000275,영광고등학교,전라남도 영광군 영광읍 옥당로 13-22,35.2665166,126.5067085,6,132,6,135,6,129,,,,,,,0,0,18,396,22.0,35,11.3
637,15048,S040002162,인천하늘고등학교,인천광역시 중구 영종대로277번길 117,37.49546742,126.50707820000001,8,227,8,223,8,207,,,,,,,0,0,24,657,27.4,53,12.4
638,8787,S140001685,불갑초등학교,전라남도 영광군 불갑면 강항로 7,35.21155170000001,126.50759280000001,1,7,1,6,1,4,1.0,11.0,1.0,6.0,1.0,7.0,0,0,6,41,6.8,7,5.9
639,14983,S040000260,인천과학고등학교,인천광역시 중구 영종대로277번길 74-37,37.49195484,126.5082592,4,83,4,79,4,46,,,,,,,0,0,12,208,17.3,33,6.3
640,9724,S170000305,법환초등학교,제주특별자치도 서귀포시 이어도로 879,33.237551,126.50865,2,39,2,32,1,31,2.0,37.0,2.0,42.0,1.0,31.0,0,0,10,212,21.2,12,17.7
641,8672,S140000948,일로동초등학교,전라남도 무안군 일로읍 광암길 81-7,34.8726487,126.5088375,1,6,1,4,1,7,1.0,4.0,1.0,9.0,1.0,2.0,1,6,7,38,5.4,8,4.8
642,14072,S000003567,제주대학교사범대학부설중학교,제주특별자치도 제주시 용담로7길 33,33.515508000000004,126.509125,8,222,8,219,8,222,,,,,,,2,9,26,672,25.8,53,12.7
643,13081,S120000871,당진중학교대호지분교장,충청남도 당진시 대호지면 4.4만세로 75-22,36.899487,126.50918529999998,1,6,1,3,1,7,,,,,,,0,0,3,16,5.3,8,2.0
644,16760,S000003566,제주대학교사범대학부설고등학교,제주특별자치도 제주시 용담로 65,33.5134586,126.5092382,10,291,8,235,10,269,,,,,,,2,18,30,813,27.1,58,14.0
645,13144,S120001205,홍성서부중학교,충청남도 홍성군 서부면 서부로 411,36.571222999999996,126.509344,1,10,1,12,1,11,,,,,,,1,3,4,36,9.0,10,3.6
646,15033,S040001817,인천국제고등학교,인천광역시 중구 영종대로277번길 74-40,37.48971435,126.50941370000001,6,139,6,136,6,119,,,,,,,0,0,18,394,21.9,49,8.0
647,13467,S140000926,무안몽탄중학교,전라남도 무안군 몽탄면 호동길 38-10,34.940061,126.510139,1,6,1,14,1,11,,,,,,,1,3,4,34,8.5,10,3.4
648,7920,S120000922,초락초등학교,충청남도 당진시 석문면 샛터말길 35,36.993359999999996,126.51016299999999,1,3,1,4,1,2,1.0,2.0,1.0,3.0,1.0,5.0,1,3,7,22,3.1,8,2.8
649,9762,S170000460,제주서초등학교,제주특별자치도 제주시 성화로6길 51,33.512233,126.510663,4,85,5,109,4,90,5.0,131.0,4.0,104.0,5.0,117.0,2,9,29,645,22.2,33,19.5
650,7953,S120000976,언암초등학교,충청남도 서산시 해미면 기지1길 27,36.707893,126.51101200000001,1,24,2,31,2,27,1.0,27.0,1.0,21.0,2.0,31.0,1,4,10,165,16.5,12,13.8
651,3954,S120001229,서부초등학교,충청남도 홍성군 서부면 서부로 505,36.579175799999994,126.5110128,9,154,6,154,7,154,6.0,160.0,6.0,127.0,5.0,130.0,1,6,40,885,22.1,47,18.8
652,3958,S120001229,서부초등학교,충청남도 홍성군 서부면 서부로 505,36.579175799999994,126.5110128,1,15,1,8,1,12,1.0,6.0,1.0,5.0,1.0,8.0,1,6,7,60,8.6,8,7.5
653,3962,S120001229,서부초등학교,충청남도 홍성군 서부면 서부로 505,36.579175799999994,126.5110128,2,34,2,29,2,36,2.0,36.0,2.0,32.0,2.0,41.0,1,4,13,212,16.3,15,14.1
654,3966,S120001229,서부초등학교,충청남도 홍성군 서부면 서부로 505,36.579175799999994,126.5110128,1,4,1,8,1,8,1.0,7.0,1.0,11.0,1.0,7.0,1,2,7,47,6.7,8,5.9
655,8017,S120001118,청파초등학교,충청남도 보령시 대천항로 235,36.3185036,126.51113799999999,1,6,1,12,1,11,1.0,11.0,1.0,5.0,1.0,17.0,1,4,7,66,9.4,8,8.3
656,8118,S130000485,공음초등학교,전라북도 고창군 공음면 공음길 20,35.376917799999994,126.51143689999999,1,2,1,3,1,6,1.0,8.0,1.0,4.0,1.0,8.0,1,2,7,33,4.7,8,4.1
657,6231,S120000956,동암초등학교,충청남도 서산시 음암면 동암마을길 14-3,36.76247573,126.5116885,5,134,5,134,6,154,6.0,140.0,6.0,143.0,7.0,177.0,1,3,36,885,24.6,43,20.6
658,6233,S120000956,동암초등학교,충청남도 서산시 음암면 동암마을길 14-3,36.76247573,126.5116885,1,13,1,13,1,14,1.0,17.0,1.0,19.0,1.0,15.0,0,0,6,91,15.2,7,13.0
659,2854,S040000507,인천운서초등학교,인천광역시 중구 운서2로 57,37.48356232,126.51202269999999,5,82,4,80,4,70,4.0,64.0,4.0,70.0,4.0,75.0,2,8,27,449,16.6,31,14.5
660,13179,S130000470,공음중학교,전라북도 고창군 공음면 공음길 74-6,35.3791568,126.5125501,1,14,1,7,1,5,,,,,,,0,0,3,26,8.7,8,3.3
661,8850,S140002122,함평초등학교,전라남도 함평군 함평읍 내대화길 77,35.0619171,126.51281780000001,2,39,3,57,3,66,3.0,57.0,3.0,74.0,3.0,66.0,2,8,19,367,19.3,25,14.7
662,7420,S170000462,한천초등학교,제주특별자치도 제주시 남성로11길 22,33.507345,126.51296200000002,1,16,2,23,2,20,2.0,28.0,2.0,23.0,3.0,65.0,1,5,13,180,13.8,16,11.3
663,7423,S170000462,한천초등학교,제주특별자치도 제주시 남성로11길 22,33.507345,126.51296200000002,1,9,1,4,1,7,1.0,4.0,1.0,4.0,1.0,8.0,0,0,6,36,6.0,7,5.1
664,7426,S170000462,한천초등학교,제주특별자치도 제주시 남성로11길 22,33.507345,126.51296200000002,2,35,2,43,2,48,2.0,50.0,2.0,41.0,2.0,43.0,0,0,12,260,21.7,15,17.3
665,9727,S170000310,새서귀초등학교,제주특별자치도 서귀포시 신서귀로76번길 6-3,33.256451,126.51316100000001,7,183,7,180,6,155,6.0,171.0,6.0,151.0,6.0,143.0,0,0,38,983,25.9,45,21.8
666,13543,S140001663,해룡중학교,전라남도 영광군 영광읍 중앙로 120,35.2692354,126.51343,2,57,3,68,3,76,,,,,,,0,0,8,201,25.1,15,13.4
667,16382,S140000330,해룡고등학교,전라남도 영광군 영광읍 중앙로 120,35.2692354,126.51343,8,162,8,153,8,172,,,,,,,0,0,24,487,20.3,52,9.4
668,9755,S170000453,오라초등학교,제주특별자치도 제주시 연사길 48,33.48950730000001,126.5135538,5,130,5,116,4,104,5.0,123.0,5.0,113.0,4.0,91.0,1,11,29,688,23.7,34,20.2
669,8847,S140002113,엄다초등학교,전라남도 함평군 엄다면 엄다길 35,35.0115753,126.5137162,1,3,1,6,1,4,1.0,3.0,1.0,4.0,1.0,5.0,0,0,6,25,4.2,7,3.6
670,13117,S120001055,대천서중학교,충청남도 보령시 대천항로 212,36.319429,126.51378600000001,1,13,1,23,1,23,,,,,,,1,4,4,63,15.8,10,6.3
671,16098,S120000258,충남해양과학고등학교,충청남도 보령시 대천항로 212,36.319429,126.51378600000001,4,80,4,76,4,76,,,,,,,0,0,12,232,19.3,24,9.7
672,8790,S140001694,영광초등학교,전라남도 영광군 영광읍 중앙로 216-7,35.278814000000004,126.514021,5,98,5,108,5,105,6.0,162.0,6.0,148.0,6.0,149.0,2,10,35,780,22.3,45,17.3
673,16376,S140000320,함평학다리고등학교,전라남도 함평군 함평읍 영수길 55,35.059548,126.515111,5,101,5,99,5,101,,,,,,,2,9,17,310,18.2,37,8.4
674,13533,S140001658,영광여자중학교,전라남도 영광군 영광읍 물무로3길 19,35.2780586,126.51522309999999,5,127,4,116,5,130,,,,,,,1,3,15,376,25.1,28,13.4
675,13535,S140001658,영광여자중학교,전라남도 영광군 영광읍 물무로3길 19,35.2780586,126.51522309999999,5,129,5,128,5,119,,,,,,,0,0,15,376,25.1,24,15.7
676,9763,S170000467,제주중앙초등학교,제주특별자치도 제주시 서사로18길 40,33.502385100000005,126.51568619999999,4,96,4,96,4,83,4.0,100.0,5.0,109.0,5.0,122.0,1,11,27,617,22.9,33,18.7
677,14631,S090000482,광명고등학교,경기도 광명시 오리로876번길 17,37.284290000000006,126.51574,5,85,5,67,6,95,,,,,,,0,0,16,247,15.4,33,7.5
678,14633,S090000482,광명고등학교,경기도 광명시 오리로876번길 17,37.284290000000006,126.51574,11,296,11,268,11,300,,,,,,,2,11,35,875,25.0,67,13.1
679,16312,S140000240,송지고등학교,전라남도 해남군 송지면 미야길 158-16,34.3846006,126.51624170000001,2,28,2,25,2,21,,,,,,,1,3,7,77,11.0,13,5.9
680,14106,S170000436,제주중학교,제주특별자치도 제주시 서문로 47,33.511936999999996,126.516374,7,186,6,180,7,179,,,,,,,0,0,20,545,27.3,38,14.3
681,13595,S140002146,송지중학교,전라남도 해남군 송지면 미야길 156,34.3842321,126.5164,1,28,1,28,2,31,,,,,,,1,2,5,89,17.8,13,6.8
682,6083,S140002203,화산초등학교,전라남도 해남군 화산면 화산초길 9,34.492351299999996,126.516575,2,47,2,49,2,51,3.0,70.0,3.0,80.0,3.0,76.0,2,11,17,384,22.6,17,22.6
683,6088,S140002203,화산초등학교,전라남도 해남군 화산면 화산초길 9,34.492351299999996,126.516575,2,50,2,45,2,39,2.0,40.0,2.0,49.0,2.0,43.0,1,5,13,271,20.8,15,18.1
684,6093,S140002203,화산초등학교,전라남도 해남군 화산면 화산초길 9,34.492351299999996,126.516575,1,11,1,1,1,6,1.0,12.0,1.0,11.0,1.0,17.0,1,2,7,60,8.6,8,7.5
685,6098,S140002203,화산초등학교,전라남도 해남군 화산면 화산초길 9,34.492351299999996,126.516575,1,4,1,5,1,4,1.0,10.0,1.0,2.0,1.0,3.0,1,3,7,31,4.4,9,3.4
686,6103,S140002203,화산초등학교,전라남도 해남군 화산면 화산초길 9,34.492351299999996,126.516575,1,5,0,0,1,3,0.0,0.0,1.0,5.0,1.0,10.0,0,0,4,23,5.8,6,3.8
687,6195,S140002102,기산초등학교,전라남도 함평군 함평읍 기산길 63,35.068178700000004,126.517119,4,88,4,103,4,97,4.0,112.0,5.0,131.0,5.0,134.0,1,6,27,671,24.9,34,19.7
688,6198,S140002102,기산초등학교,전라남도 함평군 함평읍 기산길 63,35.068178700000004,126.517119,1,1,1,5,1,0,1.0,7.0,1.0,2.0,1.0,7.0,1,3,7,25,3.6,8,3.1
689,6201,S140002102,기산초등학교,전라남도 함평군 함평읍 기산길 63,35.068178700000004,126.517119,1,4,0,0,1,2,1.0,5.0,1.0,7.0,1.0,10.0,1,3,6,31,5.2,7,4.4
690,13105,S120000940,음암중학교,충청남도 서산시 음암면 칠거리로 147,36.7903,126.518188,2,45,2,37,2,42,,,,,,,1,6,7,130,18.6,17,7.6
691,5118,S140002183,송호초등학교,전라남도 해남군 송지면 송호길 5,34.316733299999996,126.5184875,5,117,4,101,4,105,5.0,116.0,4.0,110.0,5.0,135.0,2,7,30,694,23.1,35,19.8
692,5120,S140002183,송호초등학교,전라남도 해남군 송지면 송호길 5,34.316733299999996,126.5184875,1,1,1,4,1,1,1.0,5.0,1.0,6.0,1.0,1.0,1,1,7,19,2.7,8,2.4
693,7955,S120000986,음암초등학교,충청남도 서산시 음암면 도당로 5,36.8007425,126.51919380000001,2,43,2,35,2,36,2.0,38.0,2.0,44.0,2.0,47.0,1,5,13,248,19.1,15,16.5
694,13589,S140002098,함평여자중학교,전라남도 함평군 함평읍 곤재로 13-7,35.057928000000004,126.5202102,1,23,1,24,2,28,,,,,,,1,2,5,77,15.4,12,6.4
695,8856,S140002181,송지초등학교,전라남도 해남군 송지면 산정1길 101,34.3691654,126.5203625,1,18,2,23,1,16,1.0,22.0,1.0,20.0,1.0,24.0,1,5,8,128,16.0,9,14.2
696,13245,S130000922,변산서중학교,전라북도 부안군 변산면 지서로 139,35.66294179999999,126.52049740000001,1,14,2,24,1,15,,,,,,,1,1,5,54,10.8,10,5.4
697,14101,S170000431,제주중앙여자중학교,제주특별자치도 제주시 서사로11길 8,33.50525,126.52111299999999,7,184,6,165,7,183,,,,,,,1,3,21,535,25.5,39,13.7
698,9759,S170000457,제주남초등학교,제주특별자치도 제주시 남성로 149,33.5099259,126.52131670000001,1,11,1,15,1,9,2.0,29.0,1.0,23.0,1.0,21.0,1,4,8,112,14.0,11,10.2
699,2992,S040001545,인천영종초등학교금산분교장,인천광역시 중구 백운로414번길 63-50,37.51342032,126.5214517,1,14,1,15,1,10,1.0,17.0,1.0,10.0,1.0,9.0,1,10,7,85,12.1,8,10.6
700,2780,S120001027,서도초등학교,충청남도 서천군 서면 공암남촌길31번길 33,36.15314,126.5216,0,0,0,0,0,0,0.0,0.0,1.0,3.0,0.0,0.0,1,1,2,4,2.0,2,2.0
701,2782,S120001027,서도초등학교,충청남도 서천군 서면 공암남촌길31번길 33,36.15314,126.5216,1,19,1,21,1,15,1.0,13.0,1.0,13.0,1.0,17.0,1,2,7,100,14.3,8,12.5
702,9761,S170000459,제주북초등학교,제주특별자치도 제주시 중앙로8길 18,33.5151927,126.52221180000001,2,38,2,37,2,43,2.0,37.0,2.0,34.0,2.0,38.0,1,7,13,234,18.0,16,14.6
703,7984,S120001096,오천초등학교,충청남도 보령시 오천면 충청수영로 822,36.43847067,126.5231081,1,5,1,2,1,1,1.0,6.0,1.0,5.0,1.0,3.0,0,0,6,22,3.7,7,3.1
704,7987,S120001096,오천초등학교,충청남도 보령시 오천면 충청수영로 822,36.43847067,126.5231081,1,2,1,3,1,3,1.0,6.0,1.0,2.0,1.0,4.0,0,0,6,20,3.3,7,2.9
705,7990,S120001096,오천초등학교,충청남도 보령시 오천면 충청수영로 822,36.43847067,126.5231081,3,53,3,61,2,46,3.0,67.0,3.0,63.0,3.0,73.0,2,11,19,374,19.7,22,17.0
706,11327,S040000430,영종중학교,인천광역시 중구 남디로 92,37.483493700000004,126.52475990000002,7,162,8,222,11,340,,,,,,,1,6,27,730,27.0,46,15.9
707,2706,S170000447,삼성초등학교,제주특별자치도 제주시 서광로29길 35,33.503292,126.52518799999999,1,4,1,8,1,6,1.0,5.0,1.0,4.0,1.0,2.0,1,5,7,34,4.9,9,3.8
708,2715,S170000447,삼성초등학교,제주특별자치도 제주시 서광로29길 35,33.503292,126.52518799999999,5,132,6,152,5,119,7.0,168.0,6.0,141.0,6.0,139.0,2,14,37,865,23.4,44,19.7
709,2724,S170000447,삼성초등학교,제주특별자치도 제주시 서광로29길 35,33.503292,126.52518799999999,1,19,1,11,1,16,1.0,13.0,1.0,16.0,1.0,12.0,0,0,6,87,14.5,7,12.4
710,2733,S170000447,삼성초등학교,제주특별자치도 제주시 서광로29길 35,33.503292,126.52518799999999,1,5,1,4,1,5,1.0,9.0,1.0,14.0,1.0,7.0,0,0,6,44,7.3,7,6.3
711,2742,S170000447,삼성초등학교,제주특별자치도 제주시 서광로29길 35,33.503292,126.52518799999999,1,19,1,19,1,22,2.0,26.0,1.0,22.0,2.0,30.0,2,11,10,149,14.9,12,12.4
712,2751,S170000447,삼성초등학교,제주특별자치도 제주시 서광로29길 35,33.503292,126.52518799999999,1,4,1,6,1,8,1.0,12.0,1.0,7.0,1.0,8.0,0,0,6,45,7.5,7,6.4
713,2760,S170000447,삼성초등학교,제주특별자치도 제주시 서광로29길 35,33.503292,126.52518799999999,5,111,4,110,4,110,4.0,98.0,4.0,98.0,4.0,103.0,2,8,27,638,23.6,32,19.9
714,2769,S170000447,삼성초등학교,제주특별자치도 제주시 서광로29길 35,33.503292,126.52518799999999,3,51,2,47,2,35,2.0,49.0,2.0,45.0,2.0,51.0,1,6,14,284,20.3,16,17.8
715,2778,S170000447,삼성초등학교,제주특별자치도 제주시 서광로29길 35,33.503292,126.52518799999999,5,117,4,97,5,127,5.0,132.0,5.0,125.0,4.0,108.0,2,15,30,721,24.0,36,20.0
716,9750,S170000442,도남초등학교,제주특별자치도 제주시 도남로8길 22,33.4935837,126.5254727,4,96,5,125,4,106,5.0,127.0,5.0,116.0,5.0,117.0,2,12,30,699,23.3,34,20.6
717,3285,S120001091,송학초등학교,충청남도 보령시 주교면 토정로 796-52,36.38000408,126.52694679999999,1,5,1,13,1,8,1.0,11.0,1.0,12.0,1.0,10.0,1,5,7,64,9.1,9,7.1
718,3288,S120001091,송학초등학교,충청남도 보령시 주교면 토정로 796-52,36.38000408,126.52694679999999,1,5,1,10,1,9,1.0,12.0,1.0,9.0,1.0,7.0,1,2,7,54,7.7,8,6.8
719,3291,S120001091,송학초등학교,충청남도 보령시 주교면 토정로 796-52,36.38000408,126.52694679999999,1,10,1,9,1,8,1.0,10.0,1.0,10.0,1.0,10.0,1,3,7,60,8.6,8,7.5
720,8277,S130000949,변산초등학교,전라북도 부안군 변산면 지서1길 11,35.663252,126.5285034,0,0,1,7,1,8,1.0,5.0,1.0,17.0,1.0,7.0,1,2,6,46,7.7,7,6.6
721,4889,S170000316,서호초등학교,제주특별자치도 서귀포시 호근남로 40,33.2538091,126.52879509999998,2,42,2,39,2,44,2.0,45.0,2.0,47.0,2.0,44.0,1,5,13,266,20.5,17,15.6
722,4891,S170000316,서호초등학교,제주특별자치도 서귀포시 호근남로 40,33.2538091,126.52879509999998,4,91,3,77,3,66,3.0,72.0,3.0,74.0,3.0,71.0,2,13,21,464,22.1,25,18.6
723,9758,S170000456,일도초등학교,제주특별자치도 제주시 삼성로9길 27,33.509978000000004,126.529261,1,18,1,19,1,21,2.0,27.0,2.0,29.0,2.0,30.0,2,10,11,154,14.0,13,11.8
724,9747,S170000439,광양초등학교,제주특별자치도 제주시 돈내길 5,33.502733,126.5296,2,27,2,31,2,43,2.0,30.0,2.0,53.0,1.0,26.0,1,4,12,214,17.8,14,15.3
725,3206,S050000422,광주양동초등학교,광주광역시 서구 경열로121번길 5,35.09,126.53,2,24,1,15,1,17,1.0,18.0,1.0,10.0,1.0,22.0,1,3,8,109,13.6,10,10.9
726,3034,S040001968,인천운남초등학교,인천광역시 중구 운남서로 38,37.49040114,126.5303098,2,49,3,59,3,51,4.0,83.0,3.0,71.0,3.0,72.0,1,5,19,390,20.5,24,16.3
727,7925,S120000948,고북초등학교,충청남도 서산시 고북면 고북3로 19,36.667193,126.53055,1,7,1,11,1,6,1.0,18.0,1.0,6.0,1.0,10.0,1,3,7,61,8.7,7,8.7
728,14967,S040000245,영종국제물류고등학교,인천광역시 중구 운남서로10번길 1,37.49006202,126.53113059999998,4,86,3,54,3,64,,,,,,,0,0,10,204,20.4,21,9.7
729,16782,S170000156,제주과학고등학교,제주특별자치도 제주시 산록북로 421-1,33.4266195,126.53144520000001,2,41,2,39,2,27,,,,,,,0,0,6,107,17.8,20,5.4
730,8009,S120001110,천북초등학교,충청남도 보령시 천북면 하궁길 45,36.48186,126.531575,1,4,1,7,1,6,1.0,6.0,1.0,5.0,1.0,9.0,1,4,7,41,5.9,8,5.1
731,8011,S120001110,천북초등학교,충청남도 보령시 천북면 하궁길 45,36.48186,126.531575,1,16,1,17,1,13,1.0,14.0,1.0,19.0,1.0,12.0,1,4,7,95,13.6,8,11.9
732,16764,S170000125,서귀포여자고등학교,제주특별자치도 서귀포시 태평로 80,33.243926,126.531625,7,196,7,185,7,183,,,,,,,0,0,21,564,26.9,48,11.8
733,9766,S170000834,이도초등학교,제주특별자치도 제주시 구남동2길 58,33.4881212,126.53199140000001,7,199,6,174,7,186,8.0,228.0,7.0,192.0,8.0,214.0,1,9,44,1202,27.3,50,24.0
734,8852,S140002125,대동향교초등학교,전라남도 함평군 대동면 대동길 6-9,35.068003999999995,126.5321426,1,11,1,2,1,12,1.0,10.0,1.0,11.0,1.0,15.0,1,4,7,65,9.3,9,7.2
735,8800,S140001763,서창초등학교,전라남도 영암군 삼호읍 서창호수길 4,34.728017,126.532706,1,7,1,8,1,9,1.0,7.0,1.0,12.0,1.0,12.0,1,4,7,59,8.4,8,7.4
736,8802,S140001763,서창초등학교,전라남도 영암군 삼호읍 서창호수길 4,34.728017,126.532706,3,53,2,45,2,37,4.0,68.0,2.0,47.0,3.0,69.0,3,19,19,338,17.8,22,15.4
737,15105,S050000142,살레시오고등학교,광주광역시 북구 모룡대길 67,35.13006,126.53308999999999,9,225,9,205,9,243,,,,,,,0,0,27,673,24.9,54,12.5
738,13084,S120000875,석문중학교,충청남도 당진시 석문면 대호로 1533-6,37.0119083,126.5331125,2,35,2,41,2,51,,,,,,,0,0,6,127,21.2,13,9.8
739,9760,S170000458,제주동초등학교,제주특별자치도 제주시 동문로 65,33.514458000000005,126.5333,3,77,4,87,3,73,4.0,94.0,4.0,88.0,4.0,86.0,2,13,24,518,21.6,31,16.7
740,16378,S140000324,함평골프고등학교,전라남도 함평군 학교면 학교길 77,35.026143700000006,126.53347350000001,2,37,2,27,2,38,,,,,,,0,0,6,102,17.0,17,6.0
741,13129,S120001063,천북중학교,충청남도 보령시 천북면 천광로 107,36.4833937,126.5335065,1,9,1,11,1,12,,,,,,,0,0,3,32,10.7,9,3.6
742,13090,S120000929,고북중학교,충청남도 서산시 고북면 고북1로 320-1,36.669932200000005,126.53392029999999,1,16,1,10,1,10,,,,,,,0,0,3,36,12.0,9,4.0
743,8122,S130000510,해리초등학교,전라북도 고창군 해리면 해리중앙로 152,35.465740000000004,126.53595,1,4,1,6,1,3,1.0,7.0,1.0,7.0,1.0,2.0,1,3,7,32,4.6,9,3.6
744,16775,S170000143,제주여자상업고등학교,제주특별자치도 제주시 동문로 89-1,33.515066999999995,126.53631200000001,8,197,8,184,8,189,,,,,,,1,8,25,578,23.1,52,11.1
745,8849,S140002117,학다리중앙초등학교,전라남도 함평군 학교면 백학길 100,35.012878,126.536859,1,8,1,8,1,12,1.0,17.0,1.0,17.0,1.0,18.0,1,3,7,83,11.9,10,8.3
746,16250,S130000463,해리고등학교,전라북도 고창군 해리면 해리중앙로 146,35.4658505,126.53805109999999,1,1,1,4,1,4,,,,,,,1,7,4,16,4.0,9,1.8
747,9757,S170000455,인화초등학교,제주특별자치도 제주시 신산로15길 35,33.5073704,126.5382426,6,153,6,153,7,169,8.0,199.0,8.0,214.0,8.0,203.0,2,13,45,1104,24.5,52,21.2
748,1384,S120001113,청룡초등학교,충청남도 보령시 대해로 646,36.3196206,126.53837279999999,3,79,4,82,4,82,4.0,90.0,4.0,81.0,4.0,81.0,2,14,25,509,20.4,29,17.6
749,1388,S120001113,청룡초등학교,충청남도 보령시 대해로 646,36.3196206,126.53837279999999,1,6,0,0,1,5,0.0,0.0,1.0,3.0,1.0,8.0,1,3,5,25,5.0,7,3.6
750,1392,S120001113,청룡초등학교,충청남도 보령시 대해로 646,36.3196206,126.53837279999999,1,1,1,6,1,8,1.0,11.0,1.0,8.0,1.0,8.0,0,0,6,42,7.0,7,6.0
751,1396,S120001113,청룡초등학교,충청남도 보령시 대해로 646,36.3196206,126.53837279999999,1,7,1,8,1,11,1.0,6.0,1.0,13.0,1.0,11.0,0,0,6,56,9.3,8,7.0
752,14111,,제주제일중학교부설방송통신중학교,제주 제주시 남광로 33,33.4952217,126.5387176,2,29,2,35,2,28,,,,,,,0,0,6,92,15.3,26,3.5
753,14100,S170000430,제주제일중학교,제주특별자치도 제주시 남광로 33,33.495201,126.53885,10,291,10,302,11,312,,,,,,,0,0,31,905,29.2,56,16.2
754,5254,S120000897,삼봉초등학교,충청남도 당진시 석문면 대호만로 1722-1,37.013153,126.539231,4,91,4,95,5,113,4.0,108.0,4.0,91.0,4.0,100.0,2,12,27,610,22.6,33,18.5
755,5256,S120000897,삼봉초등학교,충청남도 당진시 석문면 대호만로 1722-1,37.013153,126.539231,1,10,1,12,1,15,1.0,19.0,1.0,22.0,1.0,24.0,1,5,7,107,15.3,8,13.4
756,16766,S170000128,제주중앙여자고등학교,제주특별자치도 제주시 구남동5길 11,33.490935,126.53948799999999,14,403,12,354,12,371,,,,,,,2,17,40,1145,28.6,86,13.3
757,13181,S130000478,해리중학교,전라북도 고창군 해리면 해리중앙로 120,35.462916899999996,126.5396696,1,9,1,6,1,6,,,,,,,1,5,4,26,6.5,9,2.9
758,14096,S170000426,제주동여자중학교,제주특별자치도 제주시 천수로 24,33.502542,126.54046299999999,9,253,8,237,9,254,,,,,,,0,0,26,744,28.6,46,16.2
759,14105,S170000435,제주여자중학교,제주특별자치도 제주시 구산로 50,33.48206,126.54096299999999,7,191,7,202,7,186,,,,,,,0,0,21,579,27.6,38,15.2
760,16773,S170000137,제주여자고등학교,제주특별자치도 제주시 구산로 50,33.48206,126.54096299999999,11,318,11,330,11,330,,,,,,,0,0,33,978,29.6,68,14.4
761,11467,S040002149,인천하늘중학교,인천광역시 중구 찬들로284번길 16,37.483852,126.543535,10,254,10,312,1,32,,,,,,,1,6,22,604,27.5,38,15.9
