시설명,카테고리1,카테고리2,카테고리3,시도 명칭,시군구 명칭,법정읍면동명칭,리 명칭,번지,도로명 이름,건물 번호,위도,경도,우편번호,도로명주소,지번주소,전화번호,평일 운영시간,주말 운영시간,무료주차 가능여부,발렛주차 가능여부,유아의자 대여여부,휠체어 보유여부,애완동물 동반입장 가능여부,채식메뉴 보유여부,할랄음식 여부,글루텐프리 음식여부,최종작성일
0731양꼬치,음식점/유흥시설,동아시아음식,인도,경기도,안산시 단원구,원곡동,,764-9 번지,관산길,3 번,37.331773,126.796648,15374,경기도 안산시 단원구 관산길 3,경기도 안산시 단원구 원곡동  764-9,정보없음,정보없음,정보없음,무료주차 가능,발렛주차 불가,유아의자 대여 불가,휠체어 대여 불가,반려동물 동반 입장불가,채식 메뉴 없음,할랄음식 메뉴 없음,글루텐프리 메뉴 없음,2022-11-30
08001BARCELONA,음식점/유흥시설,동남아시아음식,기타,충청남도,공주시,중동,,147-279 번지,제민천3길,78 번,36.455338,127.123165,32547,충청남도 공주시 제민천3길 78,충청남도 공주시 중동  147-279,0507-1478-3666,"화-목 17시-23시,금 17시-24시",토 17시-24시,무료주차 가능,발렛주차 불가,유아의자 대여 불가,휠체어 대여 불가,반려동물 동반 입장불가,채식 메뉴 없음,할랄음식 메뉴 없음,글루텐프리 메뉴 없음,2022-11-30
10.5INCH,음식점/유흥시설,유럽음식,이탈리아,경기도,수원시 팔달구,남창동,,113-5 번지,행궁로,43 번,37.278747,127.015355,16261,경기도 수원시 팔달구 행궁로 43,경기도 수원시 팔달구 남창동  113-5,정보없음,정보없음,정보없음,무료주차 불가,발렛주차 불가,유아의자 대여 불가,휠체어 대여 불가,반려동물 동반 입장불가,채식 메뉴 없음,할랄음식 메뉴 없음,글루텐프리 메뉴 없음,2022-11-30
1000란무까타,음식점/유흥시설,동남아시아음식,기타,경기도,평택시,평택동,,291-9 번지,중앙2로,17 번,36.991785,127.088968,17909,경기도 평택시 중앙2로 17,경기도 평택시 평택동  291-9,정보없음,정보없음,정보없음,무료주차 가능,발렛주차 불가,유아의자 대여 불가,휠체어 대여 불가,반려동물 동반 입장불가,채식 메뉴 없음,할랄음식 메뉴 없음,글루텐프리 메뉴 없음,2022-11-30
100하노이쌀국수,음식점/유흥시설,동남아시아음식,베트남,서울특별시,중구,순화동,,217 번지,서소문로9길,28 번,37.563415,126.970594,4516,서울특별시 중구 서소문로9길 28,서울특별시 중구 순화동  217,02-318-4246,월-금 10시-20시,토-일 10시-20시,무료주차 불가,발렛주차 불가,유아의자 대여 불가,휠체어 대여 불가,반려동물 동반 입장불가,채식 메뉴 없음,할랄음식 메뉴 없음,글루텐프리 메뉴 없음,2022-11-30
1010아프리카유나이티드레스토랑,음식점/유흥시설,아프리카음식,아프리카,서울특별시,용산구,이태원동,,118-34 번지,이태원로,166 번,37.534206,126.992405,4391,서울특별시 용산구 이태원로 166,서울특별시 용산구 이태원동 118-34,070-8955-4851,월-금 0시-24시,토-일 0시-24시,무료주차 불가,발렛주차 불가,유아의자 대여 불가,휠체어 대여 불가,반려동물 동반 입장불가,채식 메뉴 없음,할랄음식 메뉴 없음,글루텐프리 메뉴 없음,2022-11-30
1011다이닝키친,음식점/유흥시설,유럽음식,이탈리아,광주광역시,남구,봉선동,,1011-20 번지,봉선1로36번길,1 번,35.127536,126.90933,61695,광주광역시 남구 봉선1로36번길 1,광주광역시 남구 봉선동  1011-20,0507-1327-1015,월-금 12시-22시,토 12시-14시30분,무료주차 불가,발렛주차 불가,유아의자 대여 불가,휠체어 대여 불가,반려동물 동반 입장불가,채식 메뉴 없음,할랄음식 메뉴 없음,글루텐프리 메뉴 없음,2022-11-30
11어클락,음식점/유흥시설,유럽음식,이탈리아,경상남도,창원시 성산구,남양동,,27-7 번지,가양로116번길,14 번,35.207975,128.705967,51481,경상남도 창원시 성산구 가양로116번길 14,경상남도 창원시 성산구 남양동  27-7,055-262-7188,월-금 11시-21시,토-일 11시-21시,무료주차 불가,발렛주차 불가,유아의자 대여 불가,휠체어 대여 불가,반려동물 동반 입장불가,채식 메뉴 없음,할랄음식 메뉴 없음,글루텐프리 메뉴 없음,2022-11-30
123포,음식점/유흥시설,동남아시아음식,베트남,경기도,파주시,문발동,,644 번지,문발로,284 번,37.71809,126.692539,10881,경기도 파주시 문발로 284,경기도 파주시 문발동  644,정보없음,정보없음,정보없음,무료주차 가능,발렛주차 불가,유아의자 대여 불가,휠체어 대여 불가,반려동물 동반 입장불가,채식 메뉴 없음,할랄음식 메뉴 없음,글루텐프리 메뉴 없음,2022-11-30
126,음식점/유흥시설,동남아시아음식,기타,서울특별시,광진구,구의동,,671 번지,광나루로39길,11 번,37.545494,127.088778,4977,서울특별시 광진구 광나루로39길 11,서울특별시 광진구 구의동  671,0507-1307-4825,화-금 11시-22시,"토 11시-22시,일 11시-15시",무료주차 가능,발렛주차 불가,유아의자 대여 불가,휠체어 대여 불가,반려동물 동반 입장불가,채식 메뉴 없음,할랄음식 메뉴 없음,글루텐프리 메뉴 없음,2022-11-30
128PAN,음식점/유흥시설,유럽음식,이탈리아,서울특별시,종로구,동숭동,,12-8 번지,동숭4길,14 번,37.583319,127.004397,3085,서울특별시 종로구 동숭4길 14,서울특별시 종로구 동숭동  12-8,정보없음,월-금 12시-22시,토-일 12시-22시,무료주차 불가,발렛주차 불가,유아의자 대여 불가,휠체어 대여 불가,반려동물 동반 입장불가,채식 메뉴 없음,할랄음식 메뉴 없음,글루텐프리 메뉴 없음,2022-11-30
12키친,음식점/유흥시설,유럽음식,이탈리아,대구광역시,수성구,상동,,408-3 번지,무학로11길,10 번,35.830107,128.615133,42168,대구광역시 수성구 무학로11길 10,대구광역시 수성구 상동  408-3,053-652-8007,월-금 11시30분-22시,토-일 11시30분-22시,무료주차 가능,발렛주차 불가,유아의자 대여 불가,휠체어 대여 불가,반려동물 동반 입장불가,채식 메뉴 없음,할랄음식 메뉴 없음,글루텐프리 메뉴 없음,2022-11-30
13애비뉴,음식점/유흥시설,유럽음식,이탈리아,경기도,성남시 수정구,심곡동,,327-2 번지,심곡로,13 번,37.449276,127.103649,13103,경기도 성남시 수정구 심곡로 13,경기도 성남시 수정구 심곡동  327-2,031-718-0013,월-금 11시30분-22시,토-일 11시30분-22시,무료주차 가능,발렛주차 불가,유아의자 대여 불가,휠체어 대여 불가,반려동물 동반 입장불가,채식 메뉴 없음,할랄음식 메뉴 없음,글루텐프리 메뉴 없음,2022-11-30
17테이블,음식점/유흥시설,유럽음식,이탈리아,부산광역시,금정구,장전동,,302-13 번지,금정로60번길,20 번,35.22959,129.087277,46292,부산광역시 금정구 금정로60번길 20,부산광역시 금정구 장전동  302-13,0507-1394-1718,"월,화,목,금 12시-21시",토-일 12시-21시,무료주차 불가,발렛주차 불가,유아의자 대여 불가,휠체어 대여 불가,반려동물 동반 입장불가,채식 메뉴 없음,할랄음식 메뉴 없음,글루텐프리 메뉴 없음,2022-11-30
1914 Lounge & Bar,음식점/유흥시설,유럽음식,이탈리아 프랑스,서울특별시,강남구,역삼동,,676 번지,테헤란로,231 번,37.502881,127.041357,6142,서울특별시 강남구 테헤란로 231,서울특별시 강남구 역삼동 676 센터필드,02-727-7640,"월-수 10시-24시,목-금 10시-01시","토 10시-01시,일 10시-24시",무료주차 불가,발렛주차 불가,유아의자 대여 불가,휠체어 대여 불가,반려동물 동반 입장불가,채식 메뉴 있음,할랄음식 메뉴 없음,글루텐프리 메뉴 없음,2022-11-30
1968쌀국수,음식점/유흥시설,동남아시아음식,베트남,대구광역시,수성구,만촌동,,948-3 번지,국채보상로200길,23 번,35.864776,128.640529,42048,대구광역시 수성구 국채보상로200길 23,대구광역시 수성구 만촌동  948-3,0507-1324-2252,화-금 11시30분-22시,"토 11시30분-22시,일 12시-22시",무료주차 불가,발렛주차 불가,유아의자 대여 불가,휠체어 대여 불가,반려동물 동반 입장불가,채식 메뉴 없음,할랄음식 메뉴 없음,글루텐프리 메뉴 없음,2022-11-30
1978Terrace,음식점/유흥시설,유럽음식,이탈리아,서울특별시,중구,예장동,,8-38 번지,소파로,95 번,37.556813,126.985348,4630,서울특별시 중구 소파로 95,서울특별시 중구 예장동 8-38 촛불 레스토랑,02-756-1978,"월,화,목,금 11시-14시",토-일 11시-14시,무료주차 가능,발렛주차 불가,유아의자 대여 불가,휠체어 대여 불가,반려동물 동반 입장불가,채식 메뉴 없음,할랄음식 메뉴 없음,글루텐프리 메뉴 없음,2022-11-30
1984나폴리 남산본점,음식점/유흥시설,유럽음식,이탈리아,부산광역시,금정구,남산동,,992-13 번지,금샘로,461-1 번,35.26422,129.084834,46234,부산광역시 금정구 금샘로 461-1,부산광역시 금정구 남산동  992-13,051-517-1984,월-금 11시30분-21시30분,토-일 11시30분-21시30분,무료주차 불가,발렛주차 불가,유아의자 대여 불가,휠체어 대여 불가,반려동물 동반 입장불가,채식 메뉴 없음,할랄음식 메뉴 없음,글루텐프리 메뉴 없음,2022-11-30
1984나폴리 동래직영점,음식점/유흥시설,유럽음식,이탈리아,부산광역시,동래구,온천동,,772-3 번지,중앙대로1381번길,56-3 번,35.211556,129.075076,47725,부산광역시 동래구 중앙대로1381번길 56-3,부산광역시 동래구 온천동  772-3,051-555-1984,"월,수-금 11시30분-21시",토-일 11시30분-21시,무료주차 가능,발렛주차 불가,유아의자 대여 불가,휠체어 대여 불가,반려동물 동반 입장불가,채식 메뉴 없음,할랄음식 메뉴 없음,글루텐프리 메뉴 없음,2022-11-30
1984나폴리 부산진역점,음식점/유흥시설,유럽음식,이탈리아,부산광역시,동구,수정동,,116-4 번지,고관로,90 번,35.126903,129.045162,48791,부산광역시 동구 고관로 90,부산광역시 동구 수정동  116-4,051-466-1984,화-금 11시30분-21시,토-일 11시30분-21시,무료주차 가능,발렛주차 불가,유아의자 대여 불가,휠체어 대여 불가,반려동물 동반 입장불가,채식 메뉴 없음,할랄음식 메뉴 없음,글루텐프리 메뉴 없음,2022-11-30
1984나폴리 서면본점,음식점/유흥시설,유럽음식,이탈리아,부산광역시,부산진구,전포동,,687-18 번지,전포대로209번길,17-6 번,35.155198,129.064135,47294,부산광역시 부산진구 전포대로209번길 17-6,부산광역시 부산진구 전포동  687-18,0507-1490-1985,"월,수-금 12시-22시",토-일 12시-22시,무료주차 불가,발렛주차 불가,유아의자 대여 불가,휠체어 대여 불가,반려동물 동반 입장불가,채식 메뉴 없음,할랄음식 메뉴 없음,글루텐프리 메뉴 없음,2022-11-30
1984라벨라,음식점/유흥시설,유럽음식,이탈리아,부산광역시,부산진구,부전동,,168-391 번지,중앙대로680번가길,80-17 번,35.15694,129.061752,47292,부산광역시 부산진구 중앙대로680번가길 80-17,부산광역시 부산진구 부전동  168-391,정보없음,월-금 17시-02시,토 17시-02시,무료주차 불가,발렛주차 불가,유아의자 대여 불가,휠체어 대여 불가,반려동물 동반 입장불가,채식 메뉴 없음,할랄음식 메뉴 없음,글루텐프리 메뉴 없음,2022-11-30
1988 오뎅바,음식점/유흥시설,동아시아음식,일본,부산광역시,남구,대연동,,40-3 번지,용소로13번길,61 번,35.137671,129.103616,48511,부산광역시 남구 용소로13번길 61,부산광역시 남구 대연동 40-3 아침햇살,0507-1347-0524,월-금 18시-03시,토 18시-03시,무료주차 가능,발렛주차 불가,유아의자 대여 불가,휠체어 대여 불가,반려동물 동반 입장불가,채식 메뉴 없음,할랄음식 메뉴 없음,글루텐프리 메뉴 없음,2022-11-30
1인1상,음식점/유흥시설,유럽음식,이탈리아,서울특별시,은평구,진관동,,219 번지,연서로,534 번,37.640992,126.937976,3308,서울특별시 은평구 연서로 534,서울특별시 은평구 진관동  219,02-357-1111,화-금 11시-20시,토-일 11시-20시,무료주차 가능,발렛주차 불가,유아의자 대여 불가,휠체어 대여 불가,반려동물 동반 입장불가,채식 메뉴 없음,할랄음식 메뉴 없음,글루텐프리 메뉴 없음,2022-11-30
22.FEB,음식점/유흥시설,유럽음식,이탈리아,서울특별시,강남구,논현동,,254-30 번지,선릉로119길,6 번,37.513647,127.042135,6100,서울특별시 강남구 선릉로119길 6,서울특별시 강남구 논현동  254-30,0507-1407-4450,월-금 11시-22시,토 12시-21시,무료주차 가능,발렛주차 불가,유아의자 대여 불가,휠체어 대여 불가,반려동물 동반 입장불가,채식 메뉴 없음,할랄음식 메뉴 없음,글루텐프리 메뉴 없음,2022-11-30
299파스타,음식점/유흥시설,유럽음식,이탈리아,전라북도,전주시 완산구,고사동,,409-5 번지,전주객사4길,23-12 번,35.818758,127.143299,54999,전라북도 전주시 완산구 전주객사4길 23-12,전라북도 전주시 완산구 고사동  409-5,정보없음,정보없음,정보없음,무료주차 가능,발렛주차 불가,유아의자 대여 불가,휠체어 대여 불가,반려동물 동반 입장불가,채식 메뉴 없음,할랄음식 메뉴 없음,글루텐프리 메뉴 없음,2022-11-30
2층부엌,음식점/유흥시설,유럽음식,이탈리아,경상남도,진주시,중안동,,3-8 번지,촉석로186번길,4-1 번,35.194838,128.082351,52684,경상남도 진주시 촉석로186번길 4-1,경상남도 진주시 중안동 3-8,055-747-7222,월-금 11시-21시,토-일 11시-21시,무료주차 불가,발렛주차 불가,유아의자 대여 불가,휠체어 대여 불가,반려동물 동반 입장불가,채식 메뉴 없음,할랄음식 메뉴 없음,글루텐프리 메뉴 없음,2022-11-30
303화덕,음식점/유흥시설,유럽음식,이탈리아,부산광역시,동래구,온천동,,303-4 번지,차밭골로,37 번,35.217131,129.077441,47706,부산광역시 동래구 차밭골로 37,부산광역시 동래구 온천동  303-4,051-944-7044,월-금 11시-21시,토-일 11시-21시,무료주차 불가,발렛주차 불가,유아의자 대여 불가,휠체어 대여 불가,반려동물 동반 입장불가,채식 메뉴 없음,할랄음식 메뉴 없음,글루텐프리 메뉴 없음,2022-11-30
32AMICO,음식점/유흥시설,유럽음식,이탈리아,경기도,고양시 일산서구,탄현동,,1575-5 번지,산현로17번길,7-10 번,37.689839,126.76296,10343,경기도 고양시 일산서구 산현로17번길 7-10,경기도 고양시 일산서구 탄현동  1575-5,정보없음,정보없음,정보없음,무료주차 불가,발렛주차 불가,유아의자 대여 불가,휠체어 대여 불가,반려동물 동반 입장불가,채식 메뉴 없음,할랄음식 메뉴 없음,글루텐프리 메뉴 없음,2022-11-30
4.2캐쥬얼다이닝,음식점/유흥시설,유럽음식,이탈리아,서울특별시,강남구,개포동,,1236-20 번지,논현로20길,4-11 번,37.477488,127.045617,6307,서울특별시 강남구 논현로20길 4-11,서울특별시 강남구 개포동  1236-20,02-578-4242,월-금 10시-22시,토-일 10시-22시,무료주차 불가,발렛주차 불가,유아의자 대여 불가,휠체어 대여 불가,반려동물 동반 입장불가,채식 메뉴 없음,할랄음식 메뉴 없음,글루텐프리 메뉴 없음,2022-11-30
402키친,음식점/유흥시설,유럽음식,이탈리아,서울특별시,마포구,창전동,,402-17 번지,독막로,140 번,37.547331,126.929139,4078,서울특별시 마포구 독막로 140,서울특별시 마포구 창전동  402-17,070-8154-6868,월-금 10시30분-01시,토 10시30분-22시30분,무료주차 가능,발렛주차 불가,유아의자 대여 불가,휠체어 대여 불가,반려동물 동반 입장불가,채식 메뉴 없음,할랄음식 메뉴 없음,글루텐프리 메뉴 없음,2022-11-30
40호베트남쌀국수,음식점/유흥시설,동남아시아음식,베트남,경기도,평택시,통복동,,95-71 번지,통복시장2로9번길,7 번,36.996852,127.084014,17893,경기도 평택시 통복시장2로9번길 7,경기도 평택시 통복동  95-71,정보없음,정보없음,정보없음,무료주차 불가,발렛주차 불가,유아의자 대여 불가,휠체어 대여 불가,반려동물 동반 입장불가,채식 메뉴 없음,할랄음식 메뉴 없음,글루텐프리 메뉴 없음,2022-11-30
420퍼스타보,음식점/유흥시설,동남아시아음식,베트남,서울특별시,중구,남대문로5가,,21-1 번지,세종대로,30 번,37.559017,126.974919,4527,서울특별시 중구 세종대로 30,서울특별시 중구 남대문로5가  21-1,02-3789-1777,정보없음,정보없음,무료주차 불가,발렛주차 불가,유아의자 대여 불가,휠체어 대여 불가,반려동물 동반 입장불가,채식 메뉴 없음,할랄음식 메뉴 없음,글루텐프리 메뉴 없음,2022-11-30
428레스토랑,음식점/유흥시설,유럽음식,이탈리아,서울특별시,강남구,삼성동,,113-5 번지,봉은사로,428 번,37.510841,127.046898,6153,서울특별시 강남구 봉은사로 428,서울특별시 강남구 삼성동 113-5,0507-1364-8880,월-금 11시30분-22시,"토 11시30분-22시,일 11시30분-21시",무료주차 불가,발렛주차 불가,유아의자 대여 불가,휠체어 대여 불가,반려동물 동반 입장불가,채식 메뉴 없음,할랄음식 메뉴 없음,글루텐프리 메뉴 없음,2022-11-30
495도씨수완본점,음식점/유흥시설,유럽음식,이탈리아,광주광역시,광산구,장덕동,,1302 번지,장신로,85 번,35.191148,126.81934,62224,광주광역시 광산구 장신로 85,광주광역시 광산구 장덕동  1302,062-951-3177,월-금 11시-22시,토-일 11시-22시,무료주차 가능,발렛주차 불가,유아의자 대여 불가,휠체어 대여 불가,반려동물 동반 입장불가,채식 메뉴 없음,할랄음식 메뉴 없음,글루텐프리 메뉴 없음,2022-11-30
4SEED,음식점/유흥시설,유럽음식,이탈리아,서울특별시,종로구,평창동,,273-1 번지,평창8길,3 번,37.604545,126.966082,3011,서울특별시 종로구 평창8길 3,서울특별시 종로구 평창동 273-1,02-395-7187,11시-22시,11시-22시,무료주차 불가,발렛주차 불가,유아의자 대여 불가,휠체어 대여 불가,반려동물 동반 입장불가,채식 메뉴 없음,할랄음식 메뉴 없음,글루텐프리 메뉴 없음,2022-11-30
503TABLE,음식점/유흥시설,유럽음식,이탈리아,서울특별시,서초구,반포동,,107-65 번지,서래로5길,33 번,37.497804,126.996368,6575,서울특별시 서초구 서래로5길 33,서울특별시 서초구 반포동  107-65,0507-1371-1077,월-금 11시30분-22시,토-일 11시30분-22시,무료주차 가능,발렛주차 불가,유아의자 대여 불가,휠체어 대여 불가,반려동물 동반 입장불가,채식 메뉴 없음,할랄음식 메뉴 없음,글루텐프리 메뉴 없음,2022-11-30
505레스토랑,음식점/유흥시설,유럽음식,이탈리아,부산광역시,사하구,다대동,,257-3 번지,다대로,505 번,35.059837,128.974254,49522,부산광역시 사하구 다대로 505,부산광역시 사하구 다대동  257-3,0507-1488-5995,정보없음,정보없음,무료주차 가능,발렛주차 불가,유아의자 대여 불가,휠체어 대여 불가,반려동물 동반 입장불가,채식 메뉴 없음,할랄음식 메뉴 없음,글루텐프리 메뉴 없음,2022-11-30
515더오리지널,음식점/유흥시설,유럽음식,이탈리아,경기도,파주시,서패동,,183-1 번지,돌곶이길,95 번,37.714492,126.695853,10883,경기도 파주시 돌곶이길 95,경기도 파주시 서패동  183-1,031-944-0330,월-금 11시-21시,토-일 11시-21시,무료주차 가능,발렛주차 불가,유아의자 대여 불가,휠체어 대여 불가,반려동물 동반 입장불가,채식 메뉴 없음,할랄음식 메뉴 없음,글루텐프리 메뉴 없음,2022-11-30
55다이닝,음식점/유흥시설,유럽음식,이탈리아,대구광역시,중구,삼덕동1가,,55-21 번지,동성로5길,94-19 번,35.866077,128.59953,41942,대구광역시 중구 동성로5길 94-19,대구광역시 중구 삼덕동1가  55-21,053-214-5521,정보없음,정보없음,무료주차 불가,발렛주차 불가,유아의자 대여 불가,휠체어 대여 불가,반려동물 동반 입장불가,채식 메뉴 없음,할랄음식 메뉴 없음,글루텐프리 메뉴 없음,2022-11-30
55도 와인포차,음식점/유흥시설,지중해음식,이탈리아 코카시안 프랑스,대전광역시,유성구,어은동,,100-5 번지,어은로57번길,51 번,36.362154,127.353872,34139,대전광역시 유성구 어은로57번길 51,대전광역시 유성구 어은동 100-5,042-389-1636,월-금 17시30분-02시,토-일 17시30분-02시,무료주차 불가,발렛주차 불가,유아의자 대여 불가,휠체어 대여 불가,반려동물 동반 입장불가,채식 메뉴 없음,할랄음식 메뉴 없음,글루텐프리 메뉴 없음,2022-11-30
5테이블 운양본점,음식점/유흥시설,유럽음식,이탈리아,경기도,김포시,운양동,,1297-3 번지,김포한강11로,300 번,37.655363,126.682491,10073,경기도 김포시 김포한강11로 300,경기도 김포시 운양동  1297-3,031-997-5599,화-금 11시-22시,토-일 11시-22시,무료주차 불가,발렛주차 불가,유아의자 대여 불가,휠체어 대여 불가,반려동물 동반 입장불가,채식 메뉴 없음,할랄음식 메뉴 없음,글루텐프리 메뉴 없음,2022-11-30
5GIL7BISTRO,음식점/유흥시설,유럽음식,이탈리아,서울특별시,중구,필동3가,,62-11 번지,필동로5길,7 번,37.556767,126.995937,4622,서울특별시 중구 필동로5길 7,서울특별시 중구 필동3가  62-11,02-2272-0507,월-금 11시30분-22시,토-일 12시-20시30분,무료주차 가능,발렛주차 불가,유아의자 대여 불가,휠체어 대여 불가,반려동물 동반 입장불가,채식 메뉴 없음,할랄음식 메뉴 없음,글루텐프리 메뉴 없음,2022-11-30
5PAGE,음식점/유흥시설,유럽음식,이탈리아,경기도,고양시 덕양구,행신동,,1082-2 번지,중앙로,450 번,37.618466,126.845509,10486,경기도 고양시 덕양구 중앙로 450,경기도 고양시 덕양구 행신동  1082-2,031-974-1600,정보없음,정보없음,무료주차 불가,발렛주차 불가,유아의자 대여 불가,휠체어 대여 불가,반려동물 동반 입장불가,채식 메뉴 없음,할랄음식 메뉴 없음,글루텐프리 메뉴 없음,2022-11-30
628파스타,음식점/유흥시설,유럽음식,이탈리아,대전광역시,유성구,죽동,,628-2 번지,은구비로155번길,32-9 번,36.379656,127.324865,34097,대전광역시 유성구 은구비로155번길 32-9,대전광역시 유성구 죽동  628-2,0507-1389-6282,"월,수-금 11시30분-22시",토-일 11시30분-22시,무료주차 불가,발렛주차 불가,유아의자 대여 불가,휠체어 대여 불가,반려동물 동반 입장불가,채식 메뉴 없음,할랄음식 메뉴 없음,글루텐프리 메뉴 없음,2022-11-30
62QUAN,음식점/유흥시설,동남아시아음식,기타,서울특별시,은평구,갈현동,,400-4 번지,연서로29길,20-14 번,37.619637,126.918896,3330,서울특별시 은평구 연서로29길 20-14,서울특별시 은평구 갈현동  400-4,0507-1320-1908,월-금 11시-21시,토-일 11시-21시,무료주차 불가,발렛주차 불가,유아의자 대여 불가,휠체어 대여 불가,반려동물 동반 입장불가,채식 메뉴 없음,할랄음식 메뉴 없음,글루텐프리 메뉴 없음,2022-11-30
72420,음식점/유흥시설,동남아시아음식,베트남,서울특별시,동작구,사당동,,1045-13 번지,남부순환로269길,13 번,37.477383,126.978202,7024,서울특별시 동작구 남부순환로269길 13,서울특별시 동작구 사당동  1045-13,02-521-2420,월-금 11시30분-22시,토-일 11시30분-22시,무료주차 불가,발렛주차 불가,유아의자 대여 불가,휠체어 대여 불가,반려동물 동반 입장불가,채식 메뉴 없음,할랄음식 메뉴 없음,글루텐프리 메뉴 없음,2022-11-30
72420 동탄본점,음식점/유흥시설,동남아시아음식,베트남,경기도,화성시,청계동,,536 번지,동탄대로시범길,134 번,37.199287,127.115411,18476,경기도 화성시 동탄대로시범길 134,경기도 화성시 청계동  536,031-373-7240,월-금 10시30분-22시,토-일 10시30분-22시,무료주차 불가,발렛주차 불가,유아의자 대여 불가,휠체어 대여 불가,반려동물 동반 입장불가,채식 메뉴 없음,할랄음식 메뉴 없음,글루텐프리 메뉴 없음,2022-11-30
72420 목동점,음식점/유흥시설,동남아시아음식,베트남,서울특별시,양천구,신정동,,1006-1 번지,오목로50길,23 번,37.523948,126.864389,8023,서울특별시 양천구 오목로50길 23,서울특별시 양천구 신정동  1006-1,02-2699-5763,화-금 11시30분-21시,토-일 11시30분-21시,무료주차 불가,발렛주차 불가,유아의자 대여 불가,휠체어 대여 불가,반려동물 동반 입장불가,채식 메뉴 없음,할랄음식 메뉴 없음,글루텐프리 메뉴 없음,2022-11-30
72420 미아사거리점,음식점/유흥시설,동남아시아음식,베트남,서울특별시,성북구,길음동,,1288 번지,숭인로,50 번,37.612311,127.028554,2727,서울특별시 성북구 숭인로 50,서울특별시 성북구 길음동  1288,02-989-9004,월-금 11시30분-21시,토-일 11시30분-21시,무료주차 불가,발렛주차 불가,유아의자 대여 불가,휠체어 대여 불가,반려동물 동반 입장불가,채식 메뉴 없음,할랄음식 메뉴 없음,글루텐프리 메뉴 없음,2022-11-30
72420 사당본점,음식점/유흥시설,동남아시아음식,베트남,서울특별시,동작구,사당동,,1039-16 번지,동작대로1길,50 번,37.477419,126.978643,7025,서울특별시 동작구 동작대로1길 50,서울특별시 동작구 사당동 1039-16 중동빌딩,02-521-2420,월-금 11시30분-21시30분,토-일 11시30분-21시30분,무료주차 불가,발렛주차 불가,유아의자 대여 불가,휠체어 대여 불가,반려동물 동반 입장불가,채식 메뉴 없음,할랄음식 메뉴 없음,글루텐프리 메뉴 없음,2022-11-30
72420 성신여대점,음식점/유흥시설,동남아시아음식,베트남,서울특별시,성북구,동선동1가,,121-4 번지,동소문로24길,13 번,37.593119,127.018742,2845,서울특별시 성북구 동소문로24길 13,서울특별시 성북구 동선동1가  121-4,0507-1334-0303,화-금 11시30분-22시,토-일 11시30분-22시,무료주차 불가,발렛주차 불가,유아의자 대여 불가,휠체어 대여 불가,반려동물 동반 입장불가,채식 메뉴 없음,할랄음식 메뉴 없음,글루텐프리 메뉴 없음,2022-11-30
72420 송파직영점,음식점/유흥시설,동남아시아음식,베트남,서울특별시,송파구,송파동,,51-10 번지,백제고분로45길,12 번,37.509638,127.110198,5619,서울특별시 송파구 백제고분로45길 12,서울특별시 송파구 송파동  51-10,02-417-2420,월-금 11시30분-22시,토-일 11시30분-22시,무료주차 불가,발렛주차 불가,유아의자 대여 불가,휠체어 대여 불가,반려동물 동반 입장불가,채식 메뉴 없음,할랄음식 메뉴 없음,글루텐프리 메뉴 없음,2022-11-30
72420 수원직영점,음식점/유흥시설,동남아시아음식,베트남,경기도,수원시 팔달구,화서동,,726-4 번지,일월로18번길,14 번,37.285363,126.981119,16424,경기도 수원시 팔달구 일월로18번길 14,경기도 수원시 팔달구 화서동  726-4,0507-1313-2420,월-금 11시-21시,토-일 11시-21시,무료주차 불가,발렛주차 불가,유아의자 대여 불가,휠체어 대여 불가,반려동물 동반 입장불가,채식 메뉴 없음,할랄음식 메뉴 없음,글루텐프리 메뉴 없음,2022-11-30
72TACO,음식점/유흥시설,남미음식,멕시코,서울특별시,마포구,상수동,,341-4 번지,와우산로3길,11 번,37.545989,126.922373,4074,서울특별시 마포구 와우산로3길 11,서울특별시 마포구 상수동  341-4,070-8279-2131,월-금 12시-24시,토-일 12시-24시,무료주차 불가,발렛주차 불가,유아의자 대여 불가,휠체어 대여 불가,반려동물 동반 입장불가,채식 메뉴 없음,할랄음식 메뉴 없음,글루텐프리 메뉴 없음,2022-11-30
730카레,음식점/유흥시설,동아시아음식,일본,세종특별자치시,,보람동,,743 번지,한누리대로,2135 번,36.478348,127.28915,30150,세종특별자치시  한누리대로 2135,세종특별자치시  보람동  743,0507-1360-6399,월-금 11시-20시,휴무,무료주차 가능,발렛주차 불가,유아의자 대여 불가,휠체어 대여 불가,반려동물 동반 입장불가,채식 메뉴 없음,할랄음식 메뉴 없음,글루텐프리 메뉴 없음,2022-11-30
79파운야드,음식점/유흥시설,유럽음식,기타,충청남도,천안시 서북구,두정동,,971 번지,두정로,171 번,36.833969,127.13613,31100,충청남도 천안시 서북구 두정로 171,충청남도 천안시 서북구 두정동  971,070-8802-4440,월-금 12시-23시30분,토-일 12시-23시30분,무료주차 불가,발렛주차 불가,유아의자 대여 불가,휠체어 대여 불가,반려동물 동반 입장불가,채식 메뉴 없음,할랄음식 메뉴 없음,글루텐프리 메뉴 없음,2022-11-30
7PM,음식점/유흥시설,동남아시아음식,베트남 태국,대구광역시,수성구,만촌동,,948-3 번지,국채보상로200길,23 번,35.864761,128.640515,42048,대구광역시 수성구 국채보상로200길 23,대구광역시 수성구 만촌동 948-3,053-965-0822,화-금 11시30분-22시,"토 11시30분-22시,일 12시-22시",무료주차 가능,발렛주차 불가,유아의자 대여 불가,휠체어 대여 불가,반려동물 동반 입장불가,채식 메뉴 없음,할랄음식 메뉴 없음,글루텐프리 메뉴 없음,2022-11-30
7STREET,음식점/유흥시설,남미음식,멕시코,세종특별자치시,,조치원읍,침산리,272-8 번지,행복7길,9-14 번,36.602376,127.291445,30021,세종특별자치시  행복7길 9-14,세종특별자치시  조치원읍 침산리 272-8,0507-1315-8001,월-금 17시-01시,토-일 17시-01시,무료주차 불가,발렛주차 불가,유아의자 대여 불가,휠체어 대여 불가,반려동물 동반 입장불가,채식 메뉴 없음,할랄음식 메뉴 없음,글루텐프리 메뉴 없음,2022-11-30
808웨스트도어,음식점/유흥시설,유럽음식,이탈리아,울산광역시,남구,옥동,,581-10 번지,법대로87번길,3 번,35.536932,129.288294,44645,울산광역시 남구 법대로87번길 3,울산광역시 남구 옥동  581-10,052-221-1918,월-금 11시-22시,토 11시-17시,무료주차 불가,발렛주차 불가,유아의자 대여 불가,휠체어 대여 불가,반려동물 동반 입장불가,채식 메뉴 없음,할랄음식 메뉴 없음,글루텐프리 메뉴 없음,2022-11-30
832L레스토랑,음식점/유흥시설,유럽음식,이탈리아,강원도,정선군,고한읍,고한리,5-26 번지,함백산로,1445-44 번,37.185298,128.882002,26157,강원도 정선군 함백산로 1445-44,강원도 정선군 고한읍 고한리 5-26,033-591-3001,정보없음,정보없음,무료주차 불가,발렛주차 불가,유아의자 대여 불가,휠체어 대여 불가,반려동물 동반 입장불가,채식 메뉴 없음,할랄음식 메뉴 없음,글루텐프리 메뉴 없음,2022-11-30
8482,음식점/유흥시설,동남아시아음식,기타,대전광역시,서구,탄방동,,91-10 번지,도솔로,408 번,36.342179,127.390135,35264,대전광역시 서구 도솔로 408,대전광역시 서구 탄방동  91-10,0507-1370-2088,월-금 11시-21시,토-일 11시-21시,무료주차 불가,발렛주차 불가,유아의자 대여 불가,휠체어 대여 불가,반려동물 동반 입장불가,채식 메뉴 없음,할랄음식 메뉴 없음,글루텐프리 메뉴 없음,2022-11-30
88버거,음식점/유흥시설,북미음식,미국,제주특별자치도,서귀포시,서귀동,,255-9 번지,동문로,63 번,33.249248,126.567122,63590,제주특별자치도 서귀포시 동문로 63,제주특별자치도 서귀포시 서귀동 255-9,064-733-8488,"월-수,금 10시-21시",토-일 10시-21시,무료주차 불가,발렛주차 불가,유아의자 대여 불가,휠체어 대여 불가,반려동물 동반 입장불가,채식 메뉴 없음,할랄음식 메뉴 없음,글루텐프리 메뉴 없음,2022-11-30
8월의 중식 동두천점,음식점/유흥시설,동아시아음식,중국,경기도,동두천시,지행동,,719 번지,중앙로,110-9 번,37.891627,127.053036,11350,경기도 동두천시 중앙로 110-9,경기도 동두천시 지행동  719,031-928-7379,정보없음,정보없음,무료주차 불가,발렛주차 불가,유아의자 대여 불가,휠체어 대여 불가,반려동물 동반 입장불가,채식 메뉴 없음,할랄음식 메뉴 없음,글루텐프리 메뉴 없음,2022-11-30
9292양꼬치,음식점/유흥시설,동아시아음식,중국,경기도,안산시 단원구,초지동,,802 번지,화랑로,159 번,37.324042,126.806189,15386,경기도 안산시 단원구 화랑로 159,경기도 안산시 단원구 초지동  802,0507-1333-8891,월-금 13시-02시,토-일 13시-02시,무료주차 가능,발렛주차 불가,유아의자 대여 불가,휠체어 대여 불가,반려동물 동반 입장불가,채식 메뉴 없음,할랄음식 메뉴 없음,글루텐프리 메뉴 없음,2022-11-30
92AVENUE,음식점/유흥시설,유럽음식,이탈리아,서울특별시,광진구,자양동,,216-16 번지,아차산로,392 번,37.536993,127.086304,5051,서울특별시 광진구 아차산로 392,서울특별시 광진구 자양동  216-16,070-4245-0064,정보없음,정보없음,무료주차 가능,발렛주차 불가,유아의자 대여 불가,휠체어 대여 불가,반려동물 동반 입장불가,채식 메뉴 없음,할랄음식 메뉴 없음,글루텐프리 메뉴 없음,2022-11-30
938,음식점/유흥시설,유럽음식,이탈리아,울산광역시,중구,성남동,,191-28 번지,젊음의거리,27-2 번,35.553736,129.317942,44532,울산광역시 중구 젊음의거리 27-2 1층,울산광역시 중구 성남동 191-28,정보없음,화-금 12시-21시,토-일 12시-21시,무료주차 불가,발렛주차 불가,유아의자 대여 불가,휠체어 대여 불가,반려동물 동반 입장불가,채식 메뉴 없음,할랄음식 메뉴 없음,글루텐프리 메뉴 없음,2022-11-30
98양꼬치,음식점/유흥시설,동아시아음식,중국,서울특별시,구로구,구로동,,722-5 번지,구로동로,111 번,37.488532,126.884361,8316,서울특별시 구로구 구로동로 111,서울특별시 구로구 구로동  722-5,070-8151-2224,정보없음,정보없음,무료주차 불가,발렛주차 불가,유아의자 대여 불가,휠체어 대여 불가,반려동물 동반 입장불가,채식 메뉴 없음,할랄음식 메뉴 없음,글루텐프리 메뉴 없음,2022-11-30
가나샤브샤브,음식점/유흥시설,동아시아음식,일본,대전광역시,유성구,신성동,,147-6 번지,신성로84번길,49 번,36.389038,127.351283,34116,대전광역시 유성구 신성로84번길 49,대전광역시 유성구 신성동 147-6,042-862-9288,월-금 11시30분-21시,휴무,무료주차 불가,발렛주차 불가,유아의자 대여 불가,휠체어 대여 불가,반려동물 동반 입장불가,채식 메뉴 없음,할랄음식 메뉴 없음,글루텐프리 메뉴 없음,2022-11-30
가남지,음식점/유흥시설,동남아시아음식,베트남,대전광역시,유성구,도룡동,,395-1 번지,대덕대로,588 번,36.385492,127.378888,34121,대전광역시 유성구 대덕대로 588,대전광역시 유성구 도룡동 395-1,042-861-7557,월-금 11시30분-21시,토 11시30분-21시,무료주차 불가,발렛주차 불가,유아의자 대여 불가,휠체어 대여 불가,반려동물 동반 입장불가,채식 메뉴 없음,할랄음식 메뉴 없음,글루텐프리 메뉴 없음,2022-11-30
가네끼스시,음식점/유흥시설,동아시아음식,일본,서울특별시,동작구,신대방동,,395-69 번지,보라매로5가길,16 번,37.491312,126.924119,7071,서울특별시 동작구 보라매로5가길 16,서울특별시 동작구 신대방동  395-69,02-831-3472,월-금 12시-22시,토 12시-22시,무료주차 가능,발렛주차 불가,유아의자 대여 불가,휠체어 대여 불가,반려동물 동반 입장불가,채식 메뉴 없음,할랄음식 메뉴 없음,글루텐프리 메뉴 없음,2022-11-30
가네샤,음식점/유흥시설,인도아시아음식,인도,서울특별시,관악구,신림동,,1538-14 번지,대학길,46 번,37.468722,126.937587,8813,서울특별시 관악구 대학길 46,서울특별시 관악구 신림동  1538-14,02-6123-9799,월-금 11시-21시,토-일 11시-21시,무료주차 불가,발렛주차 불가,유아의자 대여 불가,휠체어 대여 불가,반려동물 동반 입장불가,채식 메뉴 없음,할랄음식 메뉴 없음,글루텐프리 메뉴 없음,2022-11-30
가데나,음식점/유흥시설,유럽음식,이탈리아,대전광역시,유성구,반석동,,465 번지,반석로,136-6 번,36.389757,127.299722,34065,대전광역시 유성구 반석로 136-6,대전광역시 유성구 반석동  465,0507-1384-6100,월-금 11시30분-21시30분,"토 11시30분-21시30분,일 11시30분-21시",무료주차 가능,발렛주차 불가,유아의자 대여 불가,휠체어 대여 불가,반려동물 동반 입장불가,채식 메뉴 없음,할랄음식 메뉴 없음,글루텐프리 메뉴 없음,2022-11-30
가드너아드리아,음식점/유흥시설,유럽음식,이탈리아,서울특별시,강남구,신사동,,648-20 번지,압구정로46길,73 번,37.523955,127.03665,6020,서울특별시 강남구 압구정로46길 73,서울특별시 강남구 신사동  648-20,02-549-4698,월-금 11시30분-23시,토-일 11시30분-23시,무료주차 불가,발렛주차 불가,유아의자 대여 불가,휠체어 대여 불가,반려동물 동반 입장불가,채식 메뉴 없음,할랄음식 메뉴 없음,글루텐프리 메뉴 없음,2022-11-30
가또부오노,음식점/유흥시설,유럽음식,이탈리아,서울특별시,서초구,서초동,,1304-2 번지,강남대로,449 번,37.502417,127.025074,6611,서울특별시 서초구 강남대로 449,서울특별시 서초구 서초동  1304-2,정보없음,정보없음,정보없음,무료주차 불가,발렛주차 불가,유아의자 대여 불가,휠체어 대여 불가,반려동물 동반 입장불가,채식 메뉴 없음,할랄음식 메뉴 없음,글루텐프리 메뉴 없음,2022-11-30
가르모니아,음식점/유흥시설,동남아시아음식,기타,경기도,안산시 상록구,이동,,715-3 번지,광덕1로,375 번,37.30844,126.850952,15494,경기도 안산시 상록구 광덕1로 375,경기도 안산시 상록구 이동  715-3,0507-1367-9698,화-금 10시-22시,토-일 10시-23시,무료주차 불가,발렛주차 불가,유아의자 대여 불가,휠체어 대여 불가,반려동물 동반 입장불가,채식 메뉴 없음,할랄음식 메뉴 없음,글루텐프리 메뉴 없음,2022-11-30
가미우동,음식점/유흥시설,동아시아음식,일본,서울특별시,마포구,서교동,,346-31 번지,홍익로2길,23 번,37.554682,126.923858,4055,서울특별시 마포구 홍익로2길 23,서울특별시 마포구 서교동 346-31,02-322-3302,화-금 11시30분-20시30분,토-일 11시30분-20시30분,무료주차 불가,발렛주차 불가,유아의자 대여 불가,휠체어 대여 불가,반려동물 동반 입장불가,채식 메뉴 없음,할랄음식 메뉴 없음,글루텐프리 메뉴 없음,2022-11-30
가미초밥,음식점/유흥시설,동아시아음식,일본,인천광역시,동구,송림동,,20-8 번지,샛골로210번길,9 번,37.480953,126.646385,22534,인천광역시 동구 샛골로210번길 9,인천광역시 동구 송림동 20-8,032-766-1160,월-금 11시-22시,토-일 11시-22시,무료주차 불가,발렛주차 불가,유아의자 대여 불가,휠체어 대여 불가,반려동물 동반 입장불가,채식 메뉴 없음,할랄음식 메뉴 없음,글루텐프리 메뉴 없음,2022-11-30
가보,음식점/유흥시설,동아시아음식,중국,충청남도,태안군,태안읍,남문리,721-18 번지,군청8길,14-1 번,36.744999,126.300479,32144,충청남도 태안군 태안읍 군청8길 14-1,충청남도 태안군 태안읍 남문리 721-18,041-672-2600,월-금 10시30분-21시,토-일 10시30분-21시,무료주차 불가,발렛주차 불가,유아의자 대여 불가,휠체어 대여 불가,반려동물 동반 입장불가,채식 메뉴 없음,할랄음식 메뉴 없음,글루텐프리 메뉴 없음,2022-11-30
가비,음식점/유흥시설,북미음식,미국 이탈리아 프랑스,부산광역시,해운대구,중동,,149-1 번지,좌동순환로8번길,78 번,35.169633,129.170166,48082,부산광역시 해운대구 좌동순환로8번길 78 상가동 5호,부산광역시 해운대구 중동 149-1,051-808-1655,월-금 17시30분-24시,토 17시30분-24시,무료주차 가능,발렛주차 불가,유아의자 대여 불가,휠체어 대여 가능,반려동물 동반 입장불가,채식 메뉴 없음,할랄음식 메뉴 없음,글루텐프리 메뉴 없음,2022-11-30
가스트로 통,음식점/유흥시설,유럽음식,스위스 유럽,서울특별시,종로구,통의동,,25-2 번지,자하문로6길,11-36 번,37.578656,126.972608,3044,서울특별시 종로구 자하문로6길 11-36,서울특별시 종로구 통의동 25-2,02-730-4162,월-금 11시30분-22시,"토 11시30분-22시,일 12시-21시30분",무료주차 가능,발렛주차 불가,유아의자 대여 가능,휠체어 대여 불가,반려동물 동반 입장불가,채식 메뉴 없음,할랄음식 메뉴 없음,글루텐프리 메뉴 없음,2022-11-30
가스트로놈넘버원,음식점/유흥시설,동남아시아음식,기타,경기도,안산시 상록구,사동,,1571-3 번지,한양대학로,26-1 번,37.301532,126.840438,15578,경기도 안산시 상록구 한양대학로 26-1,경기도 안산시 상록구 사동  1571-3,정보없음,정보없음,정보없음,무료주차 불가,발렛주차 불가,유아의자 대여 불가,휠체어 대여 불가,반려동물 동반 입장불가,채식 메뉴 없음,할랄음식 메뉴 없음,글루텐프리 메뉴 없음,2022-11-30
가이아 레스토랑,음식점/유흥시설,유럽음식,이탈리아,인천광역시,중구,운서동,,3098-1 번지,영종대로196번길,19 번,37.490599,126.499521,22376,인천광역시 중구 영종대로196번길 19,인천광역시 중구 운서동 3098-1,032-832-1532,11시-21시,11시-21시,무료주차 불가,발렛주차 불가,유아의자 대여 불가,휠체어 대여 불가,반려동물 동반 입장불가,채식 메뉴 없음,할랄음식 메뉴 없음,글루텐프리 메뉴 없음,2022-11-30
가쯔레쯔 인천시청점,음식점/유흥시설,동아시아음식,일본,인천광역시,남동구,구월동,,1136-14 번지,미래로,45 번,37.454248,126.704153,21557,인천광역시 남동구 미래로 45,인천광역시 남동구 구월동 1136-14 벤처빌딩,032-432-0204,월-금 11시-21시30분,토-일 11시-21시30분,무료주차 가능,발렛주차 불가,유아의자 대여 불가,휠체어 대여 불가,반려동물 동반 입장불가,채식 메뉴 없음,할랄음식 메뉴 없음,글루텐프리 메뉴 없음,2022-11-30
가향,음식점/유흥시설,동아시아음식,중국,경기도,안양시 동안구,관양동,,1511-6 번지,흥안대로514번길,16 번,37.399881,126.9782,13943,경기도 안양시 동안구 흥안대로514번길 16,경기도 안양시 동안구 관양동 1511-6,0507-0090-7070,월-금 10시-22시,토-일 10시-22시,무료주차 불가,발렛주차 불가,유아의자 대여 불가,휠체어 대여 불가,반려동물 동반 입장불가,채식 메뉴 없음,할랄음식 메뉴 없음,글루텐프리 메뉴 없음,2022-11-30
간사이일식,음식점/유흥시설,동아시아음식,일본,대전광역시,유성구,봉명동,,445-19 번지,온천서로,8-13 번,36.354996,127.340245,34168,대전광역시 유성구 온천서로 8-13,대전광역시 유성구 봉명동 445-19,042-825-5561,월-금 11시-23시,토-일 11시-23시,무료주차 불가,발렛주차 불가,유아의자 대여 불가,휠체어 대여 불가,반려동물 동반 입장불가,채식 메뉴 없음,할랄음식 메뉴 없음,글루텐프리 메뉴 없음,2022-11-30
간지츠,음식점/유흥시설,동아시아음식,일본,부산광역시,해운대구,우동,,1456 번지,센텀동로,67 번,35.17447,129.128803,48059,부산광역시 해운대구 센텀동로 67,부산광역시 해운대구 우동 1456 굿센텀,051-747-3035,월-금 11시-02시,토-일 11시-02시,무료주차 불가,발렛주차 불가,유아의자 대여 불가,휠체어 대여 불가,반려동물 동반 입장불가,채식 메뉴 없음,할랄음식 메뉴 없음,글루텐프리 메뉴 없음,2022-11-30
갈리나데이지,음식점/유흥시설,유럽음식,이탈리아,서울특별시,종로구,통인동,,118-8 번지,자하문로13길,1-4 번,37.579884,126.970954,3036,서울특별시 종로구 자하문로13길 1-4,서울특별시 종로구 통인동  118-8,0507-1447-1294,월-금 12시-22시,토 12시-21시,무료주차 가능,발렛주차 불가,유아의자 대여 불가,휠체어 대여 불가,반려동물 동반 입장불가,채식 메뉴 없음,할랄음식 메뉴 없음,글루텐프리 메뉴 없음,2022-11-30
갈릭브리즈,음식점/유흥시설,유럽음식,이탈리아,서울특별시,마포구,서교동,,461-7 번지,동교로17안길,12 번,37.555451,126.916881,4002,서울특별시 마포구 동교로17안길 12,서울특별시 마포구 서교동  461-7,정보없음,정보없음,정보없음,무료주차 불가,발렛주차 불가,유아의자 대여 불가,휠체어 대여 불가,반려동물 동반 입장불가,채식 메뉴 없음,할랄음식 메뉴 없음,글루텐프리 메뉴 없음,2022-11-30
갈릭앤페퍼,음식점/유흥시설,유럽음식,이탈리아,서울특별시,서초구,서초동,,1665-5 번지,서초중앙로20길,40 번,37.492317,127.016401,6634,서울특별시 서초구 서초중앙로20길 40,서울특별시 서초구 서초동  1665-5,0507-1316-9115,월-금 11시-21시,토-일 11시-21시,무료주차 불가,발렛주차 불가,유아의자 대여 불가,휠체어 대여 불가,반려동물 동반 입장불가,채식 메뉴 없음,할랄음식 메뉴 없음,글루텐프리 메뉴 없음,2022-11-30
감바레우쿠짱,음식점/유흥시설,동아시아음식,일본,서울특별시,서초구,방배동,,925-22 번지,효령로31길,86 번,37.484815,126.99471,6682,서울특별시 서초구 효령로31길 86,서울특별시 서초구 방배동 925-22,0507-1412-1518,월-금 11시30분-20시30분,토-일 11시30분-15시30분,무료주차 가능,발렛주차 불가,유아의자 대여 불가,휠체어 대여 불가,반려동물 동반 입장불가,채식 메뉴 없음,할랄음식 메뉴 없음,글루텐프리 메뉴 없음,2022-11-30
감베로니,음식점/유흥시설,유럽음식,이탈리아,서울특별시,용산구,갈월동,,89-22 번지,한강대로81길,5 번,37.543012,126.971936,4321,서울특별시 용산구 한강대로81길 5,서울특별시 용산구 갈월동  89-22,02-3273-1791,월-금 11시-21시,토 11시-19시,무료주차 불가,발렛주차 불가,유아의자 대여 불가,휠체어 대여 불가,반려동물 동반 입장불가,채식 메뉴 없음,할랄음식 메뉴 없음,글루텐프리 메뉴 없음,2022-11-30
감성타코 가로수길점,음식점/유흥시설,남미음식,멕시코,서울특별시,강남구,신사동,,542-6 번지,가로수길,26 번,37.519652,127.023304,6036,서울특별시 강남구 가로수길 26,서울특별시 강남구 신사동  542-6,02-516-8884,월-금 12시-22시,토-일 12시-22시,무료주차 불가,발렛주차 불가,유아의자 대여 불가,휠체어 대여 불가,반려동물 동반 입장불가,채식 메뉴 없음,할랄음식 메뉴 없음,글루텐프리 메뉴 없음,2022-11-30
감성타코 건대점,음식점/유흥시설,남미음식,멕시코,서울특별시,광진구,화양동,,10-1 번지,능동로13길,39 번,37.543431,127.07018,5016,서울특별시 광진구 능동로13길 39,서울특별시 광진구 화양동  10-1,02-462-8883,월-금 12시-22시,토-일 12시-22시,무료주차 가능,발렛주차 불가,유아의자 대여 불가,휠체어 대여 불가,반려동물 동반 입장불가,채식 메뉴 없음,할랄음식 메뉴 없음,글루텐프리 메뉴 없음,2022-11-30
감성타코 광화문점,음식점/유흥시설,남미음식,멕시코,서울특별시,종로구,내수동,,73 번지,새문안로3길,23 번,37.572859,126.972459,3174,서울특별시 종로구 새문안로3길 23,서울특별시 종로구 내수동  73,02-738-8887,월-금 11시30분-22시,토-일 12시-22시,무료주차 가능,발렛주차 불가,유아의자 대여 불가,휠체어 대여 불가,반려동물 동반 입장불가,채식 메뉴 없음,할랄음식 메뉴 없음,글루텐프리 메뉴 없음,2022-11-30
감성타코 신사점,음식점/유흥시설,남미음식,멕시코,서울특별시,강남구,신사동,,523-16 번지,강남대로162길,31 번,37.520641,127.020955,6028,서울특별시 강남구 강남대로162길 31,서울특별시 강남구 신사동  523-16,02-547-3366,월-금 11시30분-22시,토-일 12시-22시,무료주차 가능,발렛주차 불가,유아의자 대여 불가,휠체어 대여 불가,반려동물 동반 입장불가,채식 메뉴 없음,할랄음식 메뉴 없음,글루텐프리 메뉴 없음,2022-11-30
감성타코 판교점,음식점/유흥시설,남미음식,멕시코,경기도,성남시 분당구,삼평동,,740 번지,동판교로177번길,25 번,37.397326,127.113568,13525,경기도 성남시 분당구 동판교로177번길 25,경기도 성남시 분당구 삼평동  740,031-781-8885,월-금 11시30분-22시,토-일 11시30분-22시,무료주차 가능,발렛주차 불가,유아의자 대여 불가,휠체어 대여 불가,반려동물 동반 입장불가,채식 메뉴 없음,할랄음식 메뉴 없음,글루텐프리 메뉴 없음,2022-11-30
감성타코 합정점,음식점/유흥시설,남미음식,멕시코,서울특별시,마포구,합정동,,473 번지,월드컵로3길,14 번,37.551119,126.9122,4024,서울특별시 마포구 월드컵로3길 14,서울특별시 마포구 합정동  473,02-332-8836,월-금 11시30분-22시,토-일 12시-22시,무료주차 가능,발렛주차 불가,유아의자 대여 불가,휠체어 대여 불가,반려동물 동반 입장불가,채식 메뉴 없음,할랄음식 메뉴 없음,글루텐프리 메뉴 없음,2022-11-30
감성타코 홍대점,음식점/유흥시설,남미음식,멕시코,서울특별시,마포구,서교동,,358-121 번지,와우산로21길,20-11 번,37.552811,126.922724,4040,서울특별시 마포구 와우산로21길 20-11,서울특별시 마포구 서교동  358-121,02-337-8883,월-금 11시30분-22시,토-일 12시-22시,무료주차 불가,발렛주차 불가,유아의자 대여 불가,휠체어 대여 불가,반려동물 동반 입장불가,채식 메뉴 없음,할랄음식 메뉴 없음,글루텐프리 메뉴 없음,2022-11-30
갓덴스시,음식점/유흥시설,동아시아음식,일본 아시아,서울특별시,강남구,역삼동,,822-4 번지,테헤란로,109 번,37.498825,127.028992,6134,서울특별시 강남구 테헤란로 109,서울특별시 강남구 역삼동 822-4 강남제일빌딩,02-2051-1477,월-금 11시-21시30분,토-일 11시-21시30분,무료주차 가능,발렛주차 불가,유아의자 대여 불가,휠체어 대여 불가,반려동물 동반 입장불가,채식 메뉴 없음,할랄음식 메뉴 없음,글루텐프리 메뉴 없음,2022-11-30
갓잇 도산공원점,음식점/유흥시설,남미음식,멕시코,서울특별시,강남구,신사동,,649-7 번지,언주로164길,24 번,37.525352,127.035533,6020,서울특별시 강남구 언주로164길 24,서울특별시 강남구 신사동  649-7,0507-1339-9451,월-금 11시-22시,토-일 11시-22시,무료주차 불가,발렛주차 불가,유아의자 대여 불가,휠체어 대여 불가,반려동물 동반 입장불가,채식 메뉴 없음,할랄음식 메뉴 없음,글루텐프리 메뉴 없음,2022-11-30
갓잇 안국점,음식점/유흥시설,동남아시아음식,기타,서울특별시,종로구,재동,,84-30 번지,북촌로2길,5-5 번,37.578179,126.985935,3059,서울특별시 종로구 북촌로2길 5-5,서울특별시 종로구 재동  84-30,0507-1331-9451,월-금 11시-21시30분,토-일 11시-21시30분,무료주차 불가,발렛주차 불가,유아의자 대여 불가,휠체어 대여 불가,반려동물 동반 입장불가,채식 메뉴 없음,할랄음식 메뉴 없음,글루텐프리 메뉴 없음,2022-11-30
갓잇 연남점,음식점/유흥시설,남미음식,멕시코,서울특별시,마포구,연남동,,240-2 번지,성미산로,161-13 번,37.565246,126.923591,3980,서울특별시 마포구 성미산로 161-13,서울특별시 마포구 연남동  240-2,0507-1312-9451,월-금 11시-21시30분,토-일 11시-21시30분,무료주차 불가,발렛주차 불가,유아의자 대여 불가,휠체어 대여 불가,반려동물 동반 입장불가,채식 메뉴 없음,할랄음식 메뉴 없음,글루텐프리 메뉴 없음,2022-11-30
갓잡은육회&연어 해운대점,음식점/유흥시설,유럽음식,이탈리아,부산광역시,해운대구,좌동,,1461-1 번지,좌동로,88 번,35.171976,129.174939,48106,부산광역시 해운대구 좌동로 88,부산광역시 해운대구 좌동  1461-1,정보없음,정보없음,정보없음,무료주차 불가,발렛주차 불가,유아의자 대여 불가,휠체어 대여 불가,반려동물 동반 입장불가,채식 메뉴 없음,할랄음식 메뉴 없음,글루텐프리 메뉴 없음,2022-11-30
갓파스시 대구점,음식점/유흥시설,동아시아음식,일본,대구광역시,중구,삼덕동1가,,5-12 번지,동성로2길,45 번,35.868061,128.596443,41941,대구광역시 중구 동성로2길 45,대구광역시 중구 삼덕동1가 5-12,053-423-4377,"월-목 11시-20시30분,금 11시-21시","토 11시-21시,일 11시-20시30분",무료주차 가능,발렛주차 불가,유아의자 대여 불가,휠체어 대여 불가,반려동물 동반 입장불가,채식 메뉴 없음,할랄음식 메뉴 없음,글루텐프리 메뉴 없음,2022-11-30
갓파스시 서면점,음식점/유흥시설,동아시아음식,일본 아시아,부산광역시,부산진구,부전동,,168-451 번지,중앙대로702번길,43 번,35.155679,129.061485,47292,부산광역시 부산진구 중앙대로702번길 43,부산광역시 부산진구 부전동 168-451,051-804-4377,"월-목 11시-21시30분,금 11시-22시","토 11시-22시,일 11시-21시30분",무료주차 가능,발렛주차 불가,유아의자 대여 불가,휠체어 대여 불가,반려동물 동반 입장불가,채식 메뉴 없음,할랄음식 메뉴 없음,글루텐프리 메뉴 없음,2022-11-30
갓파스시 연산점,음식점/유흥시설,동아시아음식,일본,부산광역시,연제구,연산동,,590-5 번지,반송로,44 번,35.188506,129.085387,47551,부산광역시 연제구 반송로 44,부산광역시 연제구 연산동 590-5,051-868-4377,"월-목 11시-21시30분,금 11시-22시","토 11시-22시,일 11시-21시30분",무료주차 가능,발렛주차 불가,유아의자 대여 불가,휠체어 대여 불가,반려동물 동반 입장불가,채식 메뉴 없음,할랄음식 메뉴 없음,글루텐프리 메뉴 없음,2022-11-30
갓포 강서1호점,음식점/유흥시설,동남아시아음식,베트남,서울특별시,강서구,내발산동,,699-17 번지,강서로47나길,8 번,37.552412,126.834783,7638,서울특별시 강서구 강서로47나길 8,서울특별시 강서구 내발산동  699-17,02-2662-0036,정보없음,정보없음,무료주차 불가,발렛주차 불가,유아의자 대여 불가,휠체어 대여 불가,반려동물 동반 입장불가,채식 메뉴 없음,할랄음식 메뉴 없음,글루텐프리 메뉴 없음,2022-11-30
갓포신,음식점/유흥시설,동아시아음식,일본,부산광역시,중구,남포동3가,,14-5 번지,남포길,6 번,35.098848,129.029343,48953,부산광역시 중구 남포길 6,부산광역시 중구 남포동3가 14-5,051-256-2731,화-금 11시30분-22시30분,토-일 11시30분-22시30분,무료주차 불가,발렛주차 불가,유아의자 대여 불가,휠체어 대여 불가,반려동물 동반 입장불가,채식 메뉴 없음,할랄음식 메뉴 없음,글루텐프리 메뉴 없음,2022-11-30
갓포초밥앤참지,음식점/유흥시설,동아시아음식,일본,광주광역시,광산구,장덕동,,1275 번지,풍영로,226 번,35.191598,126.814477,62224,광주광역시 광산구 풍영로 226,광주광역시 광산구 장덕동  1275,0507-1368-3737,11시30분-22시30분,11시30분-22시30분,무료주차 불가,발렛주차 불가,유아의자 대여 불가,휠체어 대여 불가,반려동물 동반 입장불가,채식 메뉴 없음,할랄음식 메뉴 없음,글루텐프리 메뉴 없음,2022-11-30
강가 무교점,음식점/유흥시설,인도아시아음식,인도,서울특별시,중구,무교동,,84 번지,세종대로,136 번,37.568416,126.978262,4520,서울특별시 중구 세종대로 136,서울특별시 중구 무교동  84,02-3783-0610,월-금 11시30분-21시,토-일 11시30분-21시,무료주차 가능,발렛주차 불가,유아의자 대여 불가,휠체어 대여 불가,반려동물 동반 입장불가,채식 메뉴 없음,할랄음식 메뉴 없음,글루텐프리 메뉴 없음,2022-11-30
강가 분당점,음식점/유흥시설,인도아시아음식,인도,경기도,성남시 분당구,서현동,,251-3 번지,서현로,184 번,37.388109,127.123863,13590,경기도 성남시 분당구 서현로 184,경기도 성남시 분당구 서현동  251-3,031-704-5001,월-금 11시30분-22시,토-일 11시30분-22시,무료주차 가능,발렛주차 불가,유아의자 대여 불가,휠체어 대여 불가,반려동물 동반 입장불가,채식 메뉴 없음,할랄음식 메뉴 없음,글루텐프리 메뉴 없음,2022-11-30
강가 수지점,음식점/유흥시설,인도아시아음식,인도,경기도,용인시 수지구,성복동,,789 번지,성복2로,38 번,37.312798,127.081667,16847,경기도 용인시 수지구 성복2로 38,경기도 용인시 수지구 성복동  789,031-5174-4069,월-금 10시30분-22시,토-일 10시30분-22시,무료주차 불가,발렛주차 불가,유아의자 대여 불가,휠체어 대여 불가,반려동물 동반 입장불가,채식 메뉴 없음,할랄음식 메뉴 없음,글루텐프리 메뉴 없음,2022-11-30
강가 여의도점,음식점/유흥시설,인도아시아음식,인도,서울특별시,영등포구,여의도동,,24 번지,국제금융로2길,7 번,37.524652,126.926844,7327,서울특별시 영등포구 국제금융로2길 7,서울특별시 영등포구 여의도동  24,02-782-3610,월-금 11시-21시,토-일 11시-21시,무료주차 가능,발렛주차 불가,유아의자 대여 불가,휠체어 대여 불가,반려동물 동반 입장불가,채식 메뉴 없음,할랄음식 메뉴 없음,글루텐프리 메뉴 없음,2022-11-30
강가 역삼점,음식점/유흥시설,인도아시아음식,인도,서울특별시,강남구,역삼동,,679 번지,논현로,508 번,37.501858,127.037106,6141,서울특별시 강남구 논현로 508,서울특별시 강남구 역삼동  679,02-2005-0610,월-금 11시-21시,일 11시30분-21시,무료주차 가능,발렛주차 불가,유아의자 대여 불가,휠체어 대여 불가,반려동물 동반 입장불가,채식 메뉴 없음,할랄음식 메뉴 없음,글루텐프리 메뉴 없음,2022-11-30
강가 잠실점,음식점/유흥시설,인도아시아음식,인도,서울특별시,송파구,신천동,,29 번지,올림픽로,300 번,37.513485,127.103137,5551,서울특별시 송파구 올림픽로 300,서울특별시 송파구 신천동  29,02-3213-4635,월-금 10시30분-22시,토-일 10시30분-22시,무료주차 불가,발렛주차 불가,유아의자 대여 불가,휠체어 대여 불가,반려동물 동반 입장불가,채식 메뉴 없음,할랄음식 메뉴 없음,글루텐프리 메뉴 없음,2022-11-30
강가 타임스퀘어점,음식점/유흥시설,인도아시아음식,인도,서울특별시,영등포구,영등포동4가,,442 번지,영중로,15 번,37.517252,126.903752,7305,서울특별시 영등포구 영중로 15,서울특별시 영등포구 영등포동4가  442,02-336-0610,월-금 11시-22시,토-일 11시-22시,무료주차 가능,발렛주차 불가,유아의자 대여 불가,휠체어 대여 불가,반려동물 동반 입장불가,채식 메뉴 없음,할랄음식 메뉴 없음,글루텐프리 메뉴 없음,2022-11-30
강남반점,음식점/유흥시설,동아시아음식,중국,서울특별시,서초구,서초동,,1309-5 번지,서초대로73길,50 번,37.501723,127.024006,6611,서울특별시 서초구 서초대로73길 50,서울특별시 서초구 서초동  1309-5,02-532-7133,10시-22시,토 10시-22시,무료주차 불가,발렛주차 불가,유아의자 대여 불가,휠체어 대여 불가,반려동물 동반 입장불가,채식 메뉴 없음,할랄음식 메뉴 없음,글루텐프리 메뉴 없음,2022-11-30
개스트로펍로에뒤셀,음식점/유흥시설,유럽음식,이탈리아,경기도,성남시 분당구,구미동,,9-1 번지,성남대로,151 번,37.349299,127.108304,13630,경기도 성남시 분당구 성남대로 151,경기도 성남시 분당구 구미동  9-1,정보없음,월-금 11시-22시,토-일 11시-22시,무료주차 가능,발렛주차 불가,유아의자 대여 불가,휠체어 대여 불가,반려동물 동반 입장불가,채식 메뉴 없음,할랄음식 메뉴 없음,글루텐프리 메뉴 없음,2022-11-30
객터스타코,음식점/유흥시설,남미음식,멕시코,경기도,광주시,경안동,,34-3 번지,경안로,29 번,37.409497,127.257334,12760,경기도 광주시 경안로 29,경기도 광주시 경안동  34-3,031-764-2090,정보없음,정보없음,무료주차 불가,발렛주차 불가,유아의자 대여 불가,휠체어 대여 불가,반려동물 동반 입장불가,채식 메뉴 없음,할랄음식 메뉴 없음,글루텐프리 메뉴 없음,2022-11-30
갠지스,음식점/유흥시설,인도아시아음식,인도,경기도,안산시 단원구,고잔동,,535-1 번지,고잔2길,41 번,37.317962,126.835652,15360,경기도 안산시 단원구 고잔2길 41,경기도 안산시 단원구 고잔동  535-1,정보없음,정보없음,정보없음,무료주차 불가,발렛주차 불가,유아의자 대여 불가,휠체어 대여 불가,반려동물 동반 입장불가,채식 메뉴 없음,할랄음식 메뉴 없음,글루텐프리 메뉴 없음,2022-11-30
갠지스,음식점/유흥시설,인도아시아음식,인도,서울특별시,관악구,신림동,,1538-14 번지,대학길,46 번,37.468698,126.937554,8813,서울특별시 관악구 대학길 46,서울특별시 관악구 신림동 1538-14,02-6404-6080,정보없음,정보없음,무료주차 불가,발렛주차 불가,유아의자 대여 불가,휠체어 대여 불가,반려동물 동반 입장불가,채식 메뉴 없음,할랄음식 메뉴 없음,글루텐프리 메뉴 없음,2022-11-30
갠지스 1동탄점,음식점/유흥시설,인도아시아음식,인도,경기도,화성시,반송동,,50-7 번지,동탄공원로2길,33-11 번,37.207096,127.061905,18435,경기도 화성시 동탄공원로2길 33-11,경기도 화성시 반송동  50-7,031-613-9575,월-금 11시30분-21시30분,토-일 11시30분-21시30분,무료주차 가능,발렛주차 불가,유아의자 대여 불가,휠체어 대여 불가,반려동물 동반 입장불가,채식 메뉴 없음,할랄음식 메뉴 없음,글루텐프리 메뉴 없음,2022-11-30
갠지스 광교,음식점/유흥시설,인도아시아음식,인도,경기도,수원시 영통구,이의동,,1306-4 번지,센트럴파크로127번길,66 번,37.294542,127.052856,16506,경기도 수원시 영통구 센트럴파크로127번길 66,경기도 수원시 영통구 이의동  1306-4,031-211-9575,월-금 11시-21시30분,토-일 11시-21시30분,무료주차 가능,발렛주차 불가,유아의자 대여 불가,휠체어 대여 불가,반려동물 동반 입장불가,채식 메뉴 없음,할랄음식 메뉴 없음,글루텐프리 메뉴 없음,2022-11-30
갠지스 동백점,음식점/유흥시설,인도아시아음식,인도,경기도,용인시 기흥구,중동,,833 번지,동백죽전대로,444 번,37.278035,127.151757,17006,경기도 용인시 기흥구 동백죽전대로 444,경기도 용인시 기흥구 중동  833,031-679-0798,월-금 11시-22시,토-일 11시-22시,무료주차 가능,발렛주차 불가,유아의자 대여 불가,휠체어 대여 불가,반려동물 동반 입장불가,채식 메뉴 없음,할랄음식 메뉴 없음,글루텐프리 메뉴 없음,2022-11-30
갠지스 보정점,음식점/유흥시설,인도아시아음식,인도,경기도,용인시 기흥구,보정동,,1193-2 번지,죽전로15번길,7-15 번,37.321168,127.109254,16897,경기도 용인시 기흥구 죽전로15번길 7-15,경기도 용인시 기흥구 보정동  1193-2,031-889-3434,월-금 11시-22시,토-일 11시-22시,무료주차 가능,발렛주차 불가,유아의자 대여 불가,휠체어 대여 불가,반려동물 동반 입장불가,채식 메뉴 없음,할랄음식 메뉴 없음,글루텐프리 메뉴 없음,2022-11-30
갠지스 카림애비뉴점,음식점/유흥시설,인도아시아음식,인도,경기도,화성시,청계동,,536 번지,동탄대로시범길,134 번,37.199086,127.113226,18476,경기도 화성시 동탄대로시범길 134,경기도 화성시 청계동  536,031-377-4281,월-금 11시30분-22시,정보없음,무료주차 불가,발렛주차 불가,유아의자 대여 불가,휠체어 대여 불가,반려동물 동반 입장불가,채식 메뉴 없음,할랄음식 메뉴 없음,글루텐프리 메뉴 없음,2022-11-30
갤러리인디고,음식점/유흥시설,동남아시아음식,기타,서울특별시,강남구,신사동,,540-19 번지,강남대로152길,67 번,37.518996,127.024522,6036,서울특별시 강남구 강남대로152길 67,서울특별시 강남구 신사동  540-19,0507-1432-0421,수-금 18시-22시,토-일 18시-22시,무료주차 불가,발렛주차 불가,유아의자 대여 불가,휠체어 대여 불가,반려동물 동반 입장불가,채식 메뉴 없음,할랄음식 메뉴 없음,글루텐프리 메뉴 없음,2022-11-30
거네스,음식점/유흥시설,인도아시아음식,인도,경기도,남양주시,화도읍,묵현리,390 번지,먹갓로,6 번,37.654948,127.275699,12169,경기도 남양주시 먹갓로 6,경기도 남양주시 화도읍 묵현리 390,031-592-2767,화-금 11시-21시,토-일 11시-21시,무료주차 가능,발렛주차 불가,유아의자 대여 불가,휠체어 대여 불가,반려동물 동반 입장불가,채식 메뉴 없음,할랄음식 메뉴 없음,글루텐프리 메뉴 없음,2022-11-30
거루캥테이블,음식점/유흥시설,오세아니아음식,호주 아시아,부산광역시,해운대구,송정동,,127-6 번지,송정중앙로5번길,79 번,35.186914,129.203753,48071,부산광역시 해운대구 송정중앙로5번길 79,부산광역시 해운대고 송정동 127-6,051-704-2511,"월-화 09시30분-18시,수-금 09시30분-21시",토-일 09시30분-21시,무료주차 가능,발렛주차 불가,유아의자 대여 불가,휠체어 대여 불가,반려동물 동반 입장가능,채식 메뉴 없음,할랄음식 메뉴 없음,글루텐프리 메뉴 없음,2022-11-30
거울못레스토랑,음식점/유흥시설,유럽음식,이탈리아,서울특별시,용산구,용산동6가,,168-6 번지,서빙고로,137 번,37.523036,126.980263,4383,서울특별시 용산구 서빙고로 137,서울특별시 용산구 용산동6가  168-6,0507-1419-8910,월-금 11시-21시30분,토-일 11시-21시30분,무료주차 가능,발렛주차 불가,유아의자 대여 불가,휠체어 대여 불가,반려동물 동반 입장불가,채식 메뉴 없음,할랄음식 메뉴 없음,글루텐프리 메뉴 없음,2022-11-30
겁쿤,음식점/유흥시설,동남아시아음식,기타,경기도,오산시,원동,,751-53 번지,오산로232번길,19 번,37.14773,127.07057,18138,경기도 오산시 오산로232번길 19,경기도 오산시 원동  751-53,정보없음,정보없음,정보없음,무료주차 불가,발렛주차 불가,유아의자 대여 불가,휠체어 대여 불가,반려동물 동반 입장불가,채식 메뉴 없음,할랄음식 메뉴 없음,글루텐프리 메뉴 없음,2022-11-30
게르식당,음식점/유흥시설,동남아시아음식,기타,광주광역시,광산구,월곡동,,680-9 번지,사암로390번길,21 번,35.179241,126.809138,62328,광주광역시 광산구 사암로390번길 21,광주광역시 광산구 월곡동  680-9,0507-1437-2289,"월-수,금 13시-24시",토-일 13시-24시,무료주차 가능,발렛주차 불가,유아의자 대여 불가,휠체어 대여 불가,반려동물 동반 입장불가,채식 메뉴 없음,할랄음식 메뉴 없음,글루텐프리 메뉴 없음,2022-11-30
게리가,음식점/유흥시설,동남아시아음식,기타,제주특별자치도,서귀포시,남원읍,신례리,71-3 번지,공천포로,51 번,33.263498,126.640829,63612,제주특별자치도 서귀포시 공천포로 51,제주특별자치도 서귀포시 남원읍 신례리 71-3,0507-1331-9541,"월,화,목,금 10시-18시",토-일 10시-18시,무료주차 가능,발렛주차 불가,유아의자 대여 불가,휠체어 대여 불가,반려동물 동반 입장가능,채식 메뉴 없음,할랄음식 메뉴 없음,글루텐프리 메뉴 없음,2022-11-30
게스트로,음식점/유흥시설,유럽음식,이탈리아,울산광역시,남구,삼산동,,1573-14 번지,삼산중로84번길,11-13 번,35.541519,129.336573,44705,울산광역시 남구 삼산중로84번길 11-13,울산광역시 남구 삼산동  1573-14,070-4032-7775,11시30분-15시 17시-22시,11시30분-22시,무료주차 가능,발렛주차 불가,유아의자 대여 불가,휠체어 대여 불가,반려동물 동반 입장불가,채식 메뉴 없음,할랄음식 메뉴 없음,글루텐프리 메뉴 없음,2022-11-30
게이샤하우스,음식점/유흥시설,동아시아음식,일본,서울특별시,용산구,이태원동,,119-7 번지,이태원로,173-7 번,37.534876,126.993223,4350,서울특별시 용산구 이태원로 173-7,서울특별시 용산구 이태원동 119-7,02-798-1125,"월-목 18시-01시30분,금 18시-04시30분",토 18시-04시30분,무료주차 불가,발렛주차 불가,유아의자 대여 불가,휠체어 대여 불가,반려동물 동반 입장불가,채식 메뉴 없음,할랄음식 메뉴 없음,글루텐프리 메뉴 없음,2022-11-30
게이트21,음식점/유흥시설,유럽음식,이탈리아,서울특별시,용산구,용산동2가,,5-71 번지,신흥로,21 번,37.540486,126.986683,4338,서울특별시 용산구 신흥로 21,서울특별시 용산구 용산동2가  5-71,02-749-2112,정보없음,정보없음,무료주차 불가,발렛주차 불가,유아의자 대여 불가,휠체어 대여 불가,반려동물 동반 입장불가,채식 메뉴 없음,할랄음식 메뉴 없음,글루텐프리 메뉴 없음,2022-11-30
게이트나인 대구점,음식점/유흥시설,동남아시아음식,기타,대구광역시,중구,계산동2가,,200 번지,달구벌대로,2077 번,35.866688,128.590631,41936,대구광역시 중구 달구벌대로 2077,대구광역시 중구 계산동2가  200,053-245-2876,월-금 10시-22시,토-일 10시-22시,무료주차 가능,발렛주차 불가,유아의자 대여 불가,휠체어 대여 불가,반려동물 동반 입장불가,채식 메뉴 없음,할랄음식 메뉴 없음,글루텐프리 메뉴 없음,2022-11-30
게이트나인 동탄점,음식점/유흥시설,동남아시아음식,기타,경기도,화성시,오산동,,967-157 번지,동탄역로,160 번,37.200654,127.097918,18478,경기도 화성시 동탄역로 160,경기도 화성시 오산동  967-157,0507-1435-3553,월-금 10시30분-21시,토-일 10시30분-21시,무료주차 가능,발렛주차 불가,유아의자 대여 불가,휠체어 대여 불가,반려동물 동반 입장불가,채식 메뉴 없음,할랄음식 메뉴 없음,글루텐프리 메뉴 없음,2022-11-30
게이트나인 무역센터점,음식점/유흥시설,동남아시아음식,기타,서울특별시,강남구,삼성동,,159-7 번지,테헤란로,517 번,37.508483,127.059871,6164,서울특별시 강남구 테헤란로 517,서울특별시 강남구 삼성동  159-7,02-3467-6723,월-금 10시30분-21시,토-일 10시30분-21시,무료주차 가능,발렛주차 불가,유아의자 대여 불가,휠체어 대여 불가,반려동물 동반 입장불가,채식 메뉴 없음,할랄음식 메뉴 없음,글루텐프리 메뉴 없음,2022-11-30
게이트나인 스타필드 안성점,음식점/유흥시설,동남아시아음식,기타,경기도,안성시,공도읍,진사리,354 번지,서동대로,3930-39 번,36.994633,127.14725,17563,경기도 안성시 서동대로 3930-39,경기도 안성시 공도읍 진사리 354,031-8092-1679,월-금 10시-22시,토-일 10시-22시,무료주차 가능,발렛주차 불가,유아의자 대여 불가,휠체어 대여 불가,반려동물 동반 입장불가,채식 메뉴 없음,할랄음식 메뉴 없음,글루텐프리 메뉴 없음,2022-11-30
게이트나인 현대백화점판교점,음식점/유흥시설,동남아시아음식,기타,경기도,성남시 분당구,백현동,,541 번지,판교역로146번길,20 번,37.392788,127.112108,13529,경기도 성남시 분당구 판교역로146번길 20,경기도 성남시 분당구 백현동  541,031-5170-1941,월-금 11시-22시,토-일 11시-22시,무료주차 가능,발렛주차 불가,유아의자 대여 불가,휠체어 대여 불가,반려동물 동반 입장불가,채식 메뉴 없음,할랄음식 메뉴 없음,글루텐프리 메뉴 없음,2022-11-30
게장명가장가남도,음식점/유흥시설,동남아시아음식,기타,전라남도,여수시,교동,,372 번지,통제영2길,8-5 번,34.740808,127.733159,59736,전라남도 여수시 통제영2길 8-5,전라남도 여수시 교동  372,0507-1360-6425,"월-수,금 9시30분-21시 ",토-일 9시30분-21시 ,무료주차 가능,발렛주차 불가,유아의자 대여 불가,휠체어 대여 불가,반려동물 동반 입장불가,채식 메뉴 없음,할랄음식 메뉴 없음,글루텐프리 메뉴 없음,2022-11-30
게코스,음식점/유흥시설,유럽음식,이탈리아,경기도,용인시 기흥구,보정동,,1266-2 번지,보정로,115 번,37.319904,127.115272,16898,경기도 용인시 기흥구 보정로 115,경기도 용인시 기흥구 보정동  1266-2,031-262-9974,정보없음,정보없음,무료주차 가능,발렛주차 불가,유아의자 대여 불가,휠체어 대여 불가,반려동물 동반 입장불가,채식 메뉴 없음,할랄음식 메뉴 없음,글루텐프리 메뉴 없음,2022-11-30
겐로쿠,음식점/유흥시설,동아시아음식,일본,서울특별시,광진구,화양동,,5-106 번지,능동로,111 번,37.541063,127.070859,5017,서울특별시 광진구 능동로 111,서울특별시 광진구 화양동 5-106,02-465-8545,화-금 11시30분-22시,토-일 11시30분-22시,무료주차 가능,발렛주차 불가,유아의자 대여 불가,휠체어 대여 불가,반려동물 동반 입장불가,채식 메뉴 없음,할랄음식 메뉴 없음,글루텐프리 메뉴 없음,2022-11-30
겐지,음식점/유흥시설,동아시아음식,일본,대전광역시,유성구,죽동,,618-1 번지,은구비로155번안길,5-17 번,36.381026,127.325443,34097,대전광역시 유성구 은구비로155번안길 5-17,대전광역시 유성구 죽동 618-1,042-826-0025,월-금 11시30분-21시,휴무,무료주차 불가,발렛주차 불가,유아의자 대여 불가,휠체어 대여 불가,반려동물 동반 입장불가,채식 메뉴 없음,할랄음식 메뉴 없음,글루텐프리 메뉴 없음,2022-11-30
겐짱카레 남포점,음식점/유흥시설,인도아시아음식,인도,부산광역시,중구,신창동3가,,15-1 번지,광복로35번길,16-1 번,35.100729,129.028992,48946,부산광역시 중구 광복로35번길 16-1,부산광역시 중구 신창동3가  15-1,051-241-0092,화-금 11시-20시30분 ,토-일 11시-20시30분,무료주차 불가,발렛주차 불가,유아의자 대여 불가,휠체어 대여 불가,반려동물 동반 입장불가,채식 메뉴 없음,할랄음식 메뉴 없음,글루텐프리 메뉴 없음,2022-11-30
겐짱카레 본점,음식점/유흥시설,동아시아음식,일본,부산광역시,중구,중앙동4가,,42-2 번지,대청로135번길,26 번,35.105142,129.03497,48930,부산광역시 중구 대청로135번길 26,부산광역시 중구 중앙동4가 42-2,051-461-0092,월-금 11시-20시30분 ,토 11시-20시30분,무료주차 불가,발렛주차 불가,유아의자 대여 불가,휠체어 대여 불가,반려동물 동반 입장불가,채식 메뉴 없음,할랄음식 메뉴 없음,글루텐프리 메뉴 없음,2022-11-30
겐츠베이커리,음식점/유흥시설,인도아시아음식,인도,부산광역시,기장군,기장읍,당사리,524 번지,기장해안로,147 번,35.192208,129.212774,46084,부산광역시 기장군 기장해안로 147,부산광역시 기장군 기장읍 당사리 524,051-901-2879,월-금 10시30분-21시,토-일 10시30분-21시,무료주차 가능,발렛주차 불가,유아의자 대여 불가,휠체어 대여 불가,반려동물 동반 입장불가,채식 메뉴 없음,할랄음식 메뉴 없음,글루텐프리 메뉴 없음,2022-11-30
겟201 침산점,음식점/유흥시설,유럽음식,이탈리아,대구광역시,북구,칠성동2가,,90 번지,옥산로,95 번,35.884576,128.585887,41593,대구광역시 북구 옥산로 95,대구광역시 북구 칠성동2가  90,053-355-0201,월-금 11시30분-21시,토-일 11시30분-21시,무료주차 가능,발렛주차 불가,유아의자 대여 불가,휠체어 대여 불가,반려동물 동반 입장불가,채식 메뉴 없음,할랄음식 메뉴 없음,글루텐프리 메뉴 없음,2022-11-30
경도일식,음식점/유흥시설,동아시아음식,일본,인천광역시,중구,관동3가,,4-13 번지,신포로31번길,18 번,37.472282,126.624596,22315,인천광역시 중구 신포로31번길 18,인천광역시 중구 관동3가 4-13,032-772-5209,정보없음,정보없음,무료주차 불가,발렛주차 불가,유아의자 대여 불가,휠체어 대여 불가,반려동물 동반 입장불가,채식 메뉴 없음,할랄음식 메뉴 없음,글루텐프리 메뉴 없음,2022-11-30
경북안동지역자활센터,음식점/유흥시설,동남아시아음식,기타,경상북도,안동시,운흥동,,247-28 번지,경동로,656 번,36.562553,128.729555,36706,경상북도 안동시 경동로 656,경상북도 안동시 운흥동  247-28,정보없음,정보없음,정보없음,무료주차 가능,발렛주차 불가,유아의자 대여 불가,휠체어 대여 불가,반려동물 동반 입장불가,채식 메뉴 없음,할랄음식 메뉴 없음,글루텐프리 메뉴 없음,2022-11-30
경성퀴진,음식점/유흥시설,유럽음식,이탈리아,부산광역시,동래구,안락동,,221-41 번지,온천천로,457 번,35.191502,129.102963,47900,부산광역시 동래구 온천천로 457,부산광역시 동래구 안락동  221-41,051-532-8880,"월,수-목 11시-22시30분,금 11시-23시","토 11시-23시,일 11시-22시30분",무료주차 가능,발렛주차 불가,유아의자 대여 불가,휠체어 대여 불가,반려동물 동반 입장불가,채식 메뉴 없음,할랄음식 메뉴 없음,글루텐프리 메뉴 없음,2022-11-30
계룡베트남쌀국수,음식점/유흥시설,동남아시아음식,베트남,충청남도,계룡시,엄사면,엄사리,172-1 번지,엄사중앙로,111 번,36.290513,127.24281,32803,충청남도 계룡시 엄사중앙로 111,충청남도 계룡시 엄사면 엄사리 172-1,정보없음,정보없음,정보없음,무료주차 가능,발렛주차 불가,유아의자 대여 불가,휠체어 대여 불가,반려동물 동반 입장불가,채식 메뉴 없음,할랄음식 메뉴 없음,글루텐프리 메뉴 없음,2022-11-30
계명닭집,음식점/유흥시설,유럽음식,이탈리아,충청북도,충주시,문화동,,653 번지,탄금대로,15-2 번,36.973467,127.926254,27406,충청북도 충주시 탄금대로 15-2,충청북도 충주시 문화동  653,043-847-2592,정보없음,정보없음,무료주차 가능,발렛주차 불가,유아의자 대여 불가,휠체어 대여 불가,반려동물 동반 입장불가,채식 메뉴 없음,할랄음식 메뉴 없음,글루텐프리 메뉴 없음,2022-11-30
고고인디안쿠진,음식점/유흥시설,인도아시아음식,인도,서울특별시,성북구,안암동5가,,104-246 번지,안암로,81-4 번,37.583645,127.029962,2856,서울특별시 성북구 안암로 81-4,서울특별시 성북구 안암동5가  104-246,02-922-0786,월-금 11시-21시,토-일 11시-21시,무료주차 가능,발렛주차 불가,유아의자 대여 불가,휠체어 대여 불가,반려동물 동반 입장불가,채식 메뉴 없음,할랄음식 메뉴 없음,글루텐프리 메뉴 없음,2022-11-30
고구려짬뽕10101 구월점,음식점/유흥시설,동아시아음식,중국,인천광역시,남동구,구월동,,1461-2 번지,인하로507번길,34 번,37.444754,126.703333,21574,인천광역시 남동구 인하로507번길 34,인천광역시 남동구 구월동 1461-2,032-431-1142,월-금 00시-24시,토-일 00시-24시,무료주차 불가,발렛주차 불가,유아의자 대여 불가,휠체어 대여 불가,반려동물 동반 입장불가,채식 메뉴 없음,할랄음식 메뉴 없음,글루텐프리 메뉴 없음,2022-11-30
고다이,음식점/유흥시설,아시아음식,몽골,서울특별시,용산구,한남동,,30-4 번지,한남대로18길,28 번,37.534639,127.008827,4419,서울특별시 용산구 한남대로18길 28,서울특별시 용산구 한남동 30-4,02-749-9299,월-금 17시-22시,토-일 16시30분-22시,무료주차 가능,발렛주차 불가,유아의자 대여 불가,휠체어 대여 불가,반려동물 동반 입장불가,채식 메뉴 없음,할랄음식 메뉴 없음,글루텐프리 메뉴 없음,2022-11-30
고동운식당,음식점/유흥시설,유럽음식,이탈리아,부산광역시,해운대구,중동,,1477-3 번지,달맞이길117번나길,151 번,35.163165,129.184575,48115,부산광역시 해운대구 달맞이길117번나길 151,부산광역시 해운대구 중동 1477-3 벨로스,070-8848-0814,목-금 12시30분-23시,토-일 12시30분-23시,무료주차 불가,발렛주차 불가,유아의자 대여 불가,휠체어 대여 불가,반려동물 동반 입장불가,채식 메뉴 없음,할랄음식 메뉴 없음,글루텐프리 메뉴 없음,2022-11-30
고렝 신세계의정부점,음식점/유흥시설,동남아시아음식,인도네시아,경기도,의정부시,의정부동,,168-54 번지,평화로,525 번,37.738893,127.046311,11696,경기도 의정부시 평화로 525,경기도 의정부시 의정부동  168-54,031-8082-0919,월-금 11시-21시,토-일 11시-21시,무료주차 가능,발렛주차 불가,유아의자 대여 불가,휠체어 대여 불가,반려동물 동반 입장불가,채식 메뉴 없음,할랄음식 메뉴 없음,글루텐프리 메뉴 없음,2022-11-30
고려인마을패밀리팰맨니,음식점/유흥시설,동남아시아음식,기타,광주광역시,광산구,월곡동,,502-5 번지,산정공원로,74 번,35.174065,126.806502,62333,광주광역시 광산구 산정공원로 74,광주광역시 광산구 월곡동  502-5,062-714-3449,정보없음,정보없음,무료주차 불가,발렛주차 불가,유아의자 대여 불가,휠체어 대여 불가,반려동물 동반 입장불가,채식 메뉴 없음,할랄음식 메뉴 없음,글루텐프리 메뉴 없음,2022-11-30
고릴라트럭,음식점/유흥시설,남미음식,멕시코,충청남도,천안시 동남구,신부동,,379 번지,먹거리3길,21 번,36.817159,127.155296,31123,충청남도 천안시 동남구 먹거리3길 21,충청남도 천안시 동남구 신부동  379,070-5363-5639,정보없음,정보없음,무료주차 가능,발렛주차 불가,유아의자 대여 불가,휠체어 대여 불가,반려동물 동반 입장불가,채식 메뉴 없음,할랄음식 메뉴 없음,글루텐프리 메뉴 없음,2022-11-30
고마트베이커리,음식점/유흥시설,동남아시아음식,베트남,경상북도,의성군,다인면,서릉리,57-8 번지,서부로,2744 번,36.447445,128.356101,37303,경상북도 의성군 서부로 2744,경상북도 의성군 다인면 서릉리 57-8,054-861-9019,정보없음,정보없음,무료주차 가능,발렛주차 불가,유아의자 대여 불가,휠체어 대여 불가,반려동물 동반 입장불가,채식 메뉴 없음,할랄음식 메뉴 없음,글루텐프리 메뉴 없음,2022-11-30
고메303,음식점/유흥시설,유럽음식,이탈리아,경상남도,양산시,물금읍,가촌리,705-3 번지,가촌로,137 번,35.32255,128.994697,50603,경상남도 양산시 가촌로 137,경상남도 양산시 물금읍 가촌리 705-3,070-5043-0303,화-금 11시30분-21시30분,토-일 11시30분-21시30분,무료주차 가능,발렛주차 불가,유아의자 대여 불가,휠체어 대여 불가,반려동물 동반 입장가능,채식 메뉴 없음,할랄음식 메뉴 없음,글루텐프리 메뉴 없음,2022-11-30
고메회초밥,음식점/유흥시설,동아시아음식,일본,부산광역시,동구,범일동,,830-168 번지,조방로38번길,3 번,35.140298,129.061405,48739,부산광역시 동구 조방로38번길 3,부산광역시 동구 범일동 830-168,051-635-0777,월-금 11시-22시,토 11시-22시,무료주차 불가,발렛주차 불가,유아의자 대여 불가,휠체어 대여 불가,반려동물 동반 입장불가,채식 메뉴 없음,할랄음식 메뉴 없음,글루텐프리 메뉴 없음,2022-11-30
고민끝에여기,음식점/유흥시설,남미음식,멕시코,부산광역시,동구,초량동,,603-5 번지,대영로239번길,12 번,35.1127,129.037076,48820,부산광역시 동구 대영로239번길 12,부산광역시 동구 초량동 603-5,051-442-1592,"월-화,목-금 12시-20시",토-일 12시-20시,무료주차 불가,발렛주차 불가,유아의자 대여 불가,휠체어 대여 불가,반려동물 동반 입장불가,채식 메뉴 없음,할랄음식 메뉴 없음,글루텐프리 메뉴 없음,2022-11-30
고베규카츠 상수점,음식점/유흥시설,동아시아음식,일본,서울특별시,마포구,서교동,,402-24 번지,양화로6길,103 번,37.548443,126.919915,4048,서울특별시 마포구 양화로6길 103,서울특별시 마포구 서교동 402-24,02-334-2015,월-금 11시30분-21시,토-일 11시30분-21시,무료주차 불가,발렛주차 불가,유아의자 대여 불가,휠체어 대여 불가,반려동물 동반 입장불가,채식 메뉴 없음,할랄음식 메뉴 없음,글루텐프리 메뉴 없음,2022-11-30
고베규카츠 서면점,음식점/유흥시설,동아시아음식,일본,부산광역시,부산진구,부전동,,187-10 번지,중앙대로680번가길,29 번,35.154718,129.060642,47295,부산광역시 부산진구 중앙대로680번가길 29,부산광역시 부산진구 부전동 187-10,051-802-5565,월-금 12시-21시,토-일 12시-21시,무료주차 불가,발렛주차 불가,유아의자 대여 불가,휠체어 대여 불가,반려동물 동반 입장불가,채식 메뉴 없음,할랄음식 메뉴 없음,글루텐프리 메뉴 없음,2022-11-30
고부기 대학로본점,음식점/유흥시설,남미음식,멕시코,서울특별시,종로구,동숭동,,50-42 번지,동숭길,76 번,37.581634,127.004265,3085,서울특별시 종로구 동숭길 76,서울특별시 종로구 동숭동  50-42,0507-1319-0578,"월,수-금 10시-23시",토-일 10시-23시,무료주차 불가,발렛주차 불가,유아의자 대여 불가,휠체어 대여 불가,반려동물 동반 입장불가,채식 메뉴 없음,할랄음식 메뉴 없음,글루텐프리 메뉴 없음,2022-11-30
고부기 평택본점,음식점/유흥시설,남미음식,멕시코,경기도,평택시,비전동,,1107-1 번지,비전5로,20-51 번,36.999915,127.114644,17854,경기도 평택시 비전5로 20-51,경기도 평택시 비전동  1107-1,0507-1320-3648,월-금 17시30분-01시,토 17시30분-01시,무료주차 가능,발렛주차 불가,유아의자 대여 불가,휠체어 대여 불가,반려동물 동반 입장불가,채식 메뉴 없음,할랄음식 메뉴 없음,글루텐프리 메뉴 없음,2022-11-30
고불 경북대점,음식점/유흥시설,동남아시아음식,기타,대구광역시,북구,산격동,,1314-7 번지,대학로17길,15 번,35.893702,128.608751,41544,대구광역시 북구 대학로17길 15,대구광역시 북구 산격동  1314-7,053-959-8588,정보없음,정보없음,무료주차 가능,발렛주차 불가,유아의자 대여 불가,휠체어 대여 불가,반려동물 동반 입장불가,채식 메뉴 없음,할랄음식 메뉴 없음,글루텐프리 메뉴 없음,2022-11-30
고빈,음식점/유흥시설,동남아시아음식,기타,인천광역시,서구,오류동,,1656-1 번지,보듬로,158 번,37.595864,126.614897,22664,인천광역시 서구 보듬로 158,인천광역시 서구 오류동  1656-1,032-710-2823,월-금 10시30분-22시,토-일 10시30분-22시,무료주차 가능,발렛주차 불가,유아의자 대여 불가,휠체어 대여 불가,반려동물 동반 입장불가,채식 메뉴 없음,할랄음식 메뉴 없음,글루텐프리 메뉴 없음,2022-11-30
고센피제리아,음식점/유흥시설,유럽음식,이탈리아,경상북도,안동시,성곡동,,791-1 번지,엄달골2길,8 번,36.579965,128.769269,36710,경상북도 안동시 엄달골2길 8,경상북도 안동시 성곡동  791-1,054-821-0024,월-금 11시30분-22시,토-일 11시30분-22시,무료주차 가능,발렛주차 불가,유아의자 대여 불가,휠체어 대여 불가,반려동물 동반 입장불가,채식 메뉴 없음,할랄음식 메뉴 없음,글루텐프리 메뉴 없음,2022-11-30
고수타코 여의도KBS점,음식점/유흥시설,남미음식,멕시코,서울특별시,영등포구,여의도동,,17 번지,의사당대로,38 번,37.525559,126.918345,7236,서울특별시 영등포구 의사당대로 38,서울특별시 영등포구 여의도동  17,0507-1413-1187,월-금 11시-21시30분,토 11시30분-21시30분,무료주차 불가,발렛주차 불가,유아의자 대여 불가,휠체어 대여 불가,반려동물 동반 입장불가,채식 메뉴 없음,할랄음식 메뉴 없음,글루텐프리 메뉴 없음,2022-11-30
고수한잎,음식점/유흥시설,동남아시아음식,기타,서울특별시,마포구,상암동,,2-70 번지,성암로15길,12 번,37.578232,126.895623,3927,서울특별시 마포구 성암로15길 12,서울특별시 마포구 상암동  2-70,정보없음,월-금 11시-15시,토 11시-15시,무료주차 가능,발렛주차 불가,유아의자 대여 불가,휠체어 대여 불가,반려동물 동반 입장불가,채식 메뉴 없음,할랄음식 메뉴 없음,글루텐프리 메뉴 없음,2022-11-30
고스마,음식점/유흥시설,유럽음식,이탈리아,서울특별시,종로구,평동,,233 번지,경교장길,35 번,37.568913,126.965127,3180,서울특별시 종로구 경교장길 35,서울특별시 종로구 평동 233,0507-1494-2018,월-금 11시30분-22시,토-일 12시-22시,무료주차 가능,발렛주차 불가,유아의자 대여 불가,휠체어 대여 불가,반려동물 동반 입장불가,채식 메뉴 없음,할랄음식 메뉴 없음,글루텐프리 메뉴 없음,2022-11-30
고씨네 가평점,음식점/유흥시설,동아시아음식,일본,경기도,가평군,조종면,현리,410-29 번지,현창로,28-10 번,37.81739,127.350036,12438,경기도 가평군 현창로 28-10,경기도 가평군 조종면 현리 410-29,0507-1349-2538,월-금 11시-22시,토-일 11시-22시,무료주차 가능,발렛주차 불가,유아의자 대여 불가,휠체어 대여 불가,반려동물 동반 입장불가,채식 메뉴 없음,할랄음식 메뉴 없음,글루텐프리 메뉴 없음,2022-11-30
고씨네 다산점,음식점/유흥시설,동남아시아음식,기타,경기도,남양주시,다산동,,6130-1 번지,다산순환로,420 번,37.620003,127.157717,12285,경기도 남양주시 다산순환로 420,경기도 남양주시 다산동  6130-1,0507-1380-8140,월-금 11시-20시30분,토-일 11시-20시30분,무료주차 가능,발렛주차 불가,유아의자 대여 불가,휠체어 대여 불가,반려동물 동반 입장불가,채식 메뉴 없음,할랄음식 메뉴 없음,글루텐프리 메뉴 없음,2022-11-30
고씨네 대학로점,음식점/유흥시설,인도아시아음식,인도,서울특별시,종로구,동숭동,,1-89 번지,대학로12길,63 번,37.581249,127.004041,3086,서울특별시 종로구 대학로12길 63,서울특별시 종로구 동숭동  1-89,0507-1445-2207,월-금 11시30분-21시,토-일 11시30분-21시,무료주차 불가,발렛주차 불가,유아의자 대여 불가,휠체어 대여 불가,반려동물 동반 입장불가,채식 메뉴 없음,할랄음식 메뉴 없음,글루텐프리 메뉴 없음,2022-11-30
고씨네 중앙대점,음식점/유흥시설,인도아시아음식,인도,서울특별시,동작구,흑석동,,190-26 번지,흑석로,83-1 번,37.50724,126.958825,6910,서울특별시 동작구 흑석로 83-1,서울특별시 동작구 흑석동  190-26,0507-1401-2134,월-금 11시30분-20시30분,토-일 11시30분-20시30분,무료주차 불가,발렛주차 불가,유아의자 대여 불가,휠체어 대여 불가,반려동물 동반 입장불가,채식 메뉴 없음,할랄음식 메뉴 없음,글루텐프리 메뉴 없음,2022-11-30
고씨네 한남대점,음식점/유흥시설,인도아시아음식,인도,대전광역시,대덕구,오정동,,211-5 번지,한남로12번길,51 번,36.352482,127.42454,34431,대전광역시 대덕구 한남로12번길 51,대전광역시 대덕구 오정동  211-5,042-633-3033,월-금 11시30분-21시,토-일 11시30분-21시,무료주차 불가,발렛주차 불가,유아의자 대여 불가,휠체어 대여 불가,반려동물 동반 입장불가,채식 메뉴 없음,할랄음식 메뉴 없음,글루텐프리 메뉴 없음,2022-11-30
고에몬 강남점,음식점/유흥시설,동아시아음식,일본,서울특별시,서초구,서초동,,1317-13 번지,서초대로77길,7 번,37.498452,127.026363,6615,서울특별시 서초구 서초대로77길 7,서울특별시 서초구 서초동 1317-13,02-534-8036,월-금 11시-22시,토-일 11시-22시,무료주차 불가,발렛주차 불가,유아의자 대여 불가,휠체어 대여 불가,반려동물 동반 입장불가,채식 메뉴 없음,할랄음식 메뉴 없음,글루텐프리 메뉴 없음,2022-11-30
고칸 용인명지대점,음식점/유흥시설,동아시아음식,일본,경기도,용인시 처인구,역북동,,757 번지,명지로60번길,8-3 번,37.231084,127.187237,17056,경기도 용인시 처인구 명지로60번길 8-3,경기도 용인시 처인구 역북동  757,0507-1337-0098,월-금 11시-21시,토-일 11시-21시,무료주차 가능,발렛주차 불가,유아의자 대여 불가,휠체어 대여 불가,반려동물 동반 입장불가,채식 메뉴 없음,할랄음식 메뉴 없음,글루텐프리 메뉴 없음,2022-11-30
고피자 석촌호수점,음식점/유흥시설,유럽음식,이탈리아,서울특별시,송파구,석촌동,,1-1 번지,석촌호수로,188 번,37.506261,127.098283,5612,서울특별시 송파구 석촌호수로 188,서울특별시 송파구 석촌동  1-1,02-2202-9424,11시-23시30분,11시-23시30분,무료주차 불가,발렛주차 불가,유아의자 대여 불가,휠체어 대여 불가,반려동물 동반 입장불가,채식 메뉴 없음,할랄음식 메뉴 없음,글루텐프리 메뉴 없음,2022-11-30
고향베트남식당,음식점/유흥시설,동남아시아음식,베트남,경상남도,김해시,서상동,,27-23 번지,가락로,96 번,35.235122,128.881416,50915,경상남도 김해시 가락로 96,경상남도 김해시 서상동  27-23,정보없음,월-금 12시-22시,토-일 10시-22시,무료주차 가능,발렛주차 불가,유아의자 대여 불가,휠체어 대여 불가,반려동물 동반 입장불가,채식 메뉴 없음,할랄음식 메뉴 없음,글루텐프리 메뉴 없음,2022-11-30
고향베트남식당,음식점/유흥시설,동남아시아음식,베트남,충청남도,서산시,동문동,,307-54 번지,안견로,196 번,36.780805,126.459143,31981,충청남도 서산시 안견로 196,충청남도 서산시 동문동  307-54,0507-1494-6112,"월,수-금 09시-21시",토-일 09시-21시,무료주차 가능,발렛주차 불가,유아의자 대여 불가,휠체어 대여 불가,반려동물 동반 입장불가,채식 메뉴 없음,할랄음식 메뉴 없음,글루텐프리 메뉴 없음,2022-11-30
고향식당,음식점/유흥시설,동남아시아음식,베트남,강원도,속초시,교동,,1021-5 번지,청초호반로,180 번,38.19572,128.579944,24854,강원도 속초시 청초호반로 180,강원도 속초시 교동  1021-5,033-637-7205,월-금 10시-22시,토-일 10시-22시,무료주차 가능,발렛주차 불가,유아의자 대여 불가,휠체어 대여 불가,반려동물 동반 입장불가,채식 메뉴 없음,할랄음식 메뉴 없음,글루텐프리 메뉴 없음,2022-11-30
고향식당베트남쌀국수,음식점/유흥시설,동남아시아음식,베트남,경기도,수원시 팔달구,매산로2가,,90-16 번지,덕영대로943번길,2 번,37.264644,127.002325,16461,경기도 수원시 팔달구 덕영대로943번길 2,경기도 수원시 팔달구 매산로2가  90-16,031-222-9227,월-금 09시30분-22시,토-일 09시30분-22시,무료주차 불가,발렛주차 불가,유아의자 대여 불가,휠체어 대여 불가,반려동물 동반 입장불가,채식 메뉴 없음,할랄음식 메뉴 없음,글루텐프리 메뉴 없음,2022-11-30
고향약속장소,음식점/유흥시설,동남아시아음식,기타,경기도,오산시,오산동,,878-12 번지,오산로232번길,6 번,37.147589,127.068984,18138,경기도 오산시 오산로232번길 6,경기도 오산시 오산동  878-12,정보없음,정보없음,정보없음,무료주차 가능,발렛주차 불가,유아의자 대여 불가,휠체어 대여 불가,반려동물 동반 입장불가,채식 메뉴 없음,할랄음식 메뉴 없음,글루텐프리 메뉴 없음,2022-11-30
고향연가,음식점/유흥시설,동남아시아음식,기타,경기도,광주시,곤지암읍,곤지암리,441-19 번지,곤지암로50번길,15-1 번,37.349908,127.339703,12804,경기도 광주시 곤지암로50번길 15-1,경기도 광주시 곤지암읍 곤지암리 441-19,031-762-0911,정보없음,정보없음,무료주차 가능,발렛주차 불가,유아의자 대여 불가,휠체어 대여 불가,반려동물 동반 입장불가,채식 메뉴 없음,할랄음식 메뉴 없음,글루텐프리 메뉴 없음,2022-11-30
고향의향,음식점/유흥시설,동남아시아음식,기타,경상북도,영천시,야사동,,154-68 번지,충효로,133 번,35.976156,128.942966,38833,경상북도 영천시 충효로 133,경상북도 영천시 야사동  154-68,정보없음,정보없음,정보없음,무료주차 가능,발렛주차 불가,유아의자 대여 불가,휠체어 대여 불가,반려동물 동반 입장불가,채식 메뉴 없음,할랄음식 메뉴 없음,글루텐프리 메뉴 없음,2022-11-30
고향카츠 울산옥동점,음식점/유흥시설,동아시아음식,일본,울산광역시,남구,옥동,,260-1 번지,대공원입구로21번길,27 번,35.534153,129.291288,44662,울산광역시 남구 대공원입구로21번길 27,울산광역시 남구 옥동  260-1,0507-1445-4420,11시30분-19시50분,11시30분-20시,무료주차 가능,발렛주차 불가,유아의자 대여 불가,휠체어 대여 불가,반려동물 동반 입장불가,채식 메뉴 없음,할랄음식 메뉴 없음,글루텐프리 메뉴 없음,2022-11-30
고흥관,음식점/유흥시설,동남아시아음식,베트남,대구광역시,달서구,이곡동,,775-15 번지,달구벌대로,1312-3 번,35.850776,128.510655,42696,대구광역시 달서구 달구벌대로 1312-3,대구광역시 달서구 이곡동  775-15,053-583-2004,정보없음,정보없음,무료주차 가능,발렛주차 불가,유아의자 대여 불가,휠체어 대여 불가,반려동물 동반 입장불가,채식 메뉴 없음,할랄음식 메뉴 없음,글루텐프리 메뉴 없음,2022-11-30
곡하노이,음식점/유흥시설,동남아시아음식,베트남,경기도,성남시 분당구,야탑동,,366-4 번지,성남대로916번길,11 번,37.410849,127.129833,13506,경기도 성남시 분당구 성남대로916번길 11,경기도 성남시 분당구 야탑동  366-4,0507-1380-6628,월-금 11시-22시,토-일 11시-22시,무료주차 가능,발렛주차 불가,유아의자 대여 불가,휠체어 대여 불가,반려동물 동반 입장불가,채식 메뉴 없음,할랄음식 메뉴 없음,글루텐프리 메뉴 없음,2022-11-30
곤트란쉐리에 뉴서울호텔점,음식점/유흥시설,유럽음식,프랑스,서울특별시,중구,태평로1가,,29-1 번지,세종대로22길,16 번,37.567989,126.978165,4520,서울특별시 중구 세종대로22길 16,서울특별시 중구 태평로1가 29-1 뉴서울호텔,02-723-0133,월-금 08시-22시,토-일 08시-22시,무료주차 불가,발렛주차 불가,유아의자 대여 불가,휠체어 대여 불가,반려동물 동반 입장불가,채식 메뉴 없음,할랄음식 메뉴 없음,글루텐프리 메뉴 없음,2022-11-30
곤파치,음식점/유흥시설,동아시아음식,일본,인천광역시,부평구,부평동,,193-14 번지,시장로29번길,7 번,37.49371,126.725167,21394,인천광역시 부평구 시장로29번길 7,인천광역시 부평구 부평동 193-14,032-507-3387,정보없음,정보없음,무료주차 불가,발렛주차 불가,유아의자 대여 불가,휠체어 대여 불가,반려동물 동반 입장불가,채식 메뉴 없음,할랄음식 메뉴 없음,글루텐프리 메뉴 없음,2022-11-30
곧버거,음식점/유흥시설,북미음식,미국,서울특별시,서대문구,충정로2가,,99-26 번지,충정로9길,10-7 번,37.564718,126.964705,3736,서울특별시 서대문구 충정로9길 10-7,서울특별시 서대문구 충정로2가  99-26,정보없음,월-금 11시-21시,휴무,무료주차 불가,발렛주차 불가,유아의자 대여 불가,휠체어 대여 불가,반려동물 동반 입장불가,채식 메뉴 없음,할랄음식 메뉴 없음,글루텐프리 메뉴 없음,2022-11-30
골드베트꽁,음식점/유흥시설,동남아시아음식,베트남,부산광역시,사하구,하단동,,526-6 번지,낙동남로,1413 번,35.106574,128.966429,49311,부산광역시 사하구 낙동남로 1413,부산광역시 사하구 하단동  526-6,정보없음,정보없음,정보없음,무료주차 가능,발렛주차 불가,유아의자 대여 불가,휠체어 대여 불가,반려동물 동반 입장불가,채식 메뉴 없음,할랄음식 메뉴 없음,글루텐프리 메뉴 없음,2022-11-30
골드앤씨,음식점/유흥시설,동남아시아음식,기타,울산광역시,남구,장생포동,,149-4 번지,장생포고래로,171-1 번,35.501673,129.373137,44780,울산광역시 남구 장생포고래로 171-1,울산광역시 남구 장생포동  149-4,정보없음,월-금 10시-21시,토-일 10시-21시,무료주차 가능,발렛주차 불가,유아의자 대여 불가,휠체어 대여 불가,반려동물 동반 입장불가,채식 메뉴 없음,할랄음식 메뉴 없음,글루텐프리 메뉴 없음,2022-11-30
골드홀릭,음식점/유흥시설,동아시아음식,일본,인천광역시,중구,북성동1가,,98-12 번지,월미문화로,71 번,37.472142,126.596255,22303,인천광역시 중구 월미문화로 71,인천광역시 중구 북성동1가 98-12 월미비치타운,032-773-3311,월-금 11시-24시,토-일 11시-24시,무료주차 가능,발렛주차 불가,유아의자 대여 불가,휠체어 대여 불가,반려동물 동반 입장가능,채식 메뉴 없음,할랄음식 메뉴 없음,글루텐프리 메뉴 없음,2022-11-30
골든고스트,음식점/유흥시설,동남아시아음식,기타,서울특별시,용산구,한강로2가,,107-5 번지,한강대로44길,17-3 번,37.530984,126.971002,4382,서울특별시 용산구 한강대로44길 17-3,서울특별시 용산구 한강로2가  107-5,070-4320-7890,정보없음,정보없음,무료주차 불가,발렛주차 불가,유아의자 대여 불가,휠체어 대여 불가,반려동물 동반 입장불가,채식 메뉴 없음,할랄음식 메뉴 없음,글루텐프리 메뉴 없음,2022-11-30
골든타이,음식점/유흥시설,동남아시아음식,태국,서울특별시,송파구,방이동,,171-4 번지,위례성대로,66 번,37.514709,127.119435,5628,서울특별시 송파구 위례성대로 66,서울특별시 송파구 방이동  171-4,0507-1421-8089,월-금 11시-22시,토-일 11시-22시,무료주차 가능,발렛주차 불가,유아의자 대여 불가,휠체어 대여 불가,반려동물 동반 입장가능,채식 메뉴 없음,할랄음식 메뉴 없음,글루텐프리 메뉴 없음,2022-11-30
골목다이닝,음식점/유흥시설,유럽음식,이탈리아,대구광역시,달서구,상인동,,583-14 번지,월곡로51길,33 번,35.816319,128.5377,42786,대구광역시 달서구 월곡로51길 33,대구광역시 달서구 상인동 583-14,070-5111-6300,월-금 11시30분-21시30분,토-일 11시30분-21시30분,무료주차 가능,발렛주차 불가,유아의자 대여 불가,휠체어 대여 불가,반려동물 동반 입장불가,채식 메뉴 없음,할랄음식 메뉴 없음,글루텐프리 메뉴 없음,2022-11-30
골목카레,음식점/유흥시설,인도아시아음식,인도,부산광역시,해운대구,재송동,,1081-1 번지,재송1로31번길,49 번,35.188001,129.124074,48054,부산광역시 해운대구 재송1로31번길 49,부산광역시 해운대구 재송동  1081-1,051-782-8788,월-금 11시30분-20시30분,토 11시30분-20시30분,무료주차 가능,발렛주차 불가,유아의자 대여 불가,휠체어 대여 불가,반려동물 동반 입장불가,채식 메뉴 없음,할랄음식 메뉴 없음,글루텐프리 메뉴 없음,2022-11-30
곰레스토랑,음식점/유흥시설,유럽음식,이탈리아,경상남도,창원시 성산구,상남동,,14-8 번지,마디미로22번길,12 번,35.223223,128.683483,51495,경상남도 창원시 성산구 마디미로22번길 12,경상남도 창원시 성산구 상남동 14-8,0507-1481-0028,화-금 12시-22시30분,토-일 12시-22시30분,무료주차 가능,발렛주차 불가,유아의자 대여 불가,휠체어 대여 불가,반려동물 동반 입장불가,채식 메뉴 없음,할랄음식 메뉴 없음,글루텐프리 메뉴 없음,2022-11-30
곰타코,음식점/유흥시설,남미음식,멕시코,경기도,고양시 일산동구,백석동,,1158-2 번지,백석로108번길,6-8 번,37.648706,126.788922,10445,경기도 고양시 일산동구 백석로108번길 6-8,경기도 고양시 일산동구 백석동  1158-2,070-4233-4836,화-금 11시30분-23시,토-일 11시30분-23시,무료주차 가능,발렛주차 불가,유아의자 대여 불가,휠체어 대여 불가,반려동물 동반 입장불가,채식 메뉴 없음,할랄음식 메뉴 없음,글루텐프리 메뉴 없음,2022-11-30
곰파곰파의뜨라또리아,음식점/유흥시설,유럽음식,이탈리아,서울특별시,도봉구,쌍문동,,143-42 번지,노해로,230 번,37.650993,127.033636,1442,서울특별시 도봉구 노해로 230,서울특별시 도봉구 쌍문동  143-42,정보없음,"월-화,목-금 11시30분-21시30분","토 11시30분-21시30분,일 12시-21시30분",무료주차 가능,발렛주차 불가,유아의자 대여 불가,휠체어 대여 불가,반려동물 동반 입장불가,채식 메뉴 없음,할랄음식 메뉴 없음,글루텐프리 메뉴 없음,2022-11-30
공간 소이헌,음식점/유흥시설,유럽음식,이탈리아,대전광역시,중구,선화동,,193-5 번지,선화로97번길,59-2 번,36.331869,127.416376,34846,대전광역시 중구 선화로97번길 59-2,대전광역시 중구 선화동 193-5,042-252-3835,월-금 10시30분-21시,토-일 10시30분-21시,무료주차 불가,발렛주차 불가,유아의자 대여 불가,휠체어 대여 불가,반려동물 동반 입장불가,채식 메뉴 없음,할랄음식 메뉴 없음,글루텐프리 메뉴 없음,2022-11-30
공릉동도깨비,음식점/유흥시설,유럽음식,이탈리아,서울특별시,노원구,공릉동,,593-3 번지,동일로178길,14 번,37.621111,127.075514,1848,서울특별시 노원구 동일로178길 14,서울특별시 노원구 공릉동  593-3,0507-1435-5890,월-금 11시-20시,토 11시-14시30분,무료주차 불가,발렛주차 불가,유아의자 대여 불가,휠체어 대여 불가,반려동물 동반 입장불가,채식 메뉴 없음,할랄음식 메뉴 없음,글루텐프리 메뉴 없음,2022-11-30
공사이공커리,음식점/유흥시설,인도아시아음식,인도,충청남도,논산시,내동,,382-32 번지,중앙로,255 번,36.189891,127.099005,32983,충청남도 논산시 중앙로 255,충청남도 논산시 내동  382-32,041-734-0420,정보없음,정보없음,무료주차 가능,발렛주차 불가,유아의자 대여 불가,휠체어 대여 불가,반려동물 동반 입장불가,채식 메뉴 없음,할랄음식 메뉴 없음,글루텐프리 메뉴 없음,2022-11-30
공스파스타,음식점/유흥시설,유럽음식,이탈리아,광주광역시,북구,용봉동,,1253-1 번지,설죽로214번길,86 번,35.177723,126.902362,61183,광주광역시 북구 설죽로214번길 86,광주광역시 북구 용봉동  1253-1,070-4738-0333,월-금 11시-20시,토 11시-20시,무료주차 가능,발렛주차 불가,유아의자 대여 불가,휠체어 대여 불가,반려동물 동반 입장불가,채식 메뉴 없음,할랄음식 메뉴 없음,글루텐프리 메뉴 없음,2022-11-30
공차 홍대 창전점,음식점/유흥시설,동아시아음식,대만 아시아,서울특별시,마포구,창전동,,5-138 번지,서강로9길,60 번,37.55464,126.930527,4061,서울특별시 마포구 서강로9길 60,서울특별시 마포구 창전동 5-138,02-336-8075,월-금 11시30분-22시30분,토-일 11시30분-22시30분,무료주차 불가,발렛주차 불가,유아의자 대여 불가,휠체어 대여 불가,반려동물 동반 입장불가,채식 메뉴 없음,할랄음식 메뉴 없음,글루텐프리 메뉴 없음,2022-11-30
공평주,음식점/유흥시설,유럽음식,이탈리아 아시아,대구광역시,중구,공평동,,81-6 번지,공평로,63 번,35.869713,128.599946,41938,대구광역시 중구 공평로 63,대구광역시 중구 공평동 81-6,053-253-4865,"화-목 19시-03시,금 19시-04시","토 19시-04시,일 19시-03시",무료주차 불가,발렛주차 불가,유아의자 대여 불가,휠체어 대여 불가,반려동물 동반 입장불가,채식 메뉴 없음,할랄음식 메뉴 없음,글루텐프리 메뉴 없음,2022-11-30
공화춘,음식점/유흥시설,동아시아음식,중국,인천광역시,중구,북성동3가,,5-6 번지,차이나타운로,43 번,37.475401,126.619579,22311,인천광역시 중구 차이나타운로 43,인천광역시 중구 북성동3가 5-6 공화춘,032-765-0571,월-금 10시-21시30분,토-일 10시-21시30분,무료주차 가능,발렛주차 불가,유아의자 대여 불가,휠체어 대여 불가,반려동물 동반 입장불가,채식 메뉴 없음,할랄음식 메뉴 없음,글루텐프리 메뉴 없음,2022-11-30
공화춘 현대백화점 판교점,음식점/유흥시설,동아시아음식,중국,경기도,성남시 분당구,백현동,,541 번지,판교역로146번길,20 번,37.392794,127.112017,13529,경기도 성남시 분당구 판교역로146번길 20,경기도 성남시 분당구 백현동 541 현대백화점 판교점,031-5170-1580,월-금 10시30분-21시,토-일 10시30분-21시,무료주차 불가,발렛주차 불가,유아의자 대여 불가,휠체어 대여 불가,반려동물 동반 입장불가,채식 메뉴 없음,할랄음식 메뉴 없음,글루텐프리 메뉴 없음,2022-11-30
과르네리탭하우스,음식점/유흥시설,유럽음식,이탈리아,서울특별시,중구,을지로7가,,143 번지,을지로,281 번,37.566882,127.00979,4566,서울특별시 중구 을지로 281,서울특별시 중구 을지로7가  143,02-2153-0776,정보없음,정보없음,무료주차 불가,발렛주차 불가,유아의자 대여 불가,휠체어 대여 불가,반려동물 동반 입장불가,채식 메뉴 없음,할랄음식 메뉴 없음,글루텐프리 메뉴 없음,2022-11-30
과카몰레,음식점/유흥시설,남미음식,멕시코,경기도,안성시,팽성읍,안정리,113-67 번지,안정순환로222번길,92 번,36.960756,127.043367,17982,경기도 평택시 팽성읍 안정순환로222번길 92,경기도 평택시 팽성읍 안정리 113-67,0507-1368-9998,월-금 11시-21시30분,토-일 11시-21시30분,무료주차 불가,발렛주차 불가,유아의자 대여 불가,휠체어 대여 불가,반려동물 동반 입장불가,채식 메뉴 없음,할랄음식 메뉴 없음,글루텐프리 메뉴 없음,2022-11-30
과카몰레 2호점,음식점/유흥시설,남미음식,멕시코,경기도,평택시,팽성읍,동창리,42-49 번지,팽성대교길,99 번,36.970899,127.040654,17973,경기도 평택시 팽성대교길 99,경기도 평택시 팽성읍 동창리 42-49,031-657-5998,월-금 11시-21시,토-일 11시-21시,무료주차 가능,발렛주차 불가,유아의자 대여 불가,휠체어 대여 불가,반려동물 동반 입장불가,채식 메뉴 없음,할랄음식 메뉴 없음,글루텐프리 메뉴 없음,2022-11-30
과카몰레 더 현대 서울,음식점/유흥시설,남미음식,멕시코,서울특별시,영등포구,여의도동,,22 번지,여의대로,108 번,37.525932,126.928427,7335,서울특별시 영등포구 여의대로 108,서울특별시 영등포구 여의도동  22,정보없음,정보없음,정보없음,무료주차 가능,발렛주차 불가,유아의자 대여 불가,휠체어 대여 불가,반려동물 동반 입장불가,채식 메뉴 없음,할랄음식 메뉴 없음,글루텐프리 메뉴 없음,2022-11-30
과카몰레 현대백화점 무역센터점,음식점/유흥시설,남미음식,멕시코,서울특별시,강남구,삼성동,,159-7 번지,테헤란로,517 번,37.508614,127.059754,6164,서울특별시 강남구 테헤란로 517,서울특별시 강남구 삼성동  159-7,정보없음,정보없음,정보없음,무료주차 가능,발렛주차 불가,유아의자 대여 불가,휠체어 대여 불가,반려동물 동반 입장불가,채식 메뉴 없음,할랄음식 메뉴 없음,글루텐프리 메뉴 없음,2022-11-30
광안리남매,음식점/유흥시설,유럽음식,이탈리아,부산광역시,수영구,남천동,,5-1 번지,남천동로108번길,54 번,35.146716,129.114074,48304,부산광역시 수영구 남천동로108번길 54,부산광역시 수영구 남천동 5-1 태광,070-4312-6566,월-금 12시-24시,토-일 12시-24시,무료주차 가능,발렛주차 불가,유아의자 대여 가능,휠체어 대여 불가,반려동물 동반 입장가능,채식 메뉴 없음,할랄음식 메뉴 없음,글루텐프리 메뉴 없음,2022-11-30
광야,음식점/유흥시설,유럽음식,이탈리아,서울특별시,마포구,동교동,,198-5 번지,월드컵북로4길,82 번,37.559346,126.923119,3993,서울특별시 마포구 월드컵북로4길 82,서울특별시 마포구 동교동  198-5,0507-1318-1486,월-금 11시30분-22시,토-일 11시30분-22시,무료주차 가능,발렛주차 불가,유아의자 대여 불가,휠체어 대여 불가,반려동물 동반 입장불가,채식 메뉴 없음,할랄음식 메뉴 없음,글루텐프리 메뉴 없음,2022-11-30
광양정쿡,음식점/유흥시설,유럽음식,이탈리아,전라남도,광양시,광양읍,덕례리,1834 번지,순광로,466 번,34.962655,127.567935,57764,전라남도 광양시 순광로 466,전라남도 광양시 광양읍 덕례리 1834,0507-1371-4884,월-금 11시-21시,토-일 11시-21시,무료주차 가능,발렛주차 불가,유아의자 대여 불가,휠체어 대여 불가,반려동물 동반 입장불가,채식 메뉴 없음,할랄음식 메뉴 없음,글루텐프리 메뉴 없음,2022-11-30
광어공방 제주본점,음식점/유흥시설,동아시아음식,일본,제주특별자치도,제주시,노형동,,3799-5 번지,노형6길,20 번,33.480753,126.477737,63088,제주특별자치도 제주시 노형6길 20,제주특별자치도 제주시 노형동 3799-5,0507-1372-1511,화-금 17시-22시,토-일 17시-22시,무료주차 가능,발렛주차 불가,유아의자 대여 불가,휠체어 대여 불가,반려동물 동반 입장불가,채식 메뉴 없음,할랄음식 메뉴 없음,글루텐프리 메뉴 없음,2022-11-30
괴르츠,음식점/유흥시설,유럽음식,이탈리아,서울특별시,마포구,상수동,,304-1 번지,토정로,136-13 번,37.544869,126.925819,4081,서울특별시 마포구 토정로 136-13,서울특별시 마포구 상수동 304-1,02-336-1745,월-금 11시30분-23시,토-일 11시30분-23시,무료주차 가능,발렛주차 불가,유아의자 대여 불가,휠체어 대여 불가,반려동물 동반 입장불가,채식 메뉴 없음,할랄음식 메뉴 없음,글루텐프리 메뉴 없음,2022-11-30
괴짜쉐프파스타,음식점/유흥시설,유럽음식,이탈리아,서울특별시,송파구,문정동,,652-4 번지,법원로4길,10 번,37.482612,127.122817,5855,서울특별시 송파구 법원로4길 10,서울특별시 송파구 문정동  652-4,02-6952-1282,정보없음,정보없음,무료주차 불가,발렛주차 불가,유아의자 대여 불가,휠체어 대여 불가,반려동물 동반 입장불가,채식 메뉴 없음,할랄음식 메뉴 없음,글루텐프리 메뉴 없음,2022-11-30
괴흐엉관,음식점/유흥시설,동남아시아음식,베트남,경기도,파주시,금촌동,,319-37 번지,금정24길,16-9 번,37.762511,126.773645,10929,경기도 파주시 금정24길 16-9,경기도 파주시 금촌동  319-37,031-946-0506,월-금 10시-20시30분,토-일 10시-20시30분,무료주차 가능,발렛주차 불가,유아의자 대여 불가,휠체어 대여 불가,반려동물 동반 입장불가,채식 메뉴 없음,할랄음식 메뉴 없음,글루텐프리 메뉴 없음,2022-11-30
교동짬뽕,음식점/유흥시설,동아시아음식,중국,경기도,고양시 일산동구,장항동,,756-1 번지,호수로,646-30 번,37.659934,126.768159,10401,경기도 고양시 일산동구 호수로 646-30,경기도 고양시 일산동구 장항동  756-1,031-902-9892,"월,목-금 11시-20시,화 11시-16시",토-일 11시-20시,무료주차 불가,발렛주차 불가,유아의자 대여 불가,휠체어 대여 불가,반려동물 동반 입장불가,채식 메뉴 없음,할랄음식 메뉴 없음,글루텐프리 메뉴 없음,2022-11-30
구구구중국양꼬치구이,음식점/유흥시설,동아시아음식,중국 아시아,울산광역시,남구,달동,,1253-18 번지,왕생로46번길,9 번,35.537992,129.333224,44718,울산광역시 남구 왕생로46번길 9,울산광역시 남구 달동 1253-18,052-227-3339,월-금 17시-02시,토 17시-02시,무료주차 가능,발렛주차 불가,유아의자 대여 불가,휠체어 대여 불가,반려동물 동반 입장불가,채식 메뉴 없음,할랄음식 메뉴 없음,글루텐프리 메뉴 없음,2022-11-30
구룡중화요리,음식점/유흥시설,동아시아음식,중국,울산광역시,남구,달동,,1301-8 번지,달삼로84번길,10 번,35.535839,129.338181,44720,울산광역시 남구 달삼로84번길 10,울산광역시 남구 달동 1301-8,052-276-4477,월-금 11시-21시30분,토-일 11시-21시30분,무료주차 가능,발렛주차 불가,유아의자 대여 불가,휠체어 대여 불가,반려동물 동반 입장불가,채식 메뉴 없음,할랄음식 메뉴 없음,글루텐프리 메뉴 없음,2022-11-30
구르만김해,음식점/유흥시설,동남아시아음식,기타,경상남도,김해시,동상동,,919-4 번지,호계로499번길,8-6 번,35.235178,128.883615,50915,경상남도 김해시 호계로499번길 8-6,경상남도 김해시 동상동  919-4,정보없음,월-금 09시-21시,"토 09시-21시,일 14시-21시",무료주차 불가,발렛주차 불가,유아의자 대여 불가,휠체어 대여 불가,반려동물 동반 입장불가,채식 메뉴 없음,할랄음식 메뉴 없음,글루텐프리 메뉴 없음,2022-11-30
구르메,음식점/유흥시설,동아시아음식,일본,부산광역시,남구,대연동,,40-3 번지,용소로13번길,61 번,35.137701,129.103635,48511,부산광역시 남구 용소로13번길 61,부산광역시 남구 대연동  40-3,051-714-5788,월-금 11시-21시,토 11시-21시,무료주차 가능,발렛주차 불가,유아의자 대여 불가,휠체어 대여 불가,반려동물 동반 입장불가,채식 메뉴 없음,할랄음식 메뉴 없음,글루텐프리 메뉴 없음,2022-11-30
구르메식당,음식점/유흥시설,유럽음식,이탈리아,부산광역시,금정구,장전동,,304-3 번지,금정로60번길,23-8 번,35.229993,129.087608,46291,부산광역시 금정구 금정로60번길 23-8,부산광역시 금정구 장전동  304-3,0507-1304-7487,월-금 11시30분-20시30분,토-일 11시30분-20시30분,무료주차 불가,발렛주차 불가,유아의자 대여 불가,휠체어 대여 불가,반려동물 동반 입장불가,채식 메뉴 없음,할랄음식 메뉴 없음,글루텐프리 메뉴 없음,2022-11-30
구르카,음식점/유흥시설,인도아시아음식,네팔,서울특별시,마포구,서교동,,358-90 번지,와우산로21길,20-6 번,37.55262,126.922984,4040,서울특별시 마포구 와우산로21길 20-6,서울특별시 마포구 서교동  358-90,02-336-8337,정보없음,정보없음,무료주차 불가,발렛주차 불가,유아의자 대여 불가,휠체어 대여 불가,반려동물 동반 입장불가,채식 메뉴 없음,할랄음식 메뉴 없음,글루텐프리 메뉴 없음,2022-11-30
구르카인도레스토랑,음식점/유흥시설,인도아시아음식,인도,서울특별시,중구,명동2가,,32-14 번지,명동10길,16-1 번,37.563084,126.985266,4536,서울특별시 중구 명동10길 16-1,서울특별시 중구 명동2가  32-14,02-775-8860,월-금 10시30분-22시,토-일 10시30분-22시,무료주차 불가,발렛주차 불가,유아의자 대여 불가,휠체어 대여 불가,반려동물 동반 입장불가,채식 메뉴 없음,할랄음식 메뉴 없음,글루텐프리 메뉴 없음,2022-11-30
구름속의 산책,음식점/유흥시설,유럽음식,이탈리아 아시아,부산광역시,서구,암남동,,145-2 번지,송도해변로,131 번,35.077957,129.021188,49269,부산광역시 서구 송도해변로 131,부산광역시 서구 암남동 145-2,051-253-6655,월-금 11시30분-22시30분,토-일 11시30분-22시30분,무료주차 불가,발렛주차 불가,유아의자 대여 불가,휠체어 대여 불가,반려동물 동반 입장불가,채식 메뉴 없음,할랄음식 메뉴 없음,글루텐프리 메뉴 없음,2022-11-30
구름식당,음식점/유흥시설,인도아시아음식,인도,대전광역시,동구,대동,,201-10 번지,계족로,184-29 번,36.331334,127.443107,34610,대전광역시 동구 계족로 184-29,대전광역시 동구 대동  201-10,0507-1314-1844,화-금 11시30분-20시30분,토 11시30분-20시30분,무료주차 불가,발렛주차 불가,유아의자 대여 불가,휠체어 대여 불가,반려동물 동반 입장불가,채식 메뉴 없음,할랄음식 메뉴 없음,글루텐프리 메뉴 없음,2022-11-30
구름의집,음식점/유흥시설,유럽음식,프랑스,서울특별시,강북구,수유동,,산76 번지,4.19로,135 번,37.641267,127.001776,1018,서울특별시 강북구 4.19로 135,서울특별시 강북구 수유동  산76,정보없음,정보없음,정보없음,무료주차 불가,발렛주차 불가,유아의자 대여 불가,휠체어 대여 불가,반려동물 동반 입장불가,채식 메뉴 없음,할랄음식 메뉴 없음,글루텐프리 메뉴 없음,2022-11-30
구름파스타,음식점/유흥시설,유럽음식,이탈리아,서울특별시,성북구,정릉동,,260-29 번지,보국문로20길,18 번,37.612159,127.009553,2711,서울특별시 성북구 보국문로20길 18,서울특별시 성북구 정릉동  260-29,02-6053-9090,월-금 11시30분-20시,토-일 11시30분-20시,무료주차 불가,발렛주차 불가,유아의자 대여 불가,휠체어 대여 불가,반려동물 동반 입장불가,채식 메뉴 없음,할랄음식 메뉴 없음,글루텐프리 메뉴 없음,2022-11-30
구봉구파스타,음식점/유흥시설,유럽음식,이탈리아,대구광역시,중구,대신동,,115-378 번지,큰장로26길,45 번,35.868904,128.580783,41926,대구광역시 중구 큰장로26길 45,대구광역시 중구 대신동  115-378,053-253-2909,정보없음,정보없음,무료주차 불가,발렛주차 불가,유아의자 대여 불가,휠체어 대여 불가,반려동물 동반 입장불가,채식 메뉴 없음,할랄음식 메뉴 없음,글루텐프리 메뉴 없음,2022-11-30
구세뻬,음식점/유흥시설,유럽음식,이탈리아,경기도,성남시 분당구,운중동,,1028 번지,판교로33번길,21 번,37.390681,127.08292,13467,경기도 성남시 분당구 판교로33번길 21,경기도 성남시 분당구 운중동  1028,070-4408-9978,월-금 10시-20시,토-일 10시-18시,무료주차 가능,발렛주차 불가,유아의자 대여 불가,휠체어 대여 불가,반려동물 동반 입장불가,채식 메뉴 없음,할랄음식 메뉴 없음,글루텐프리 메뉴 없음,2022-11-30
구스아일랜드 브루하우스,음식점/유흥시설,북미음식,미국,서울특별시,강남구,역삼동,,833 번지,역삼로,118 번,37.493432,127.03218,6251,서울특별시 강남구 역삼로 118,서울특별시 강남구 역삼동 833,02-6205-1785,월-금 11시-24시,"토 10시30분-24시,일 10시30분-23시",무료주차 불가,발렛주차 가능,유아의자 대여 불가,휠체어 대여 가능,반려동물 동반 입장불가,채식 메뉴 없음,할랄음식 메뉴 없음,글루텐프리 메뉴 없음,2022-11-30
구스토타코,음식점/유흥시설,남미음식,멕시코,서울특별시,마포구,상수동,,146-6 번지,와우산로,41 번,37.548145,126.922793,4049,서울특별시 마포구 와우산로 41,서울특별시 마포구 상수동  146-6,02-338-8226,화-금 11시30분-22시,토-일 11시30분-22시,무료주차 불가,발렛주차 불가,유아의자 대여 불가,휠체어 대여 불가,반려동물 동반 입장불가,채식 메뉴 없음,할랄음식 메뉴 없음,글루텐프리 메뉴 없음,2022-11-30
구씨네부엌,음식점/유흥시설,유럽음식,이탈리아,서울특별시,서대문구,창천동,,508-2 번지,신촌로,9 번,37.558586,126.928073,3785,서울특별시 서대문구 신촌로 9,서울특별시 서대문구 창천동  508-2,02-333-9931,화-금 11시30분-21시20분,토 11시30분-21시20분,무료주차 가능,발렛주차 불가,유아의자 대여 불가,휠체어 대여 불가,반려동물 동반 입장불가,채식 메뉴 없음,할랄음식 메뉴 없음,글루텐프리 메뉴 없음,2022-11-30
구좌지앵,음식점/유흥시설,유럽음식,이탈리아 호주 유럽,제주특별자치도,제주시,구좌읍,종달리,558-1 번지,종달로1길,102 번,33.495329,126.9061,63364,제주특별자치도 제주시 구좌읍 종달로1길 102,제주특별자치도 제주시 구좌읍 종달리 558-1,정보없음,"월-화 11시30분-15시,금 11시30분-21시",토-일 11시30분-21시,무료주차 가능,발렛주차 불가,유아의자 대여 불가,휠체어 대여 불가,반려동물 동반 입장불가,채식 메뉴 없음,할랄음식 메뉴 없음,글루텐프리 메뉴 없음,2022-11-30
구포파스타,음식점/유흥시설,유럽음식,이탈리아,서울특별시,송파구,방이동,,63-14 번지,올림픽로32길,22 번,37.514091,127.109392,5548,서울특별시 송파구 올림픽로32길 22,서울특별시 송파구 방이동  63-14,0507-1329-5774,화-금 11시30분-24시 ,"토 12시-24시,일 12시-22시",무료주차 불가,발렛주차 불가,유아의자 대여 불가,휠체어 대여 불가,반려동물 동반 입장불가,채식 메뉴 없음,할랄음식 메뉴 없음,글루텐프리 메뉴 없음,2022-11-30
국빈장,음식점/유흥시설,동아시아음식,중국,경기도,용인시 처인구,김량장동,,293-12 번지,금령로13번길,5 번,37.235449,127.19766,17048,경기도 용인시 처인구 금령로13번길 5,경기도 용인시 처인구 김량장동 293-12,031-335-1230,"월,수-금 10시-21시",토-일 10시-21시,무료주차 불가,발렛주차 불가,유아의자 대여 불가,휠체어 대여 불가,반려동물 동반 입장불가,채식 메뉴 없음,할랄음식 메뉴 없음,글루텐프리 메뉴 없음,2022-11-30
국수진,음식점/유흥시설,동남아시아음식,기타,경기도,용인시 수지구,신봉동,,899 번지,수지로,217 번,37.320604,127.084081,16845,경기도 용인시 수지구 수지로 217,경기도 용인시 수지구 신봉동  899,0507-1371-1280,월-금 10시-21시,토 10시-21시,무료주차 가능,발렛주차 불가,유아의자 대여 불가,휠체어 대여 불가,반려동물 동반 입장불가,채식 메뉴 없음,할랄음식 메뉴 없음,글루텐프리 메뉴 없음,2022-11-30
군스포,음식점/유흥시설,동남아시아음식,베트남,경기도,광명시,광명동,,33 번지,오리로,928 번,37.477953,126.860215,14222,경기도 광명시 오리로 928,경기도 광명시 광명동  33,0507-1361-6899,월-금 10시-21시,"토 10시-21시,일 10시-20시",무료주차 가능,발렛주차 불가,유아의자 대여 불가,휠체어 대여 불가,반려동물 동반 입장불가,채식 메뉴 없음,할랄음식 메뉴 없음,글루텐프리 메뉴 없음,2022-11-30
굿갓레스토랑,음식점/유흥시설,유럽음식,이탈리아,경기도,의정부시,의정부동,,133-29 번지,시민로122번길,9-4 번,37.737792,127.048636,11697,경기도 의정부시 시민로122번길 9-4,경기도 의정부시 의정부동  133-29,0507-1408-7759,월-금 11시30분-21시30분,토-일 11시30분-21시30분,무료주차 가능,발렛주차 불가,유아의자 대여 불가,휠체어 대여 불가,반려동물 동반 입장불가,채식 메뉴 없음,할랄음식 메뉴 없음,글루텐프리 메뉴 없음,2022-11-30
굿모닝 베트남,음식점/유흥시설,동남아시아음식,베트남,경기도,파주시,광탄면,신산리,358-33 번지,혜음로,1145 번,37.783296,126.846073,10948,경기도 파주시 혜음로 1145,경기도 파주시 광탄면 신산리 358-33,0507-1426-9799,화-금 11시30분-21시,토-일 11시30분-21시,무료주차 가능,발렛주차 불가,유아의자 대여 불가,휠체어 대여 불가,반려동물 동반 입장불가,채식 메뉴 없음,할랄음식 메뉴 없음,글루텐프리 메뉴 없음,2022-11-30
굿모닝베트남 인천논현점,음식점/유흥시설,동남아시아음식,베트남,인천광역시,남동구,논현동,,632-2 번지,논고개로123번길,17 번,37.401479,126.722931,21653,인천광역시 남동구 논고개로123번길 17,인천광역시 남동구 논현동  632-2,정보없음,월-금 11시-21시,토-일 11시-21시,무료주차 가능,발렛주차 불가,유아의자 대여 불가,휠체어 대여 불가,반려동물 동반 입장불가,채식 메뉴 없음,할랄음식 메뉴 없음,글루텐프리 메뉴 없음,2022-11-30
굿모닝베트남 한남점,음식점/유흥시설,동남아시아음식,베트남,서울특별시,용산구,한남동,,263-10 번지,독서당로,73 번,37.534199,127.008628,4419,서울특별시 용산구 독서당로 73,서울특별시 용산구 한남동  263-10,02-797-3933,월-금 11시-21시30분,토-일 11시-21시30분,무료주차 불가,발렛주차 불가,유아의자 대여 불가,휠체어 대여 불가,반려동물 동반 입장불가,채식 메뉴 없음,할랄음식 메뉴 없음,글루텐프리 메뉴 없음,2022-11-30
굿바이슈가베어,음식점/유흥시설,북미음식,미국,서울특별시,서대문구,대현동,,34-25 번지,이화여대길,72-6 번,37.559433,126.944567,3765,서울특별시 서대문구 이화여대길 72-6,서울특별시 서대문구 대현동  34-25,0507-1399-8914,월-금 11시-19시30분,토 11시-19시30분,무료주차 불가,발렛주차 불가,유아의자 대여 불가,휠체어 대여 불가,반려동물 동반 입장불가,채식 메뉴 없음,할랄음식 메뉴 없음,글루텐프리 메뉴 없음,2022-11-30
굿손 신용산점,음식점/유흥시설,동남아시아음식,기타,서울특별시,용산구,한강로2가,,87-2 번지,한강대로48길,17-4 번,37.531472,126.971734,4382,서울특별시 용산구 한강대로48길 17-4,서울특별시 용산구 한강로2가  87-2,0507-1410-3215,월-금 11시-22시,토-일 11시-22시,무료주차 불가,발렛주차 불가,유아의자 대여 불가,휠체어 대여 불가,반려동물 동반 입장불가,채식 메뉴 없음,할랄음식 메뉴 없음,글루텐프리 메뉴 없음,2022-11-30
굿손 일산라페스타점,음식점/유흥시설,동남아시아음식,기타,경기도,고양시 일산동구,장항동,,734 번지,무궁화로,39 번,37.663479,126.768484,10364,경기도 고양시 일산동구 무궁화로 39,경기도 고양시 일산동구 장항동  734,0507-1391-1180,"월,수-금 11시-21시30분",토-일 11시-21시30분,무료주차 가능,발렛주차 불가,유아의자 대여 불가,휠체어 대여 불가,반려동물 동반 입장불가,채식 메뉴 없음,할랄음식 메뉴 없음,글루텐프리 메뉴 없음,2022-11-30
궤도에오르다,음식점/유흥시설,북미음식,미국,서울특별시,광진구,화양동,,499-1 번지,광나루로,416 번,37.546467,127.075582,5021,서울특별시 광진구 광나루로 416,서울특별시 광진구 화양동  499-1,02-446-5755,11시-24시,11시-24시,무료주차 불가,발렛주차 불가,유아의자 대여 불가,휠체어 대여 불가,반려동물 동반 입장불가,채식 메뉴 없음,할랄음식 메뉴 없음,글루텐프리 메뉴 없음,2022-11-30
규식당,음식점/유흥시설,동남아시아음식,기타,경기도,양주시,고암동,,583-1 번지,고암길,251 번,37.833907,127.072556,11455,경기도 양주시 고암길 251,경기도 양주시 고암동  583-1,070-4647-2827,월-금 17시-24시,토 17시-24시,무료주차 가능,발렛주차 불가,유아의자 대여 불가,휠체어 대여 불가,반려동물 동반 입장불가,채식 메뉴 없음,할랄음식 메뉴 없음,글루텐프리 메뉴 없음,2022-11-30
그가담,음식점/유흥시설,동남아시아음식,기타,경상남도,창원시 진해구,자은동,,960-3 번지,자은로64번길,5 번,35.150581,128.708928,51637,경상남도 창원시 진해구 자은로64번길 5,경상남도 창원시 진해구 자은동  960-3,정보없음,"월,수-금 11시-15시",토-일 11시-15시,무료주차 가능,발렛주차 불가,유아의자 대여 불가,휠체어 대여 불가,반려동물 동반 입장불가,채식 메뉴 없음,할랄음식 메뉴 없음,글루텐프리 메뉴 없음,2022-11-30
그남자의이태리식당앤라운지,음식점/유흥시설,유럽음식,이탈리아,경기도,안산시 단원구,고잔동,,540-1 번지,고잔1길,40 번,37.318037,126.837729,15361,경기도 안산시 단원구 고잔1길 40,경기도 안산시 단원구 고잔동  540-1,0507-1424-3356,월-금 12시-22시,토-일 12시-22시,무료주차 가능,발렛주차 불가,유아의자 대여 불가,휠체어 대여 불가,반려동물 동반 입장불가,채식 메뉴 없음,할랄음식 메뉴 없음,글루텐프리 메뉴 없음,2022-11-30
그녀의브리또,음식점/유흥시설,남미음식,멕시코,경상남도,창원시 성산구,상남동,,5-2 번지,마디미로4번길,9 번,35.224112,128.684672,51495,경상남도 창원시 성산구 마디미로4번길 9,경상남도 창원시 성산구 상남동  5-2,0507-1440-1138,월-금 11시30분-20시,토-일 11시30분-20시,무료주차 불가,발렛주차 불가,유아의자 대여 불가,휠체어 대여 불가,반려동물 동반 입장불가,채식 메뉴 없음,할랄음식 메뉴 없음,글루텐프리 메뉴 없음,2022-11-30
그대만의작은공간,음식점/유흥시설,유럽음식,이탈리아,경기도,안양시 동안구,평촌동,,900-9 번지,평촌대로,130 번,37.38394,126.960447,14103,경기도 안양시 동안구 평촌대로 130,경기도 안양시 동안구 평촌동  900-9,0507-1310-0289,"월-수 11시-22시,목-금 11시-24시","토 11시-24시,일 11시-22시",무료주차 불가,발렛주차 불가,유아의자 대여 불가,휠체어 대여 불가,반려동물 동반 입장불가,채식 메뉴 없음,할랄음식 메뉴 없음,글루텐프리 메뉴 없음,2022-11-30
그라넘다이닝라운지,음식점/유흥시설,유럽음식,프랑스,서울특별시,중구,장충동2가,,201 번지,장충단로,60 번,37.550055,127.002326,4605,서울특별시 중구 장충단로 60,서울특별시 중구 장충동2가  201,02-2250-8000,월-금 06시30분-22시,토-일 06시30분-22시,무료주차 가능,발렛주차 불가,유아의자 대여 불가,휠체어 대여 불가,반려동물 동반 입장불가,채식 메뉴 없음,할랄음식 메뉴 없음,글루텐프리 메뉴 없음,2022-11-30
그라도,음식점/유흥시설,유럽음식,이탈리아,경기도,성남시 분당구,정자동,,162-2 번지,정자일로,135 번,37.361797,127.1052,13560,경기도 성남시 분당구 정자일로 135,경기도 성남시 분당구 정자동  162-2,031-712-7774,월-금 11시30분-22시,"토 11시30분-22시,일 11시30분-21시30분",무료주차 가능,발렛주차 불가,유아의자 대여 불가,휠체어 대여 불가,반려동물 동반 입장불가,채식 메뉴 없음,할랄음식 메뉴 없음,글루텐프리 메뉴 없음,2022-11-30
그라지오소,음식점/유흥시설,유럽음식,이탈리아,대전광역시,서구,관저동,,1361 번지,관저동로73번길,15-4 번,36.29843,127.339468,35382,대전광역시 서구 관저동로73번길 15-4,대전광역시 서구 관저동 1361,042-867-6879,정보없음,정보없음,무료주차 가능,발렛주차 불가,유아의자 대여 불가,휠체어 대여 불가,반려동물 동반 입장불가,채식 메뉴 없음,할랄음식 메뉴 없음,글루텐프리 메뉴 없음,2022-11-30
그라찌에,음식점/유흥시설,유럽음식,이탈리아,경상남도,양산시,물금읍,가촌리,1259-3 번지,백호로,36 번,35.320233,128.999583,50613,경상남도 양산시 백호로 36,경상남도 양산시 물금읍 가촌리 1259-3,055-372-5520,월-금 11시30분-22시,토-일 11시30분-22시,무료주차 가능,발렛주차 불가,유아의자 대여 불가,휠체어 대여 불가,반려동물 동반 입장불가,채식 메뉴 없음,할랄음식 메뉴 없음,글루텐프리 메뉴 없음,2022-11-30
그라체나,음식점/유흥시설,유럽음식,이탈리아,서울특별시,마포구,연남동,,567-42 번지,연남로,13 번,37.560877,126.92281,3990,서울특별시 마포구 연남로 13,서울특별시 마포구 연남동  567-42,0507-1428-8912,월-금 11시-22시,토 11시-22시,무료주차 가능,발렛주차 불가,유아의자 대여 불가,휠체어 대여 불가,반려동물 동반 입장불가,채식 메뉴 없음,할랄음식 메뉴 없음,글루텐프리 메뉴 없음,2022-11-30
그라치에,음식점/유흥시설,유럽음식,이탈리아,부산광역시,영도구,청학동,,148-160 번지,청학동로,12 번,35.089025,129.061561,49084,부산광역시 영도구 청학동로 12,부산광역시 영도구 청학동 148-160,070-4150-9999,월-금 11시30분-21시30분,토-일 11시30분-21시30분,무료주차 불가,발렛주차 불가,유아의자 대여 불가,휠체어 대여 불가,반려동물 동반 입장불가,채식 메뉴 있음,할랄음식 메뉴 없음,글루텐프리 메뉴 없음,2022-11-30
그라치에,음식점/유흥시설,유럽음식,이탈리아,서울특별시,서대문구,대현동,,56-74 번지,이화여대길,33 번,37.558459,126.945622,3766,서울특별시 서대문구 이화여대길 33,서울특별시 서대문구 대현동  56-74,정보없음,월-금 11시-22시,토 11시-22시,무료주차 가능,발렛주차 불가,유아의자 대여 불가,휠체어 대여 불가,반려동물 동반 입장가능,채식 메뉴 없음,할랄음식 메뉴 없음,글루텐프리 메뉴 없음,2022-11-30
그라파 피자리아,음식점/유흥시설,유럽음식,이탈리아 유럽,울산광역시,동구,방어동,,1146-34 번지,남진길,50 번,35.481015,129.416238,44108,울산광역시 동구 남진길 50,울산광역시 동구 방어동 1146-34,052-256-2112,월-금 11시-21시,토 11시-21시,무료주차 불가,발렛주차 불가,유아의자 대여 불가,휠체어 대여 불가,반려동물 동반 입장불가,채식 메뉴 없음,할랄음식 메뉴 없음,글루텐프리 메뉴 없음,2022-11-30
그란구스또,음식점/유흥시설,유럽음식,이탈리아,서울특별시,강남구,대치동,,962-11 번지,삼성로,340 번,37.501975,127.05958,6186,서울특별시 강남구 삼성로 340,서울특별시 강남구 대치동 962-11 앨포트빌딩,02-556-3960,월-금 11시30분분-22시,토-일 12시-21시30분,무료주차 가능,발렛주차 불가,유아의자 대여 불가,휠체어 대여 불가,반려동물 동반 입장불가,채식 메뉴 없음,할랄음식 메뉴 없음,글루텐프리 메뉴 없음,2022-11-30
그란데,음식점/유흥시설,유럽음식,이탈리아,경기도,용인시 수지구,죽전동,,1328-4 번지,죽전로,150-1 번,37.323735,127.124632,16889,경기도 용인시 수지구 죽전로 150-1,경기도 용인시 수지구 죽전동 1328-4,0507-1328-7692,월-금 11시-22시,토-일 11시-22시,무료주차 가능,발렛주차 불가,유아의자 대여 불가,휠체어 대여 불가,반려동물 동반 입장불가,채식 메뉴 없음,할랄음식 메뉴 없음,글루텐프리 메뉴 없음,2022-11-30
그랑,음식점/유흥시설,유럽음식,이탈리아,부산광역시,수영구,민락동,,181-223 번지,민락수변로,29 번,35.15329,129.124603,48283,부산광역시 수영구 민락수변로 29,부산광역시 수영구 민락동  181-223,051-758-1253,월-금 11시-01시,토-일 11시-01시,무료주차 불가,발렛주차 불가,유아의자 대여 불가,휠체어 대여 불가,반려동물 동반 입장불가,채식 메뉴 없음,할랄음식 메뉴 없음,글루텐프리 메뉴 없음,2022-11-30
그랑드와,음식점/유흥시설,유럽음식,이탈리아,전라북도,익산시,신동,,790-19 번지,익산대로54길,91 번,35.962695,126.957595,54645,전라북도 익산시 익산대로54길 91,전라북도 익산시 신동  790-19,063-858-0109,월-금 10시30분-21시,토 10시30분-21시,무료주차 불가,발렛주차 불가,유아의자 대여 불가,휠체어 대여 불가,반려동물 동반 입장불가,채식 메뉴 없음,할랄음식 메뉴 없음,글루텐프리 메뉴 없음,2022-11-30
그랑블루,음식점/유흥시설,유럽음식,이탈리아,서울특별시,용산구,이태원동,,249-15 번지,회나무로13가길,40 번,37.540856,126.991772,4344,서울특별시 용산구 회나무로13가길 40,서울특별시 용산구 이태원동  249-15,정보없음,"월,수 17시-24시,목-금 12시-24시","토 12시-24시,일 12시-23시",무료주차 불가,발렛주차 불가,유아의자 대여 불가,휠체어 대여 불가,반려동물 동반 입장불가,채식 메뉴 없음,할랄음식 메뉴 없음,글루텐프리 메뉴 없음,2022-11-30
그랑씨엘 도산점,음식점/유흥시설,유럽음식,이탈리아,서울특별시,강남구,신사동,,650-22 번지,도산대로45길,16-6 번,37.52339,127.035837,6021,서울특별시 강남구 도산대로45길 16-6,서울특별시 강남구 신사동 650-22,02-548-0283,월-금 11시-22시,토-일 11시-22시,무료주차 가능,발렛주차 불가,유아의자 대여 불가,휠체어 대여 불가,반려동물 동반 입장불가,채식 메뉴 없음,할랄음식 메뉴 없음,글루텐프리 메뉴 없음,2022-11-30
그랑아무르,음식점/유흥시설,유럽음식,프랑스,서울특별시,용산구,한남동,,31-3 번지,한남대로20길,47-24 번,37.535367,127.010053,4419,서울특별시 용산구 한남대로20길 47-24,서울특별시 용산구 한남동 31-3,02-790-0814,휴무,토 12시-01시,무료주차 가능,발렛주차 불가,유아의자 대여 불가,휠체어 대여 불가,반려동물 동반 입장불가,채식 메뉴 없음,할랄음식 메뉴 없음,글루텐프리 메뉴 없음,2022-11-30
그랜드키친,음식점/유흥시설,유럽음식,이탈리아,서울특별시,중구,명동1가,,6-3 번지,명동길,61 번,37.564295,126.985608,4538,서울특별시 중구 명동길 61,서울특별시 중구 명동1가  6-3,0507-1318-5816,월-금 11시30분-21시30분,토 11시30분-21시30분,무료주차 가능,발렛주차 불가,유아의자 대여 불가,휠체어 대여 불가,반려동물 동반 입장불가,채식 메뉴 없음,할랄음식 메뉴 없음,글루텐프리 메뉴 없음,2022-11-30
그랜마스 서귀포직영점,음식점/유흥시설,북미음식,미국,제주특별자치도,서귀포시,법환동,,741-3 번지,신서로48번길,52 번,33.252791,126.510373,63566,제주특별자치도 서귀포시 신서로48번길 52,제주특별자치도 서귀포시 법환동 741-3,0507-1473-5536,월-금 08시-19시30분,토-일 08시-19시30분,무료주차 가능,발렛주차 불가,유아의자 대여 가능,휠체어 대여 가능,반려동물 동반 입장불가,채식 메뉴 없음,할랄음식 메뉴 없음,글루텐프리 메뉴 없음,2022-11-30
그램마,음식점/유흥시설,동아시아음식,싱가포르 아시아,부산광역시,해운대구,우동,,1467 번지,수영강변대로,120 번,35.171037,129.127085,48058,부산광역시 해운대구 수영강변대로 120,부산광역시 해운대구 우동 1467 영화의전당,051-741-7112,월-금 11시-22시,토-일 11시-22시,무료주차 가능,발렛주차 불가,유아의자 대여 불가,휠체어 대여 불가,반려동물 동반 입장불가,채식 메뉴 없음,할랄음식 메뉴 없음,글루텐프리 메뉴 없음,2022-11-30
그랩어,음식점/유흥시설,동남아시아음식,기타,서울특별시,용산구,용산동2가,,43-11 번지,신흥로3가길,10 번,37.54135,126.985916,4338,서울특별시 용산구 신흥로3가길 10,서울특별시 용산구 용산동2가  43-11,02-792-3009,화-금 09시30분-20시,토-일 09시30분-20시,무료주차 불가,발렛주차 불가,유아의자 대여 불가,휠체어 대여 불가,반려동물 동반 입장가능,채식 메뉴 없음,할랄음식 메뉴 없음,글루텐프리 메뉴 없음,2022-11-30
그런날그런밤,음식점/유흥시설,동남아시아음식,기타,경기도,김포시,구래동,,6880-5 번지,김포한강4로,521 번,37.645835,126.626104,10071,경기도 김포시 김포한강4로 521,경기도 김포시 구래동  6880-5,0507-1401-8823,정보없음,정보없음,무료주차 불가,발렛주차 불가,유아의자 대여 불가,휠체어 대여 불가,반려동물 동반 입장불가,채식 메뉴 없음,할랄음식 메뉴 없음,글루텐프리 메뉴 없음,2022-11-30
그럼피베이비,음식점/유흥시설,북미음식,미국 캐나다,제주특별자치도,서귀포시,안덕면,서광리,1394-6 번지,녹차분재로,65 번,33.290804,126.300704,63521,제주특별자치도 서귀포시 안덕면 녹차분재로 65,제주특별자치도 서귀포시 안덕면 서광리 1394-6,064-726-0466,수-금 10시-15시,토-일 08시-15시,무료주차 가능,발렛주차 불가,유아의자 대여 가능,휠체어 대여 불가,반려동물 동반 입장가능,채식 메뉴 없음,할랄음식 메뉴 없음,글루텐프리 메뉴 없음,2022-11-30
그레이,음식점/유흥시설,인도아시아음식,인도,경기도,파주시,야당동,,1076 번지,경의로,1114 번,37.71662,126.760396,10908,경기도 파주시 경의로 1114,경기도 파주시 야당동  1076,0507-1311-9135,월-금 11시-22시,토-일 11시-22시,무료주차 가능,발렛주차 불가,유아의자 대여 불가,휠체어 대여 불가,반려동물 동반 입장불가,채식 메뉴 없음,할랄음식 메뉴 없음,글루텐프리 메뉴 없음,2022-11-30
그레이,음식점/유흥시설,동남아시아음식,기타,서울특별시,강남구,신사동,,659-12 번지,압구정로50길,16 번,37.527431,127.037721,6018,서울특별시 강남구 압구정로50길 16,서울특별시 강남구 신사동  659-12,0507-1424-9334,월-금 18시-03시,토-일 18시-03시,무료주차 가능,발렛주차 불가,유아의자 대여 불가,휠체어 대여 불가,반려동물 동반 입장불가,채식 메뉴 없음,할랄음식 메뉴 없음,글루텐프리 메뉴 없음,2022-11-30
그레이몽키,음식점/유흥시설,동남아시아음식,태국 아시아,인천광역시,중구,운남동,,436-2 번지,운중로14번길,15 번,37.492712,126.536151,22359,인천광역시 중구 운중로14번길 15,인천광역시 중구 운남동 436-2,0504-1400-5127,"월-수,금 11시-21시",토 11시-21시,무료주차 가능,발렛주차 불가,유아의자 대여 불가,휠체어 대여 불가,반려동물 동반 입장불가,채식 메뉴 없음,할랄음식 메뉴 없음,글루텐프리 메뉴 없음,2022-11-30
그레이트히말라야,음식점/유흥시설,인도아시아음식,인도,경기도,수원시 팔달구,매산로1가,,54-6 번지,매산로,7-1 번,37.267264,127.002328,16455,경기도 수원시 팔달구 매산로 7-1,경기도 수원시 팔달구 매산로1가  54-6,031-243-1187,월-금 11시-22시30분,토-일 11시-22시30분,무료주차 가능,발렛주차 불가,유아의자 대여 불가,휠체어 대여 불가,반려동물 동반 입장불가,채식 메뉴 없음,할랄음식 메뉴 없음,글루텐프리 메뉴 없음,2022-11-30
그로또,음식점/유흥시설,유럽음식,이탈리아,경기도,수원시 영통구,영통동,,1030-2 번지,청명북로,2 번,37.251808,127.078943,16705,경기도 수원시 영통구 청명북로 2,경기도 수원시 영통구 영통동 1030-2,031-205-7220,월-금 10시-22시,토 10시-22시,무료주차 가능,발렛주차 불가,유아의자 대여 불가,휠체어 대여 불가,반려동물 동반 입장가능,채식 메뉴 없음,할랄음식 메뉴 없음,글루텐프리 메뉴 없음,2022-11-30
그롬,음식점/유흥시설,유럽음식,이탈리아,서울특별시,강남구,청담동,,131-22 번지,영동대로138길,21 번,37.523487,127.056174,6075,서울특별시 강남구 영동대로138길 21,서울특별시 강남구 청담동  131-22,0507-1320-6319,월-금 11시-22시,토-일 11시-22시,무료주차 가능,발렛주차 불가,유아의자 대여 불가,휠체어 대여 불가,반려동물 동반 입장불가,채식 메뉴 없음,할랄음식 메뉴 없음,글루텐프리 메뉴 없음,2022-11-30
그리니티,음식점/유흥시설,동남아시아음식,기타,제주특별자치도,제주시,이도이동,,1963-3 번지,신설로9길,2 번,33.492916,126.544789,63229,제주특별자치도 제주시 신설로9길 2,제주특별자치도 제주시 이도이동  1963-3,0507-1429-1101,월-금 08시-21시,토-일 08시-21시,무료주차 가능,발렛주차 불가,유아의자 대여 불가,휠체어 대여 불가,반려동물 동반 입장불가,채식 메뉴 없음,할랄음식 메뉴 없음,글루텐프리 메뉴 없음,2022-11-30
그리다아시아,음식점/유흥시설,동남아시아음식,"인도, 태국",서울특별시,종로구,적선동,,156 번지,새문안로5가길,28 번,37.574477,126.973646,3170,서울특별시 종로구 새문안로5가길 28,서울특별시 종로구 적선동  156,02-725-9982,정보없음,정보없음,무료주차 불가,발렛주차 불가,유아의자 대여 불가,휠체어 대여 불가,반려동물 동반 입장불가,채식 메뉴 없음,할랄음식 메뉴 없음,글루텐프리 메뉴 없음,2022-11-30
그린,음식점/유흥시설,동남아시아음식,베트남,경상북도,김천시,황금동,,90-1 번지,가산1길,29 번,36.11466,128.124017,39617,경상북도 김천시 가산1길 29,경상북도 김천시 황금동  90-1,054-430-5055,월-금 11시30분-20시,토 11시30분-20시30분,무료주차 불가,발렛주차 불가,유아의자 대여 불가,휠체어 대여 불가,반려동물 동반 입장불가,채식 메뉴 없음,할랄음식 메뉴 없음,글루텐프리 메뉴 없음,2022-11-30
그린,음식점/유흥시설,동남아시아음식,기타,광주광역시,광산구,월곡동,,534-4 번지,사암로279번길,16 번,35.169587,126.808177,62345,광주광역시 광산구 사암로279번길 16,광주광역시 광산구 월곡동  534-4,정보없음,정보없음,정보없음,무료주차 불가,발렛주차 불가,유아의자 대여 불가,휠체어 대여 불가,반려동물 동반 입장불가,채식 메뉴 없음,할랄음식 메뉴 없음,글루텐프리 메뉴 없음,2022-11-30
그린다방,음식점/유흥시설,유럽음식,이탈리아,울산광역시,동구,방어동,,380-15 번지,꽃바위로,312 번,35.485163,129.422677,44110,울산광역시 동구 꽃바위로 312,울산광역시 동구 방어동  380-15,052-251-7111,정보없음,정보없음,무료주차 불가,발렛주차 불가,유아의자 대여 불가,휠체어 대여 불가,반려동물 동반 입장불가,채식 메뉴 없음,할랄음식 메뉴 없음,글루텐프리 메뉴 없음,2022-11-30
그린브로스샐러드,음식점/유흥시설,동남아시아음식,기타,서울특별시,성북구,하월곡동,,88-510 번지,동소문로46길,18 번,37.606854,127.029934,2733,서울특별시 성북구 동소문로46길 18,서울특별시 성북구 하월곡동  88-510,0507-1361-9436,월-금 11시-20시30분,토-일 11시-20시30분,무료주차 가능,발렛주차 불가,유아의자 대여 불가,휠체어 대여 불가,반려동물 동반 입장불가,채식 메뉴 없음,할랄음식 메뉴 없음,글루텐프리 메뉴 없음,2022-11-30
그린빠스타,음식점/유흥시설,유럽음식,이탈리아,광주광역시,서구,쌍촌동,,1255-8 번지,운천로92번길,11 번,35.140981,126.859892,62032,광주광역시 서구 운천로92번길 11,광주광역시 서구 쌍촌동  1255-8,0507-1386-6263,"월-목 11시-24시,금 11시-02시","토 11시-02시,일 11시-01시",무료주차 불가,발렛주차 불가,유아의자 대여 불가,휠체어 대여 불가,반려동물 동반 입장불가,채식 메뉴 없음,할랄음식 메뉴 없음,글루텐프리 메뉴 없음,2022-11-30
그린올리브,음식점/유흥시설,유럽음식,이탈리아,충청북도,제천시,청전동,,834 번지,의림대로33길,59 번,37.14736,128.209377,27153,충청북도 제천시 의림대로33길 59,충청북도 제천시 청전동  834,043-651-2711,"월,수-금 11시-22시",토-일 11시-22시,무료주차 불가,발렛주차 불가,유아의자 대여 불가,휠체어 대여 불가,반려동물 동반 입장불가,채식 메뉴 없음,할랄음식 메뉴 없음,글루텐프리 메뉴 없음,2022-11-30
그린하노이 구서점,음식점/유흥시설,동남아시아음식,베트남,부산광역시,금정구,구서동,,86-17 번지,금정로233번길,53 번,35.247047,129.090903,46243,부산광역시 금정구 금정로233번길 53,부산광역시 금정구 구서동  86-17,051-515-8526,월-금 11시30분-22시,토-일 11시30분-22시,무료주차 불가,발렛주차 불가,유아의자 대여 불가,휠체어 대여 불가,반려동물 동반 입장불가,채식 메뉴 없음,할랄음식 메뉴 없음,글루텐프리 메뉴 없음,2022-11-30
그린하노이 양정점,음식점/유흥시설,동남아시아음식,베트남,부산광역시,부산진구,양정동,,511-11 번지,양성로,98 번,35.17418,129.061787,47206,부산광역시 부산진구 양성로 98,부산광역시 부산진구 양정동  511-11,051-868-7089,월-금 11시30분-22시30분,토-일 11시30분-22시30분,무료주차 불가,발렛주차 불가,유아의자 대여 불가,휠체어 대여 불가,반려동물 동반 입장불가,채식 메뉴 없음,할랄음식 메뉴 없음,글루텐프리 메뉴 없음,2022-11-30
그린하노이 좌동점,음식점/유흥시설,동남아시아음식,베트남,부산광역시,해운대구,좌동,,1368-2 번지,좌동순환로,77 번,35.172615,129.166783,48084,부산광역시 해운대구 좌동순환로 77,부산광역시 해운대구 좌동  1368-2,051-746-3692,월-금 11시30분-22시,토-일 11시30분-22시,무료주차 불가,발렛주차 불가,유아의자 대여 불가,휠체어 대여 불가,반려동물 동반 입장불가,채식 메뉴 없음,할랄음식 메뉴 없음,글루텐프리 메뉴 없음,2022-11-30
그릴5타코,음식점/유흥시설,남미음식,멕시코,대구광역시,수성구,범어동,,547-34 번지,동대구로59길,14-14 번,35.858237,128.624066,42117,대구광역시 수성구 동대구로59길 14-14,대구광역시 수성구 범어동  547-34,0507-1408-2294,월-금 10시-22시,토 10시-22시,무료주차 불가,발렛주차 불가,유아의자 대여 불가,휠체어 대여 불가,반려동물 동반 입장불가,채식 메뉴 없음,할랄음식 메뉴 없음,글루텐프리 메뉴 없음,2022-11-30
그릴파이브,음식점/유흥시설,남미음식,멕시코,서울특별시,강남구,신사동,,523-17 번지,강남대로162길,35 번,37.520758,127.021178,6028,서울특별시 강남구 강남대로162길 35,서울특별시 강남구 신사동  523-17,정보없음,정보없음,정보없음,무료주차 가능,발렛주차 불가,유아의자 대여 불가,휠체어 대여 불가,반려동물 동반 입장불가,채식 메뉴 없음,할랄음식 메뉴 없음,글루텐프리 메뉴 없음,2022-11-30
그림상회,음식점/유흥시설,유럽음식,이탈리아,제주특별자치도,서귀포시,표선면,토산리,1391-4 번지,중산간동로5570번길,9 번,33.326182,126.764916,63626,제주특별자치도 서귀포시 중산간동로5570번길 9,제주특별자치도 서귀포시 표선면 토산리 1391-4,064-787-7607,"월-화 12시-17시,수-목 13시-17시",휴무,무료주차 가능,발렛주차 불가,유아의자 대여 불가,휠체어 대여 불가,반려동물 동반 입장불가,채식 메뉴 없음,할랄음식 메뉴 없음,글루텐프리 메뉴 없음,2022-11-30
그안에스케치북,음식점/유흥시설,유럽음식,이탈리아,서울특별시,강남구,청담동,,78-12 번지,압구정로,412 번,37.527151,127.04189,6014,서울특별시 강남구 압구정로 412,서울특별시 강남구 청담동  78-12,02-518-9636,정보없음,정보없음,무료주차 불가,발렛주차 불가,유아의자 대여 불가,휠체어 대여 불가,반려동물 동반 입장불가,채식 메뉴 없음,할랄음식 메뉴 없음,글루텐프리 메뉴 없음,2022-11-30
근쌀남,음식점/유흥시설,동남아시아음식,베트남,제주특별자치도,제주시,한림읍,귀덕리,4043 번지,귀덕5길,33 번,33.441884,126.280097,63024,제주특별자치도 제주시 귀덕5길 33,제주특별자치도 제주시 한림읍 귀덕리 4043,0507-1491-2016,화-금 11시-16시,토-일 11시-16시,무료주차 불가,발렛주차 불가,유아의자 대여 불가,휠체어 대여 불가,반려동물 동반 입장불가,채식 메뉴 없음,할랄음식 메뉴 없음,글루텐프리 메뉴 없음,2022-11-30
금금,음식점/유흥시설,동아시아음식,중국,대구광역시,중구,삼덕동3가,,133-2 번지,동덕로30길,106 번,35.866093,128.609495,41946,대구광역시 중구 동덕로30길 106,대구광역시 중구 삼덕동3가  133-2,0507-1360-9416,"화-목 17시-01시,금 17시-02시","토 17시-02시,일 17시-01시",무료주차 불가,발렛주차 불가,유아의자 대여 불가,휠체어 대여 불가,반려동물 동반 입장불가,채식 메뉴 없음,할랄음식 메뉴 없음,글루텐프리 메뉴 없음,2022-11-30
금란볶음밥,음식점/유흥시설,동아시아음식,중국,경기도,구리시,갈매동,,530-3 번지,갈매순환로204번길,8-13 번,37.637047,127.122022,11901,경기도 구리시 갈매순환로204번길 8-13,경기도 구리시 갈매동  530-3,031-529-7003,정보없음,정보없음,무료주차 불가,발렛주차 불가,유아의자 대여 불가,휠체어 대여 불가,반려동물 동반 입장불가,채식 메뉴 없음,할랄음식 메뉴 없음,글루텐프리 메뉴 없음,2022-11-30
금란이네,음식점/유흥시설,동남아시아음식,기타,충청북도,청주시 상당구,서운동,,89-8 번지,상당로,8-2 번,36.628825,127.491488,28715,충청북도 청주시 상당구 상당로 8-2,충청북도 청주시 상당구 서운동  89-8,0507-1448-8384,월-금 10시-22시,토-일 10시-22시,무료주차 불가,발렛주차 불가,유아의자 대여 불가,휠체어 대여 불가,반려동물 동반 입장불가,채식 메뉴 없음,할랄음식 메뉴 없음,글루텐프리 메뉴 없음,2022-11-30
금문도,음식점/유흥시설,동아시아음식,중국,인천광역시,계양구,작전동,,416-5 번지,효서로,268 번,37.527836,126.725764,21120,인천광역시 계양구 효서로 268,인천광역시 계양구 작전동 416-5 금문도,032-544-6665,월-금 11시-21시30분,토-일 11시-21시30분,무료주차 불가,발렛주차 불가,유아의자 대여 불가,휠체어 대여 불가,반려동물 동반 입장불가,채식 메뉴 없음,할랄음식 메뉴 없음,글루텐프리 메뉴 없음,2022-11-30
금용문,음식점/유흥시설,동아시아음식,중국,서울특별시,종로구,내수동,,1 번지,새문안로5가길,7 번,37.572771,126.974038,3173,서울특별시 종로구 새문안로5가길 7,서울특별시 종로구 내수동 1 세종클럽,0507-1378-2502,월-금 11시30분-22시,토-일 11시30분-22시,무료주차 가능,발렛주차 불가,유아의자 대여 가능,휠체어 대여 불가,반려동물 동반 입장불가,채식 메뉴 없음,할랄음식 메뉴 없음,글루텐프리 메뉴 없음,2022-11-30
금토일샴페인빠,음식점/유흥시설,동남아시아음식,기타,서울특별시,용산구,한남동,,631-5 번지,대사관로34길,26 번,37.532088,127.005673,4402,서울특별시 용산구 대사관로34길 26,서울특별시 용산구 한남동  631-5,0507-1480-1068,월-금 17시-01시,토-일 15시-01시,무료주차 불가,발렛주차 불가,유아의자 대여 불가,휠체어 대여 불가,반려동물 동반 입장불가,채식 메뉴 없음,할랄음식 메뉴 없음,글루텐프리 메뉴 없음,2022-11-30
기네스72,음식점/유흥시설,동남아시아음식,기타,서울특별시,용산구,이태원동,,118-72 번지,이태원로27가길,58 번,37.534959,126.992095,4350,서울특별시 용산구 이태원로27가길 58,서울특별시 용산구 이태원동  118-72,0507-1348-2934,월-금 18시-01시,"토 16시-06시,일 17시-02시",무료주차 불가,발렛주차 불가,유아의자 대여 불가,휠체어 대여 불가,반려동물 동반 입장가능,채식 메뉴 없음,할랄음식 메뉴 없음,글루텐프리 메뉴 없음,2022-11-30
기린초밥,음식점/유흥시설,동아시아음식,일본,전라북도,전주시 덕진구,중동,,774-5 번지,안전로,154 번,35.837725,127.058979,54871,전라북도 전주시 덕진구 안전로 154,전라북도 전주시 덕진구 중동 774-5,0507-1360-6811,월-금 11시-22시,토-일 11시-22시,무료주차 가능,발렛주차 불가,유아의자 대여 불가,휠체어 대여 불가,반려동물 동반 입장불가,채식 메뉴 없음,할랄음식 메뉴 없음,글루텐프리 메뉴 없음,2022-11-30
기소야 원주점,음식점/유흥시설,동아시아음식,일본,강원도,원주시,무실동,,1724-12 번지,만대로,7-1 번,37.341164,127.923842,26383,강원도 원주시 만대로 7-1,강원도 원주시 무실동 1724-12,0507-1384-8823,월-금 11시-20시30분,토-일 11시-20시30분,무료주차 가능,발렛주차 불가,유아의자 대여 불가,휠체어 대여 불가,반려동물 동반 입장불가,채식 메뉴 없음,할랄음식 메뉴 없음,글루텐프리 메뉴 없음,2022-11-30
기욤,음식점/유흥시설,유럽음식,프랑스,서울특별시,강남구,청담동,,88-37 번지,선릉로152길,17 번,37.524371,127.041029,6014,서울특별시 강남구 선릉로152길 17,서울특별시 강남구 청담동 88-37 아시아청담부띠끄,02-512-6701,"월-목 11시-24시,금 11시-02시","토 10시-02시,일 10시-24시",무료주차 불가,발렛주차 불가,유아의자 대여 불가,휠체어 대여 불가,반려동물 동반 입장불가,채식 메뉴 없음,할랄음식 메뉴 없음,글루텐프리 메뉴 없음,2022-11-30
긴꼬리초밥,음식점/유흥시설,동아시아음식,일본,경기도,부천시,상동,,542-1 번지,상동로,84 번,37.504601,126.753389,14545,경기도 부천시 상동로 84,경기도 부천시 상동 542-1,032-326-7005,월-금 11시30분-22시,토-일 11시30분-22시,무료주차 가능,발렛주차 불가,유아의자 대여 불가,휠체어 대여 불가,반려동물 동반 입장불가,채식 메뉴 없음,할랄음식 메뉴 없음,글루텐프리 메뉴 없음,2022-11-30
긴스시,음식점/유흥시설,동아시아음식,일본,서울특별시,용산구,이촌동,,301-162 번지,이촌로,319 번,37.517963,126.982327,4424,서울특별시 용산구 이촌로 319,서울특별시 용산구 이촌동 301-162 현대아파트,02-797-0141,월-금 12시-23시50분,토 12시-23시50분,무료주차 가능,발렛주차 불가,유아의자 대여 불가,휠체어 대여 불가,반려동물 동반 입장불가,채식 메뉴 없음,할랄음식 메뉴 없음,글루텐프리 메뉴 없음,2022-11-30
긴자 백현점,음식점/유흥시설,동아시아음식,일본,경기도,성남시 분당구,백현동,,489-4 번지,판교백현로,37 번,37.38184,127.094971,13539,경기도 성남시 분당구 판교백현로 37,경기도 성남시 분당구 백현동 489-4,031-705-6606,월-금 11시30분-22시,토-일 11시30분-22시,무료주차 가능,발렛주차 불가,유아의자 대여 불가,휠체어 대여 불가,반려동물 동반 입장불가,채식 메뉴 없음,할랄음식 메뉴 없음,글루텐프리 메뉴 없음,2022-11-30
긴자 서현점,음식점/유흥시설,동아시아음식,일본,경기도,성남시 분당구,서현동,,102-2 번지,새마을로,75 번,37.383475,127.138734,13573,경기도 성남시 분당구 새마을로 75,경기도 성남시 분당구 서현동 102-2,031-701-7774,월-금 11시30분-22시,토-일 11시30분-22시,무료주차 가능,발렛주차 불가,유아의자 대여 불가,휠체어 대여 불가,반려동물 동반 입장불가,채식 메뉴 없음,할랄음식 메뉴 없음,글루텐프리 메뉴 없음,2022-11-30
긴자 수원인계점,음식점/유흥시설,동아시아음식,일본,경기도,수원시 팔달구,인계동,,950-9 번지,경수대로,494 번,37.269944,127.028367,16487,경기도 수원시 팔달구 경수대로 494,경기도 수원시 팔달구 인계동 950-9,031-236-7771,월-금 11시30분-22시,토-일 11시30분-22시,무료주차 가능,발렛주차 불가,유아의자 대여 불가,휠체어 대여 불가,반려동물 동반 입장불가,채식 메뉴 없음,할랄음식 메뉴 없음,글루텐프리 메뉴 없음,2022-11-30
긴자 신영통점,음식점/유흥시설,동아시아음식,일본,경기도,수원시 영통구,망포동,,482-4 번지,봉영로,1377 번,37.237398,127.060433,16692,경기도 수원시 영통구 봉영로 1377,경기도 수원시 영통구 망포동 482-4,031-273-8213,월-금 11시30분-22시,토-일 11시30분-22시,무료주차 가능,발렛주차 불가,유아의자 대여 불가,휠체어 대여 불가,반려동물 동반 입장불가,채식 메뉴 없음,할랄음식 메뉴 없음,글루텐프리 메뉴 없음,2022-11-30
긴자료코 부산센텀점,음식점/유흥시설,동아시아음식,일본,부산광역시,해운대구,우동,,1498 번지,센텀동로,9 번,35.170273,129.132452,48059,부산광역시 해운대구 센텀동로 9,부산광역시 해운대구 우동  1498,0507-1436-4799,11시-21시,11시-21시,무료주차 가능,발렛주차 불가,유아의자 대여 불가,휠체어 대여 불가,반려동물 동반 입장불가,채식 메뉴 없음,할랄음식 메뉴 없음,글루텐프리 메뉴 없음,2022-11-30
긴자인도레스토랑,음식점/유흥시설,인도아시아음식,인도,경기도,군포시,산본동,,1136 번지,산본로323번길,16-31 번,37.36011,126.931007,15865,경기도 군포시 산본로323번길 16-31,경기도 군포시 산본동  1136,031-392-2203,월-금 11시30분-22시,토-일 11시30분-22시,무료주차 불가,발렛주차 불가,유아의자 대여 불가,휠체어 대여 불가,반려동물 동반 입장불가,채식 메뉴 없음,할랄음식 메뉴 없음,글루텐프리 메뉴 없음,2022-11-30
긴자인도레스토랑,음식점/유흥시설,동남아시아음식,인도,경기도,안산시 단원구,고잔동,,708-2 번지,광덕대로,151 번,37.310109,126.829031,15471,경기도 안산시 단원구 광덕대로 151,경기도 안산시 단원구 고잔동 708-2 삼영타운,031-405-3368,월-금 11시30분-22시,토-일 11시30분-22시,무료주차 가능,발렛주차 불가,유아의자 대여 불가,휠체어 대여 불가,반려동물 동반 입장불가,채식 메뉴 없음,할랄음식 메뉴 없음,글루텐프리 메뉴 없음,2022-11-30
긴자인도레스토랑,음식점/유흥시설,인도아시아음식,인도,경기도,안산시 상록구,사동,,1149-5 번지,한양대학로,45-1 번,37.300292,126.838659,15587,경기도 안산시 상록구 한양대학로 45-1,경기도 안산시 상록구 사동  1149-5,031-407-4456,정보없음,정보없음,무료주차 불가,발렛주차 불가,유아의자 대여 불가,휠체어 대여 불가,반려동물 동반 입장불가,채식 메뉴 없음,할랄음식 메뉴 없음,글루텐프리 메뉴 없음,2022-11-30
긴자인도레스토랑,음식점/유흥시설,인도아시아음식,인도,경기도,안양시 동안구,호계동,,1048 번지,평촌대로217번길,19 번,37.390595,126.954839,14072,경기도 안양시 동안구 평촌대로217번길 19,경기도 안양시 동안구 호계동  1048,031-383-2223,"월 17시30분-22시,화-금 11시30분-22시",토-일 11시30분-22시,무료주차 불가,발렛주차 불가,유아의자 대여 불가,휠체어 대여 불가,반려동물 동반 입장불가,채식 메뉴 없음,할랄음식 메뉴 없음,글루텐프리 메뉴 없음,2022-11-30
긴타코,음식점/유흥시설,동아시아음식,일본,경기도,하남시,신장동,,616 번지,미사대로,750 번,37.545452,127.223773,12942,경기도 하남시 미사대로 750,경기도 하남시 신장동  616,031-8072-8277,월-금 10시-22시,토-일 10시-22시,무료주차 불가,발렛주차 불가,유아의자 대여 불가,휠체어 대여 불가,반려동물 동반 입장불가,채식 메뉴 없음,할랄음식 메뉴 없음,글루텐프리 메뉴 없음,2022-11-30
길거리쌀국수,음식점/유흥시설,동남아시아음식,베트남,서울특별시,동작구,노량진동,,148-87 번지,노량진로,174 번,37.513541,126.945348,6913,서울특별시 동작구 노량진로 174,서울특별시 동작구 노량진동  148-87,정보없음,정보없음,정보없음,무료주차 불가,발렛주차 불가,유아의자 대여 불가,휠체어 대여 불가,반려동물 동반 입장불가,채식 메뉴 없음,할랄음식 메뉴 없음,글루텐프리 메뉴 없음,2022-11-30
길리추팡,음식점/유흥시설,동아시아음식,중국,제주특별자치도,서귀포시,대포동,,771-5 번지,중문관광로,294 번,33.246281,126.429876,63544,제주특별자치도 서귀포시 중문관광로 294,제주특별자치도 서귀포시 대포동 771-5 페이퍼숲,0507-1487-7899,월-금 11시-22시,토-일 11시-22시,무료주차 가능,발렛주차 불가,유아의자 대여 불가,휠체어 대여 불가,반려동물 동반 입장불가,채식 메뉴 없음,할랄음식 메뉴 없음,글루텐프리 메뉴 없음,2022-11-30
길버트버거,음식점/유흥시설,북미음식,미국,서울특별시,강남구,신사동,,545-3 번지,도산대로15길,47 번,37.521261,127.023202,6033,서울특별시 강남구 도산대로15길 47,서울특별시 강남구 신사동 545-3,02-546-5453,월-금 11시30분-21시,토-일 11시30분-21시,무료주차 불가,발렛주차 불가,유아의자 대여 불가,휠체어 대여 불가,반려동물 동반 입장불가,채식 메뉴 없음,할랄음식 메뉴 없음,글루텐프리 메뉴 없음,2022-11-30
길조,음식점/유흥시설,동아시아음식,일본,경기도,양평군,강상면,병산리,181-5 번지,독배길,32-25 번,37.493595,127.473426,12571,경기도 양평군 강상면 독배길 32-25,경기도 양평군 강상면 병산리 181-5,031-774-7020,화-금 12시-21시,토-일 12시-21시,무료주차 가능,발렛주차 불가,유아의자 대여 불가,휠체어 대여 불가,반려동물 동반 입장불가,채식 메뉴 없음,할랄음식 메뉴 없음,글루텐프리 메뉴 없음,2022-11-30
김녕함바그집,음식점/유흥시설,동아시아음식,일본,제주특별자치도,제주시,구좌읍,김녕리,1223-9 번지,김녕로21길,9 번,33.556844,126.755347,63357,제주특별자치도 제주시 구좌읍 김녕로21길 9,제주특별자치도 제주시 구좌읍 김녕리 1223-9,0507-1314-1130,"월,수-금 11시-16시",토-일 11시-16시,무료주차 가능,발렛주차 불가,유아의자 대여 불가,휠체어 대여 불가,반려동물 동반 입장가능,채식 메뉴 없음,할랄음식 메뉴 없음,글루텐프리 메뉴 없음,2022-11-30
김반미,음식점/유흥시설,동남아시아음식,베트남,경기도,광주시,경안동,,52-10 번지,경안안길,73-1 번,37.410268,127.257144,12755,경기도 광주시 경안안길 73-1,경기도 광주시 경안동  52-10,031-767-4202,정보없음,정보없음,무료주차 불가,발렛주차 불가,유아의자 대여 불가,휠체어 대여 불가,반려동물 동반 입장불가,채식 메뉴 없음,할랄음식 메뉴 없음,글루텐프리 메뉴 없음,2022-11-30
김뽀티식당,음식점/유흥시설,동남아시아음식,기타,전라북도,정읍시,시기동,,197-29 번지,조곡천1길,24-1 번,35.568064,126.84743,56160,전라북도 정읍시 조곡천1길 24-1,전라북도 정읍시 시기동  197-29,정보없음,정보없음,정보없음,무료주차 불가,발렛주차 불가,유아의자 대여 불가,휠체어 대여 불가,반려동물 동반 입장불가,채식 메뉴 없음,할랄음식 메뉴 없음,글루텐프리 메뉴 없음,2022-11-30
김쉐프36개스시,음식점/유흥시설,동아시아음식,일본,대전광역시,동구,대동,,401-31 번지,동대전로,129 번,36.333772,127.445365,34609,대전광역시 동구 동대전로 129,대전광역시 동구 대동 401-31,042-622-3782,월-금 11시-24시,토-일 11시-24시,무료주차 불가,발렛주차 불가,유아의자 대여 불가,휠체어 대여 불가,반려동물 동반 입장불가,채식 메뉴 없음,할랄음식 메뉴 없음,글루텐프리 메뉴 없음,2022-11-30
김씨양꼬치,음식점/유흥시설,동아시아음식,중국,부산광역시,강서구,지사동,,1195-3 번지,과학산단2로20번길,14 번,35.150478,128.832187,46743,부산광역시 강서구 과학산단2로20번길 14,부산광역시 강서구 지사동  1195-3,051-973-9936,정보없음,정보없음,무료주차 불가,발렛주차 불가,유아의자 대여 불가,휠체어 대여 불가,반려동물 동반 입장불가,채식 메뉴 없음,할랄음식 메뉴 없음,글루텐프리 메뉴 없음,2022-11-30
김씨화덕,음식점/유흥시설,유럽음식,이탈리아,경상남도,김해시,관동동,,1102-9 번지,율하카페길,85-9 번,35.176393,128.81366,51014,경상남도 김해시 율하카페길 85-9,경상남도 김해시 관동동  1102-9,055-322-5105,월-금 11시30분-21시30분,토-일 11시30분-21시30분,무료주차 가능,발렛주차 불가,유아의자 대여 불가,휠체어 대여 불가,반려동물 동반 입장불가,채식 메뉴 없음,할랄음식 메뉴 없음,글루텐프리 메뉴 없음,2022-11-30
김태욱초밥참치,음식점/유흥시설,동아시아음식,일본,전라남도,여수시,웅천동,,1699-5 번지,예울마루로,35-38 번,34.74647,127.672399,59691,전라남도 여수시 예울마루로 35-38,전라남도 여수시 웅천동  1699-5,0507-1322-0183,월-금 11시-23시,토-일 11시-23시,무료주차 가능,발렛주차 불가,유아의자 대여 불가,휠체어 대여 불가,반려동물 동반 입장불가,채식 메뉴 없음,할랄음식 메뉴 없음,글루텐프리 메뉴 없음,2022-11-30
김파퍼베트남쌀국수,음식점/유흥시설,동남아시아음식,베트남,경기도,부천시,소사본동,,136 번지,소삼로,46 번,37.47813,126.797857,14701,경기도 부천시 소삼로 46,경기도 부천시 소사본동  136,정보없음,화-금 11시30분-20시,토-일 11시30분-20시,무료주차 불가,발렛주차 불가,유아의자 대여 불가,휠체어 대여 불가,반려동물 동반 입장불가,채식 메뉴 없음,할랄음식 메뉴 없음,글루텐프리 메뉴 없음,2022-11-30
김행,음식점/유흥시설,동남아시아음식,베트남,대구광역시,서구,비산동,,929-2 번지,서대구로62길,54 번,35.886022,128.562501,41720,대구광역시 서구 서대구로62길 54,대구광역시 서구 비산동  929-2,정보없음,정보없음,정보없음,무료주차 불가,발렛주차 불가,유아의자 대여 불가,휠체어 대여 불가,반려동물 동반 입장불가,채식 메뉴 없음,할랄음식 메뉴 없음,글루텐프리 메뉴 없음,2022-11-30
까델루뽀,음식점/유흥시설,유럽음식,이탈리아,서울특별시,종로구,효자동,,39-1 번지,자하문로16길,5-5 번,37.581827,126.971387,3042,서울특별시 종로구 자하문로16길 5-5,서울특별시 종로구 효자동  39-1,0507-1412-5233,월-금 12시-21시50분,토 12시-21시30분,무료주차 가능,발렛주차 불가,유아의자 대여 불가,휠체어 대여 불가,반려동물 동반 입장불가,채식 메뉴 없음,할랄음식 메뉴 없음,글루텐프리 메뉴 없음,2022-11-30
까델지니,음식점/유흥시설,동남아시아음식,기타,인천광역시,연수구,송도동,,172-3 번지,송도과학로,56 번,37.381108,126.664077,21984,인천광역시 연수구 송도과학로 56,인천광역시 연수구 송도동  172-3,0507-1337-2931,월-금 11시-22시,토 11시-17시,무료주차 가능,발렛주차 불가,유아의자 대여 불가,휠체어 대여 불가,반려동물 동반 입장불가,채식 메뉴 없음,할랄음식 메뉴 없음,글루텐프리 메뉴 없음,2022-11-30
까르보네,음식점/유흥시설,유럽음식,이탈리아,서울특별시,서초구,양재동,,245-5 번지,언남1길,4 번,37.472304,127.040972,6778,서울특별시 서초구 언남1길 4,서울특별시 서초구 양재동  245-5,정보없음,정보없음,정보없음,무료주차 불가,발렛주차 불가,유아의자 대여 불가,휠체어 대여 불가,반려동물 동반 입장불가,채식 메뉴 없음,할랄음식 메뉴 없음,글루텐프리 메뉴 없음,2022-11-30
까르보네 장유점,음식점/유흥시설,유럽음식,이탈리아,경상남도,김해시,부곡동,,1161-12 번지,능동로167번길,1 번,35.203161,128.808947,50981,경상남도 김해시 능동로167번길 1,경상남도 김해시 부곡동  1161-12,055-324-3369,정보없음,정보없음,무료주차 불가,발렛주차 불가,유아의자 대여 불가,휠체어 대여 불가,반려동물 동반 입장불가,채식 메뉴 없음,할랄음식 메뉴 없음,글루텐프리 메뉴 없음,2022-11-30
까르보네 호매실점,음식점/유흥시설,유럽음식,이탈리아,경기도,수원시 권선구,금곡동,,1085 번지,금곡로102번길,15 번,37.273463,126.941955,16388,경기도 수원시 권선구 금곡로102번길 15,경기도 수원시 권선구 금곡동  1085,031-227-6577,화-금 11시-21시,토-일 11시-21시,무료주차 가능,발렛주차 불가,유아의자 대여 불가,휠체어 대여 불가,반려동물 동반 입장불가,채식 메뉴 없음,할랄음식 메뉴 없음,글루텐프리 메뉴 없음,2022-11-30
까리노,음식점/유흥시설,유럽음식,이탈리아,경기도,수원시 팔달구,인계동,,1039-3 번지,권광로207번길,29 번,37.266349,127.031702,16489,경기도 수원시 팔달구 권광로207번길 29,경기도 수원시 팔달구 인계동  1039-3,031-308-6911,월-금 08시-23시,토-일 08시-23시,무료주차 불가,발렛주차 불가,유아의자 대여 불가,휠체어 대여 불가,반려동물 동반 입장불가,채식 메뉴 없음,할랄음식 메뉴 없음,글루텐프리 메뉴 없음,2022-11-30
까몬 광교앨리웨이점,음식점/유흥시설,동남아시아음식,기타,경기도,수원시 영통구,원천동,,593 번지,광교호수공원로,80 번,37.274446,127.062351,16514,경기도 수원시 영통구 광교호수공원로 80,경기도 수원시 영통구 원천동  593,0507-1419-0274,월-금 11시-21시,토-일 11시-21시,무료주차 가능,발렛주차 불가,유아의자 대여 불가,휠체어 대여 불가,반려동물 동반 입장불가,채식 메뉴 없음,할랄음식 메뉴 없음,글루텐프리 메뉴 없음,2022-11-30
까몬 동탄호수공원점,음식점/유흥시설,동남아시아음식,기타,경기도,화성시,송동,,708-5 번지,동탄순환대로3가길,14-5 번,37.165942,127.094751,18497,경기도 화성시 동탄순환대로3가길 14-5,경기도 화성시 송동  708-5,0507-1327-6047,월-금 11시-21시,토-일 11시-21시,무료주차 불가,발렛주차 불가,유아의자 대여 불가,휠체어 대여 불가,반려동물 동반 입장불가,채식 메뉴 없음,할랄음식 메뉴 없음,글루텐프리 메뉴 없음,2022-11-30
까몬 선화점,음식점/유흥시설,동남아시아음식,기타,대전광역시,중구,선화동,,279-3 번지,대종로529번길,44 번,36.330035,127.420903,34836,대전광역시 중구 대종로529번길 44,대전광역시 중구 선화동  279-3,정보없음,화-금 11시-21시,토-일 11시-21시,무료주차 불가,발렛주차 불가,유아의자 대여 불가,휠체어 대여 불가,반려동물 동반 입장불가,채식 메뉴 없음,할랄음식 메뉴 없음,글루텐프리 메뉴 없음,2022-11-30
까몬 안동점,음식점/유흥시설,동남아시아음식,기타,경상북도,안동시,풍천면,갈전리,1725 번지,호수공원2길,12 번,36.56893,128.50182,36759,경상북도 안동시 호수공원2길 12,경상북도 안동시 풍천면 갈전리 1725,0507-1307-1566,화-금 11시-21시,토-일 11시-21시,무료주차 불가,발렛주차 불가,유아의자 대여 불가,휠체어 대여 불가,반려동물 동반 입장불가,채식 메뉴 없음,할랄음식 메뉴 없음,글루텐프리 메뉴 없음,2022-11-30
까몬 호매실점,음식점/유흥시설,동남아시아음식,기타,경기도,수원시 권선구,금곡동,,1115-4 번지,금곡로,225 번,37.275145,126.954829,16391,경기도 수원시 권선구 금곡로 225,경기도 수원시 권선구 금곡동  1115-4,0507-1322-7248,월-금 11시-21시,토-일 11시-20시,무료주차 가능,발렛주차 불가,유아의자 대여 불가,휠체어 대여 불가,반려동물 동반 입장불가,채식 메뉴 없음,할랄음식 메뉴 없음,글루텐프리 메뉴 없음,2022-11-30
까미노블랑코,음식점/유흥시설,유럽음식,이탈리아,부산광역시,부산진구,부전동,,168-408 번지,동천로95번길,11 번,35.157088,129.061601,47292,부산광역시 부산진구 동천로95번길 11,부산광역시 부산진구 부전동  168-408,0507-1400-5936,월-금 11시50분-23시,토-일 11시50분-23시,무료주차 불가,발렛주차 불가,유아의자 대여 불가,휠체어 대여 불가,반려동물 동반 입장불가,채식 메뉴 없음,할랄음식 메뉴 없음,글루텐프리 메뉴 없음,2022-11-30
까발로비안코,음식점/유흥시설,유럽음식,이탈리아,서울특별시,강남구,삼성동,,150-25 번지,삼성로104길,9 번,37.510996,127.055409,6165,서울특별시 강남구 삼성로104길 9,서울특별시 강남구 삼성동  150-25,02-562-9262,월-금 17시-01시,토 17시-01시,무료주차 불가,발렛주차 불가,유아의자 대여 불가,휠체어 대여 불가,반려동물 동반 입장불가,채식 메뉴 없음,할랄음식 메뉴 없음,글루텐프리 메뉴 없음,2022-11-30
까브테라스,음식점/유흥시설,유럽음식,이탈리아,서울특별시,강남구,신사동,,517-8 번지,강남대로156길,27 번,37.518749,127.02131,6034,서울특별시 강남구 강남대로156길 27,서울특별시 강남구 신사동  517-8,0507-1399-6672,"화 17시-22시30분,수-금 11시30분-22시30분","토 11시30분-22시30분,일 12시-21시30분",무료주차 가능,발렛주차 불가,유아의자 대여 불가,휠체어 대여 불가,반려동물 동반 입장불가,채식 메뉴 없음,할랄음식 메뉴 없음,글루텐프리 메뉴 없음,2022-11-30
까사,음식점/유흥시설,유럽음식,이탈리아,경기도,안양시 동안구,호계동,,1042-3 번지,평촌대로227번길,26 번,37.39148,126.953998,14072,경기도 안양시 동안구 평촌대로227번길 26,경기도 안양시 동안구 호계동  1042-3,031-476-3053,월-금 11시30분-22시,토-일 11시30분-22시,무료주차 불가,발렛주차 불가,유아의자 대여 불가,휠체어 대여 불가,반려동물 동반 입장불가,채식 메뉴 없음,할랄음식 메뉴 없음,글루텐프리 메뉴 없음,2022-11-30
까사3353,음식점/유흥시설,유럽음식,이탈리아,경기도,평택시,안중읍,금곡리,335-8 번지,대반1길,21-29 번,36.993954,126.951149,17928,경기도 평택시 대반1길 21-29,경기도 평택시 안중읍 금곡리 335-8,031-681-0075,화-금 11시30분-21시30분,토-일 11시30분-21시30분,무료주차 가능,발렛주차 불가,유아의자 대여 불가,휠체어 대여 불가,반려동물 동반 입장불가,채식 메뉴 없음,할랄음식 메뉴 없음,글루텐프리 메뉴 없음,2022-11-30
까사338,음식점/유흥시설,유럽음식,이탈리아,경기도,양주시,삼숭동,,338-1 번지,삼숭로58번길,57 번,37.801225,127.103884,11484,경기도 양주시 삼숭로58번길 57,경기도 양주시 삼숭동  338-1,031-847-7760,월-금 11시30분-21시30분,토-일 11시30분-21시30분,무료주차 가능,발렛주차 불가,유아의자 대여 불가,휠체어 대여 불가,반려동물 동반 입장불가,채식 메뉴 없음,할랄음식 메뉴 없음,글루텐프리 메뉴 없음,2022-11-30
까사구스토,음식점/유흥시설,유럽음식,이탈리아,경기도,화성시,반송동,,113-6 번지,노작로4길,18-9 번,37.19784,127.077825,18459,경기도 화성시 노작로4길 18-9,경기도 화성시 반송동  113-6,031-8043-7122,화-금 11시-15시 17시20분분-22시,11시-15시 17시20분-22시,무료주차 가능,발렛주차 불가,유아의자 대여 불가,휠체어 대여 불가,반려동물 동반 입장불가,채식 메뉴 없음,할랄음식 메뉴 없음,글루텐프리 메뉴 없음,2022-11-30
까사디루카,음식점/유흥시설,유럽음식,이탈리아,경기도,평택시,비전동,,1060 번지,비전9길,2-43 번,37.002267,127.112221,17855,경기도 평택시 비전9길 2-43,경기도 평택시 비전동  1060,0507-1376-0304,수-금 11시30분-21시,토-일 11시30분-21시,무료주차 가능,발렛주차 불가,유아의자 대여 불가,휠체어 대여 불가,반려동물 동반 입장불가,채식 메뉴 없음,할랄음식 메뉴 없음,글루텐프리 메뉴 없음,2022-11-30
까사디쉐프,음식점/유흥시설,유럽음식,유럽,서울특별시,종로구,통인동,,136-8 번지,자하문로7길,32 번,37.579141,126.97046,3040,서울특별시 종로구 자하문로7길 32,서울특별시 종로구 통인동 136-8,070-7775-3399,화-금 10시-22시,토 10시-22시,무료주차 불가,발렛주차 불가,유아의자 대여 불가,휠체어 대여 불가,반려동물 동반 입장불가,채식 메뉴 없음,할랄음식 메뉴 없음,글루텐프리 메뉴 없음,2022-11-30
까사레지나,음식점/유흥시설,유럽음식,이탈리아,울산광역시,남구,삼산동,,1558-8 번지,정동로,89 번,35.541871,129.343926,44713,울산광역시 남구 정동로 89,울산광역시 남구 삼산동  1558-8,052-274-8280,월-금 11시30분-21시,토 11시30분-21시,무료주차 가능,발렛주차 불가,유아의자 대여 불가,휠체어 대여 불가,반려동물 동반 입장불가,채식 메뉴 없음,할랄음식 메뉴 없음,글루텐프리 메뉴 없음,2022-11-30
까사마야,음식점/유흥시설,남미음식,멕시코,서울특별시,서초구,반포동,,704-7 번지,신반포로,326-10 번,37.51002,127.019453,6534,서울특별시 서초구 신반포로 326-10,서울특별시 서초구 반포동  704-7,070-4213-1815,월-금 10시-23시30분,토 10시-23시30분,무료주차 불가,발렛주차 불가,유아의자 대여 불가,휠체어 대여 불가,반려동물 동반 입장불가,채식 메뉴 없음,할랄음식 메뉴 없음,글루텐프리 메뉴 없음,2022-11-30
까사브라질그릴,음식점/유흥시설,남미음식,멕시코,경기도,평택시,팽성읍,근내리,257-1 번지,안정로,163 번,36.967952,127.058173,17975,경기도 평택시 안정로 163,경기도 평택시 팽성읍 근내리 257-1,031-656-7136,화-금 11시30분-21시30분,토-일 11시30분-21시30분,무료주차 불가,발렛주차 불가,유아의자 대여 불가,휠체어 대여 불가,반려동물 동반 입장불가,채식 메뉴 없음,할랄음식 메뉴 없음,글루텐프리 메뉴 없음,2022-11-30
까사올리브,음식점/유흥시설,유럽음식,이탈리아,인천광역시,미추홀구,용현동,,165-4 번지,인하로47번길,5 번,37.452265,126.654152,22207,인천광역시 미추홀구 인하로47번길 5,인천광역시 미추홀구 용현동  165-4,032-867-0733,월-금 11시-21시,휴무,무료주차 불가,발렛주차 불가,유아의자 대여 불가,휠체어 대여 불가,반려동물 동반 입장불가,채식 메뉴 없음,할랄음식 메뉴 없음,글루텐프리 메뉴 없음,2022-11-30
까슐,음식점/유흥시설,유럽음식,이탈리아,경기도,광주시,초월읍,대쌍령리,170-4 번지,무들로47번길,36 번,37.388492,127.289926,12735,경기도 광주시 무들로47번길 36,경기도 광주시 초월읍 대쌍령리 170-4,0507-1424-3040,월-금 11시-20시,토 11시-20시,무료주차 가능,발렛주차 불가,유아의자 대여 불가,휠체어 대여 불가,반려동물 동반 입장불가,채식 메뉴 없음,할랄음식 메뉴 없음,글루텐프리 메뉴 없음,2022-11-30
까예데고미스,음식점/유흥시설,유럽음식,스페인,서울특별시,종로구,누하동,,36-1 번지,자하문로9길,34 번,37.579536,126.969356,3036,서울특별시 종로구 자하문로9길 34,서울특별시 종로구 누하동 36-1,02-772-9123,월-금 18시-21시50분,토-일 16시-21시50분,무료주차 불가,발렛주차 불가,유아의자 대여 불가,휠체어 대여 불가,반려동물 동반 입장불가,채식 메뉴 있음,할랄음식 메뉴 있음,글루텐프리 메뉴 없음,2022-11-30
까오산,음식점/유흥시설,동남아시아음식,기타,경상북도,포항시 남구,효자동,,253-105 번지,효자동길1번길,22 번,36.00712,129.328131,37664,경상북도 포항시 남구 효자동길1번길 22,경상북도 포항시 남구 효자동  253-105,0507-1306-5204,월-금 11시30분-20시,토-일 11시30분-20시,무료주차 불가,발렛주차 불가,유아의자 대여 불가,휠체어 대여 불가,반려동물 동반 입장불가,채식 메뉴 없음,할랄음식 메뉴 없음,글루텐프리 메뉴 없음,2022-11-30
까이식당,음식점/유흥시설,동남아시아음식,기타,서울특별시,서대문구,대현동,,53-9 번지,이화여대2가길,24 번,37.558452,126.946245,3767,서울특별시 서대문구 이화여대2가길 24,서울특별시 서대문구 대현동  53-9,070-7779-8899,월-금 11시-20시,토 11시-15시,무료주차 불가,발렛주차 불가,유아의자 대여 불가,휠체어 대여 불가,반려동물 동반 입장불가,채식 메뉴 없음,할랄음식 메뉴 없음,글루텐프리 메뉴 없음,2022-11-30
까이양포차나,음식점/유흥시설,동남아시아음식,기타,광주광역시,동구,장동,,69 번지,제봉로110번길,15-1 번,35.149064,126.923472,61436,광주광역시 동구 제봉로110번길 15-1,광주광역시 동구 장동  69,정보없음,정보없음,정보없음,무료주차 불가,발렛주차 불가,유아의자 대여 불가,휠체어 대여 불가,반려동물 동반 입장불가,채식 메뉴 없음,할랄음식 메뉴 없음,글루텐프리 메뉴 없음,2022-11-30
까펜파스타,음식점/유흥시설,유럽음식,이탈리아,서울특별시,양천구,신정동,,1021-7 번지,중앙로32길,67 번,37.520459,126.860941,8087,서울특별시 양천구 중앙로32길 67,서울특별시 양천구 신정동  1021-7,02-2644-2071,월-금 10시-22시,일 09시-24시,무료주차 가능,발렛주차 불가,유아의자 대여 불가,휠체어 대여 불가,반려동물 동반 입장불가,채식 메뉴 없음,할랄음식 메뉴 없음,글루텐프리 메뉴 없음,2022-11-30
까폼 더현대서울점,음식점/유흥시설,동남아시아음식,기타,서울특별시,영등포구,여의도동,,22 번지,여의대로,108 번,37.525493,126.928539,7335,서울특별시 영등포구 여의대로 108,서울특별시 영등포구 여의도동  22,02-3277-0790,정보없음,정보없음,무료주차 불가,발렛주차 불가,유아의자 대여 불가,휠체어 대여 불가,반려동물 동반 입장불가,채식 메뉴 없음,할랄음식 메뉴 없음,글루텐프리 메뉴 없음,2022-11-30
까폼 본점,음식점/유흥시설,동남아시아음식,태국 아시아,서울특별시,강남구,신사동,,655-15 번지,선릉로153길,18 번,37.524876,127.037988,6019,서울특별시 강남구 선릉로153길 18,서울특별시 강남구 신사동 655-15,0507-1411-7318,월-금 11시30분-22시,토-일 11시30분-23시,무료주차 불가,발렛주차 불가,유아의자 대여 불가,휠체어 대여 불가,반려동물 동반 입장가능,채식 메뉴 없음,할랄음식 메뉴 없음,글루텐프리 메뉴 없음,2022-11-30
까폼 현대백화점 판교점,음식점/유흥시설,동남아시아음식,기타,경기도,성남시 분당구,백현동,,541 번지,판교역로146번길,20 번,37.392795,127.112088,13529,경기도 성남시 분당구 판교역로146번길 20,경기도 성남시 분당구 백현동  541,031-5170-1013,월-금 10시30분-21시,토-일 10시30분-21시,무료주차 불가,발렛주차 불가,유아의자 대여 불가,휠체어 대여 불가,반려동물 동반 입장불가,채식 메뉴 없음,할랄음식 메뉴 없음,글루텐프리 메뉴 없음,2022-11-30
깎뜨쌀국수,음식점/유흥시설,동남아시아음식,베트남,서울특별시,강동구,천호동,,217-83 번지,구천면로40길,14 번,37.545315,127.134254,5310,서울특별시 강동구 구천면로40길 14,서울특별시 강동구 천호동  217-83,02-472-6470,월-금 11시30분-19시30분,토 11시30분-19시30분,무료주차 불가,발렛주차 불가,유아의자 대여 불가,휠체어 대여 불가,반려동물 동반 입장불가,채식 메뉴 없음,할랄음식 메뉴 없음,글루텐프리 메뉴 없음,2022-11-30
깐깨우,음식점/유흥시설,동남아시아음식,기타,충청남도,천안시 서북구,두정동,,1438 번지,두정상가8길,62 번,36.831879,127.144991,31105,충청남도 천안시 서북구 두정상가8길 62,충청남도 천안시 서북구 두정동  1438,041-557-7690,월-금 00시-24시,토-일 00시-24시,무료주차 가능,발렛주차 불가,유아의자 대여 불가,휠체어 대여 불가,반려동물 동반 입장불가,채식 메뉴 없음,할랄음식 메뉴 없음,글루텐프리 메뉴 없음,2022-11-30
깐쪼네,음식점/유흥시설,유럽음식,이탈리아,서울특별시,서대문구,충정로3가,,31-1 번지,경기대로,23 번,37.561544,126.961709,3751,서울특별시 서대문구 경기대로 23,서울특별시 서대문구 충정로3가  31-1,0507-1302-6147,월-금 11시-21시,휴무,무료주차 불가,발렛주차 불가,유아의자 대여 불가,휠체어 대여 불가,반려동물 동반 입장불가,채식 메뉴 없음,할랄음식 메뉴 없음,글루텐프리 메뉴 없음,2022-11-30
깔리,음식점/유흥시설,인도아시아음식,인도,서울특별시,서초구,방배동,,443-4 번지,방배천로,21 번,37.47844,126.982323,6692,서울특별시 서초구 방배천로 21,서울특별시 서초구 방배동  443-4,02-581-2855,월-금 11시30분-22시,토-일 11시30분-22시,무료주차 불가,발렛주차 불가,유아의자 대여 불가,휠체어 대여 불가,반려동물 동반 입장불가,채식 메뉴 없음,할랄음식 메뉴 없음,글루텐프리 메뉴 없음,2022-11-30
깔리,음식점/유흥시설,인도아시아음식,인도,서울특별시,종로구,명륜4가,,171 번지,대학로11길,43 번,37.582489,126.999255,3079,서울특별시 종로구 대학로11길 43,서울특별시 종로구 명륜4가  171,02-747-5050,화-금 11시30분-21시10분,토-일 11시30분-21시10분,무료주차 불가,발렛주차 불가,유아의자 대여 불가,휠체어 대여 불가,반려동물 동반 입장불가,채식 메뉴 없음,할랄음식 메뉴 없음,글루텐프리 메뉴 없음,2022-11-30
깔모누아,음식점/유흥시설,동남아시아음식,기타,서울특별시,마포구,서교동,,494 번지,양화로,72 번,37.550802,126.916716,4044,서울특별시 마포구 양화로 72,서울특별시 마포구 서교동  494,02-324-0085,화-금 11시30분-22시,토-일 11시30분-22시,무료주차 가능,발렛주차 불가,유아의자 대여 불가,휠체어 대여 불가,반려동물 동반 입장불가,채식 메뉴 없음,할랄음식 메뉴 없음,글루텐프리 메뉴 없음,2022-11-30
깜뚜누들,음식점/유흥시설,동남아시아음식,기타,충청남도,논산시,강경읍,중앙리,31-2 번지,옥녀봉로,47-1 번,36.162683,127.016202,32935,충청남도 논산시 옥녀봉로 47-1,충청남도 논산시 강경읍 중앙리 31-2,0507-1344-1684,월-금 11시-20시,토-일 11시-20시,무료주차 불가,발렛주차 불가,유아의자 대여 불가,휠체어 대여 불가,반려동물 동반 입장불가,채식 메뉴 없음,할랄음식 메뉴 없음,글루텐프리 메뉴 없음,2022-11-30
