"시도교육청","지역교육청","지역","정보공시 학교코드","학교명","학교급코드","설립구분","학교특성","분교여부","설립유형","주야구분","개교기념일","설립일","법정동코드","주소내역","상세주소내역","우편번호","학교도로명 우편번호","학교도로명 주소","학교도로명 상세주소","위도","경도","전화번호","팩스번호","홈페이지 주소","남녀공학 구분"
"교육부","교육부","서울특별시 강남구","S000003540","국립국악고등학교","04","국립","특수목적고등학교","N","단설","주간","19720909","19550401","1168010300","서울특별시 강남구 개포동","1272번지.","135962","06311","서울특별시 강남구 개포로22길 65","(개포동, 국악고등학교)","37.4762298973368","127.051475651587","02-3460-0500","02-3460-0555","http://gugak.sen.hs.kr","남녀공학"
"교육부","교육부","서울특별시 성북구","S000003561","서울대학교사범대학부설고등학교","04","국립","일반고등학교","N","부설","주간","19461015","19460901","1129013500","서울특별시 성북구 종암동","19번지.","136090","02796","서울특별시 성북구 월곡로 6","(종암동)","37.5947237544221","127.038118693891","02-913-7305","02-919-5275","https://snu.sen.hs.kr/","남녀공학"
"교육부","교육부","서울특별시 금천구","S000005401","국립전통예술고등학교","04","국립","특수목적고등학교","N","단설","주간","19600513","19600513","1154510300","서울특별시 금천구 시흥동","산24-17.","153033","08650","서울특별시 금천구 시흥대로38길 62","(시흥동)","37.446354","126.906414","02-896-1094","02-896-1096","http://kugak-am.sen.hs.kr","남녀공학"
"서울특별시교육청","서울특별시교육청","서울특별시 송파구","S010000370","가락고등학교","04","공립","일반고등학교","N","단설","주간","19890428","19881223","1171010400","서울특별시 송파구 송파동","172.","138170","05678","서울특별시 송파구 송이로 42","(송파동,가락고등학교)","37.501637","127.116943","02-416-4658","02-421-9669","http://garak.sen.hs.kr","남녀공학"
"서울특별시교육청","서울특별시교육청","서울특별시 강동구","S010000371","강동고등학교","04","사립","일반고등학교","N","단설","주간","19850908","19841217","1174010300","서울특별시 강동구 상일동","267번지.","134837","05279","서울특별시 강동구 구천면로 572","(상일동)","37.549890","127.160702","02-427-0231","02-441-3494","http://kangdong.sen.hs.kr","남녀공학"
"서울특별시교육청","서울특별시교육청","서울특별시 양천구","S010000372","강서고등학교","04","사립","일반고등학교","N","단설","주간","19831101","19831101","1147010200","서울특별시 양천구 목동","735번지.","158814","07958","서울특별시 양천구 목동중앙남로 27",", 강서고등학교 (목동)","37.5367773","126.8663295","02-2642-0725","02-2651-3046","http://gangseo.sen.hs.kr","남"
"서울특별시교육청","서울특별시교육청","서울특별시 강남구","S010000373","개포고등학교","04","공립","일반고등학교","N","단설","주간","19870512","19870512","1168010300","서울특별시 강남구 개포동","173번지.","135240","06324","서울특별시 강남구 개포로 402","(개포동, 개포고등학교)","37.4849587555848","127.059405370387","02-576-3333","02-571-6560","http://gaepo.sen.hs.kr","남녀공학"
"서울특별시교육청","서울특별시교육청","서울특별시 광진구","S010000374","건국대학교사범대학부속고등학교","04","사립","일반고등학교","N","부속","주간","19800515","19800131","1121510700","서울특별시 광진구 화양동","사범대학부속고등학교.","143701","05029","서울특별시 광진구 능동로 120",", 건국대학교사범대학부속고등학교 (화양동)","37.54006","127.08034","070-7012-3500","02-456-0646","http://konkuk.sen.hs.kr","남녀공학"
"서울특별시교육청","서울특별시교육청","서울특별시 강남구","S010000375","경기고등학교","04","공립","일반고등학교","N","단설","주간","19001003","19001003","1168010500","서울특별시 강남구 삼성동",".","","06086","서울특별시 강남구 영동대로 643",", 경기고등학교 (삼성동)","37.5175659822744","127.056073923117","02-3496-7300","02-3496-7497","http://kyunggi.sen.hs.kr","남"
"서울특별시교육청","서울특별시교육청","서울특별시 강남구","S010000376","경기여자고등학교","04","공립","일반고등학교","N","단설","주간","19080401","19080401","1168010300","서울특별시 강남구 개포동","152번지.","135800","06324","서울특별시 강남구 삼성로 29",", 경기여자고등학교 (개포동)","37.4868872583012","127.065566941998","02-573-6797","02-575-1157","http://kgg.sen.hs.kr","녀"
"서울특별시교육청","서울특별시교육청","서울특별시 성북구","S010000377","경동고등학교","04","공립","자율고등학교","N","단설","주간","19400416","19400416","1129011300","서울특별시 성북구 삼선동3가","50.","136043","02870","서울특별시 성북구 보문로29길 49","(삼선동3가, 경동고등학교)","37.586200","127.014664","02-928-2353","02-926-7525","http://kyungdong.sen.hs.kr","남"
"서울특별시교육청","서울특별시교육청","서울특별시 동작구","S010000378","경문고등학교","04","사립","일반고등학교","N","단설","주간","19800507","19800124","1159010600","서울특별시 동작구 동작동","4-2.","156080","06995","서울특별시 동작구 동작대로 171",", 경문고등학교 (동작동)","37.4930957589731","126.981699260637","02-535-1301","02-535-1230","http://kyungmoon.sen.hs.kr","남"
"서울특별시교육청","서울특별시교육청","서울특별시 종로구","S010000379","경복고등학교","04","공립","일반고등학교","N","단설","주간","19210502","19210502","1111010100","서울특별시 종로구 청운동","89-9.","03047","03047","서울특별시 종로구 자하문로28가길 9",", 경복고등학교 (청운동,경복고등학교)","37.587418","126.971434","02-397-5301","02-736-0422","http://kyungbock.sen.hs.kr","남"
"서울특별시교육청","서울특별시교육청","서울특별시 강서구","S010000380","경복여자고등학교","04","사립","일반고등학교","N","단설","주간","19931002","19931002","1150010200","서울특별시 강서구 등촌동","131번지.","157033","07589","서울특별시 강서구 화곡로63길 40",", 경복여자고등학교 (등촌동)","37.5578207513265","126.850597417843","02-3661-1741","02-3661-3795","http://kb.sen.hs.kr","녀"
"서울특별시교육청","서울특별시교육청","서울특별시 마포구","S010000381","경성고등학교","04","사립","일반고등학교","N","병설","주간","19671023","19671229","1144012400","서울특별시 마포구 연남동","369-1.","121866","03977","서울특별시 마포구 성미산로 111",", 경성고등학교 (연남동)","37.563341","126.918767","02-3140-1168","02-334-7533","http://gyeongseong.sen.hs.kr","남"
"서울특별시교육청","서울특별시교육청","서울특별시 종로구","S010000382","경신고등학교","04","사립","일반고등학교","N","단설","주간","18850509","18850509","1111016900","서울특별시 종로구 혜화동","5-119.","110530","03067","서울특별시 종로구 혜화로 74","(혜화동,경신중고등학교)","37.592173","127.000227","02-762-0393","02-762-0387","http://kyungshin.sen.hs.kr","남"
"서울특별시교육청","서울특별시교육청","서울특별시 구로구","S010000383","경인고등학교","04","공립","일반고등학교","N","단설","주간","20020516","20020301","1153010600","서울특별시 구로구 고척동","66-28번지.","152826","08275","서울특별시 구로구 경인로46길 31",", 경인고등학교 (고척동)","37.4959938556192","126.865430571976","02-2618-3043","02-2618-3093","http://kyeongin.sen.hs.kr","남녀공학"
"서울특별시교육청","서울특별시교육청","서울특별시 동대문구","S010000384","경희고등학교","04","사립","자율고등학교","N","병설","주간","19600518","19591212","1123010800","서울특별시 동대문구 회기동","경희대길 47(이문1-3).","130080","130701","서울특별시 동대문구 경희대로 26","(이문동)","37.594912","127.054904","966-3782","02-962-3643","http://www.kyungheeboy.hs.kr","남"
"서울특별시교육청","서울특별시교육청","서울특별시 동대문구","S010000385","경희여자고등학교","04","사립","일반고등학교","N","병설","주간","19600415","19600209","1123010800","서울특별시 동대문구 회기동","1번지.","130050","02447","서울특별시 동대문구 경희대로 26",", 경희여자고등학교 (회기동)","37.594927","127.051115","02-966-4560","02-967-2429","http://kyunghee.sen.hs.kr","녀"
"서울특별시교육청","서울특별시교육청","서울특별시 성북구","S010000386","계성고등학교","04","사립","일반고등학교","N","단설","주간","19440908","19440908","1129013400","서울특별시 성북구 길음동","1-7번지.","136110","02720","서울특별시 성북구 길음로 63",", 계성고등학교 (길음동)","37.607710","127.020310","02-728-6100","02-776-7086","gyeseong.sen.hs.kr","남녀공학"
"서울특별시교육청","서울특별시교육청","서울특별시 성북구","S010000387","고려대학교사범대학부속고등학교","04","사립","일반고등학교","N","부속","주간","19680311","19680311","1129013300","서울특별시 성북구 정릉동","산1-2번지.","136856","02708","서울특별시 성북구 정릉로 161",", 고려대학교사범대학부속고등학교 (정릉동)","37.609816","127.001571","02-914-7483","02-942-0732","http://koreahi.sen.hs.kr","남"
"서울특별시교육청","서울특별시교육청","서울특별시 구로구","S010000388","고척고등학교","04","공립","자율고등학교","N","단설","주간","19841217","19841215","1153010600","서울특별시 구로구 고척동","232.","152832","08239","서울특별시 구로구 중앙로15길 162",", 고척고등학교 (고척동, 고척고등학교)","37.5080485713885","126.849868765721","02-2684-1593","02-2615-7802","http://gocheok.sen.hs.kr","남녀공학"
"서울특별시교육청","서울특별시교육청","서울특별시 강서구","S010000389","공항고등학교","04","공립","일반고등학교","N","단설","주간","19830412","19821130","1150010500","서울특별시 강서구 마곡동","541번지.","157222","07597","서울특별시 강서구 방화대로34길 43","(마곡동, 공항고등학교)","37.570122","126.818420","02-2664-6874","02-6309-3919","http://konghang.sen.hs.kr","남녀공학"
"서울특별시교육청","서울특별시교육청","서울특별시 영등포구","S010000390","관악고등학교","04","공립","일반고등학교","N","단설","주간","19730427","19550427","1156012600","서울특별시 영등포구 양평동2가","23.","150102","07278","서울특별시 영등포구 영등포로6길 26","(양평동2가)","37.5217920201628","126.88292275386","02-2633-5954","02-2632-9358","http://kwan-ak.sen.hs.kr","남녀공학"
"서울특별시교육청","서울특별시교육청","서울특별시 광진구","S010000391","광남고등학교","04","공립","일반고등학교","N","단설","주간","19860513","19860125","1121510400","서울특별시 광진구 광장동","554-11.","143815","04973","서울 광진구 아차산로70길 17-16",", 광남고등학교 (광장동,광남고등학교)","37.5415133729537","127.101212450199","02-2204-8705","02-458-7043","http://gwang-nam.sen.hs.kr","남녀공학"
"서울특별시교육청","서울특별시교육청","서울특별시 강동구","S010000392","광문고등학교","04","사립","일반고등학교","N","단설","주간","19851105","19851105","1174010200","서울특별시 강동구 고덕동","295번지.","134080","05225","서울특별시 강동구 동남로 968",", 광문고등학교 (고덕동)","37.5604613570557","127.15854833906","02-427-2870","02-427-4357","http://gwangmun.sen.hs.kr","남녀공학"
"서울특별시교육청","서울특별시교육청","서울특별시 마포구","S010000393","광성고등학교","04","사립","일반고등학교","N","단설","주간","18940406","18940406","1144011100","서울특별시 마포구 신수동","91-20번지.","121854","04097","서울특별시 마포구 신수로8길 20","(신수동)","37.5486226","126.9363687","02-703-3457","02-711-7397","http://kwangsung.sen.hs.kr","남"
"서울특별시교육청","서울특별시교육청","서울특별시 관악구","S010000394","광신고등학교","04","사립","일반고등학교","N","단설","주간","19870102","19870120","1162010200","서울특별시 관악구 신림동","328번지.","151861","08847","서울특별시 관악구 광신길 141","(신림동,광신중고등학교)","37.4644759310512","126.925938757145","02-881-8532","02-881-8566","http://kwangshin.sen.hs.kr","남녀공학"
"서울특별시교육청","서울특별시교육청","서울특별시 광진구","S010000395","광양고등학교","04","공립","자율고등학교","N","단설","주간","19880420","19861215","1121510500","서울특별시 광진구 자양동","674-1번지.","143873","05104","서울특별시 광진구 자양로3가길 31","(자양동)","37.529721","127.085285","02-446-1435","02-458-9715","http://gwangyang.sen.hs.kr","남녀공학"
"서울특별시교육청","서울특별시교육청","서울특별시 양천구","S010000396","광영고등학교","04","사립","일반고등학교","N","단설","주간","19850201","19850201","1147010300","서울특별시 양천구 신월동","43-3번지.","158823","07909","서울특별시 양천구 남부순환로30길 17","(신월동,광영고등학교)","37.5371970209261","126.823275429408","02-2650-2300","02-2697-1002","http://ky.sen.hs.kr","남"
"서울특별시교육청","서울특별시교육청","서울특별시 양천구","S010000397","광영여자고등학교","04","사립","일반고등학교","N","단설","주간","19850306","19841217","1147010300","서울특별시 양천구 신월동","43-3번지.","158823","07909","서울특별시 양천구 남부순환로30길 17",", 광영여자고등학교 (신월동)","37.537740","126.824890","02-2697-5553","02-2697-5552","http://kyg.sen.hs.kr","녀"
"서울특별시교육청","서울특별시교육청","서울특별시 구로구","S010000398","구로고등학교","04","공립","일반고등학교","N","단설","주간","19820424","19811231","1153010200","서울특별시 구로구 구로동","105-1.","152842","08299","서울특별시 구로구 가마산로27길 45",", 구로고등학교 (구로동)","37.4988415263259","126.890309302964","02-851-2065","02-851-9826","http://guro.sen.hs.kr","남녀공학"
"서울특별시교육청","서울특별시교육청","서울특별시 구로구","S010000399","구일고등학교","04","공립","일반고등학교","N","단설","주간","19900120","19900120","1153010200","서울특별시 구로구 구로동","685-194번지.","152868","08324","서울특별시 구로구 구일로 90-51","(구로동)","37.4944100271558","126.8739422238748","02-858-2549","02-867-2826","http://guil.sen.hs.kr","남녀공학"
"서울특별시교육청","서울특별시교육청","서울특별시 강남구","S010000400","압구정고등학교","04","공립","일반고등학교","N","단설","주간","19870506","19861217","1168011000","서울특별시 강남구 압구정동","470번지.","135903","06003","서울특별시 강남구 압구정로39길 20",", 압구정고등학교 (압구정동)","37.530973","127.032648","02-549-0214","02-515-8610","http://apgujeong.sen.hs.kr","남녀공학"
"서울특별시교육청","서울특별시교육청","서울특별시 양천구","S010000401","금옥여자고등학교","04","공립","일반고등학교","N","단설","주간","19810503","19810115","1147010100","서울특별시 양천구 신정동","729번지.","158855","08080","서울특별시 양천구 신정로 213","(신정동)","37.510928","126.844582","02-2086-7502","02-2086-7575","http://geumok.sen.hs.kr","녀"
"서울특별시교육청","서울특별시교육청","서울특별시 금천구","S010000402","금천고등학교","04","공립","일반고등학교","N","단설","주간","19850506","19831208","1154510300","서울특별시 금천구 시흥동","산24-4.","08650","08650","서울특별시 금천구 시흥대로38길 26","(시흥동,금천고등학교)","37.445022","126.905691","02-896-3181","02-808-3186","http://Geumcheon.sen.hs.kr","남녀공학"
"서울특별시교육청","서울특별시교육청","서울특별시 관악구","S010000403","남강고등학교","04","사립","일반고등학교","N","단설","주간","19730302","19721229","1162010200","서울특별시 관악구 신림동","627-1.","151880","08854","서울특별시 관악구 난곡로34길 80","(신림동)","37.472357","126.924738","02-839-1701","02-839-1707","http://namkang.sen.hs.kr","남"
"서울특별시교육청","서울특별시교육청","서울특별시 노원구","S010000404","노원고등학교","04","공립","일반고등학교","N","단설","주간","19890427","19881223","1135010500","서울특별시 노원구 상계동","664번지.","139824","01675","서울특별시 노원구 노원로 586","(상계동)","37.6628057","127.0532928","02-937-0079","02-951-4607","http://nowon.sen.hs.kr","남녀공학"
"서울특별시교육청","서울특별시교육청","서울특별시 강남구","S010000405","단국대학교사범대학부속고등학교","04","사립","일반고등학교","N","부속","주간","19831226","19831226","1168010600","서울특별시 강남구 대치동","1013번지.","135281","06278","서울특별시 강남구 도곡로64길 21","(대치동)","37.495834","127.056676","02-2191-2600","02-557-6837","http://dan-kook.sen.hs.kr","남"
"서울특별시교육청","서울특별시교육청","서울특별시 관악구","S010000406","당곡고등학교","04","공립","자율고등학교","N","단설","주간","19840501","19831226","1162010100","서울특별시 관악구 봉천동","682번지.","151821","08712","서울특별시 관악구 봉천로21길 108",", 당곡고등학교 (봉천동)","37.491688","126.934635","02-6717-5200","02-873-4617","http://danggok.sen.hs.kr","남녀공학"
"서울특별시교육청","서울특별시교육청","서울특별시 동대문구","S010000407","대광고등학교","04","사립","자율고등학교","N","단설","주간","19471025","19471125","1123010100","서울특별시 동대문구 신설동","53-3번지.","130110","02581","서울특별시 동대문구 안암로 6",", 대광고등학교 (신설동)","37.577939","127.024586","02-940-2202","02-926-3197","http://www.dgh.hs.kr","남"
"서울특별시교육청","서울특별시교육청","서울특별시 은평구","S010000408","대성고등학교","04","사립","일반고등학교","N","단설","주간","19691016","19690109","1138010400","서울특별시 은평구 갈현동","산 53-1번지.","122802","03322","서울특별시 은평구 갈현로29길 51-24",", 대성고등학교 (갈현동)","37.6231699693512","126.909361127413","02-6252-1000","02-386-2536","http://dae-sung.sen.hs.kr","남"
"서울특별시교육청","서울특별시교육청","서울특별시 종로구","S010000409","대신고등학교","04","사립","일반고등학교","N","단설","주간","19380405","19380405","1111018100","서울특별시 종로구 행촌동","171번지.","110091","03029","서울특별시 종로구 사직로 9","(행촌동)","37.5735255","126.9618728","02-736-0317","02-736-0324","http://daeshin.sen.hs.kr","남"
"서울특별시교육청","서울특별시교육청","서울특별시 영등포구","S010000410","대영고등학교","04","공립","자율고등학교","N","단설","주간","19871215","19871215","1156013200","서울특별시 영등포구 신길동","342번지.","150841","07397","서울특별시 영등포구 도림로86길 16","(신길동, 대영고등학교)","37.5","126.9","02-847-2019","02-845-3496","http://dy.sen.hs.kr","남녀공학"
"서울특별시교육청","서울특별시교육청","서울특별시 광진구","S010000411","대원고등학교","04","사립","일반고등학교","N","단설","주간","19770520","19770520","1121510100","서울특별시 광진구 중곡동","176-124.","143713","04939","서울특별시 광진구 용마산로22길 26",", 대원고등학교 (중곡동)","37.563177","127.089494","02-2204-1569","82-2-2204-1577","http://daewon.sen.hs.kr","남"
"서울특별시교육청","서울특별시교육청","서울특별시 광진구","S010000412","대원여자고등학교","04","사립","일반고등학교","N","단설","주간","19830520","19821013","1121510100","서울특별시 광진구 중곡동","176-124.","143220","04939","서울특별시 광진구 용마산로22길 26","(중곡동)","37.5624945045861","127.089438001748","02-2204-1620","02-2204-1623","http://dwg.sen.hs.kr","녀"
"서울특별시교육청","서울특별시교육청","서울특별시 강서구","S010000413","대일고등학교","04","사립","일반고등학교","N","단설","주간","19720926","19720926","1150010200","서울특별시 강서구 등촌동","563-2번지.","157032","07672","서울특별시 강서구 등촌로 105","(등촌동)","37.539175","126.862546","070-4020-6400","02-2644-1558","https://daeil.sen.hs.kr/index.do","남"
"서울특별시교육청","서울특별시교육청","서울특별시 노원구","S010000414","대진고등학교","04","사립","일반고등학교","N","단설","주간","19851024","19840613","1135010400","서울특별시 노원구 하계동","55번지.","139230","01807","서울특별시 노원구 공릉로62가길 47",", 대진고등학교 (하계동)","37.6378050512267","127.076091040386","02-976-0067","02-971-6085","http://daejin.sen.hs.kr","남"
"서울특별시교육청","서울특별시교육청","서울특별시 노원구","S010000415","대진여자고등학교","04","사립","일반고등학교","N","단설","주간","19880212","19880212","1135010600","서울특별시 노원구 중계동","514-2번지.","139865","01785","서울특별시 노원구 공릉로 438",", 대진여자고등학교 (중계동)","37.6461247341409","127.067197832117","02-979-2327","02-948-3951","http://daejinw.sen.hs.kr","녀"
"서울특별시교육청","서울특별시교육청","서울특별시 강남구","S010000416","대진디자인고등학교","04","사립","특성화고등학교","N","단설","주간","19950302","19940325","1168011500","서울특별시 강남구 수서동","733.","06352","06352","서울특별시 강남구 광평로39길 93","(수서동,대진디자인고등학교)","37.4904272490566","127.095978207613","02-2226-8418","02-2226-4863","http://daejindesign.sen.hs.kr","남녀공학"
"서울특별시교육청","서울특별시교육청","서울특별시 종로구","S010000417","덕성여자고등학교","04","사립","일반고등학교","N","단설","주간","19451010","19200419","1111014100","서울특별시 종로구 안국동","37번지.","110240","03061","서울특별시 종로구 율곡로3길 50",", 덕성여자고등학교 (안국동)","37.5777612658016","126.983557797536","02-734-6871","02-732-5569","http://duksung.sen.hs.kr","녀"
"서울특별시교육청","서울특별시교육청","서울특별시 강서구","S010000418","덕원여자고등학교","04","사립","일반고등학교","N","단설","주간","19780429","19780429","1150010600","서울특별시 강서구 내발산동","산59-2번지.","157700","07640","서울특별시 강서구 강서로45길 91-44","(내발산동,덕원여자고등학교)","37.5486229374053","126.829024291802","02-2660-7800","02-2660-7881","http://deokwon.sen.hs.kr","녀"
"서울특별시교육청","서울특별시교육청","서울특별시 금천구","S010000419","독산고등학교","04","공립","일반고등학교","N","단설","주간","20020504","20011231","1154510200","서울특별시 금천구 독산동","907-34.","153820","08551","서울특별시 금천구 문성로 64",", 독산고등학교 (독산동)","37.476712611542894","126.91101078447055","02-857-6248","02-857-6247","http://doksan.sen.hs.kr","남녀공학"
"서울특별시교육청","서울특별시교육청","서울특별시 동대문구","S010000420","동국대학교사범대학부속고등학교","04","사립","일반고등학교","N","부속","주간","19470624","19470624","1123010600","서울특별시 동대문구 장안동","328번지.","02520","02520","서울특별시 동대문구 장안벚꽃로 201","(장안동,동국대학교사범대학부속고등학교)","37.577479","127.074495","02-6913-1511","02-6913-1588","http://ddbk.sen.hs.kr","남"
"서울특별시교육청","서울특별시교육청","서울특별시 서초구","S010000421","동덕여자고등학교","04","사립","일반고등학교","N","단설","주간","19100428","19100428","1165010100","서울특별시 서초구 방배동","산82번지.","137063","06700","서울특별시 서초구 효령로2길 123-5",", 동덕여자고등학교 (방배동)","37.4758768309158","126.991995829058","02-586-5418","02-582-7306","http://dongduk.sen.hs.kr","녀"
"서울특별시교육청","서울특별시교육청","서울특별시 은평구","S010000422","동명여자고등학교","04","사립","일반고등학교","N","단설","주간","19210603","19210603","1138010600","서울특별시 은평구 대조동","91-20번지.","122840","03390","서울특별시 은평구 통일로 793","(대조동,동명여자고등학교)","37.614477413919","126.92501552748","02-385-0652","02-356-4706","http://dongmyung.sen.hs.kr","녀"
"서울특별시교육청","서울특별시교육청","서울특별시 강동구","S010000423","동북고등학교","04","사립","일반고등학교","N","단설","주간","19530604","19530604","1174010600","서울특별시 강동구 둔촌동","180-2.","134820","05412","서울특별시 강동구 강동대로 305","(둔촌동)","37.5197185404258","127.141222714355","02-477-2280","02-488-8093","http://dongbuk.sen.hs.kr","남"
"서울특별시교육청","서울특별시교육청","서울특별시 종로구","S010000424","동성고등학교","04","사립","자율고등학교","N","단설","주간","19381208","19070910","1111016900","서울특별시 종로구 혜화동","90-7번지.","03083","03083","서울특별시 종로구 대학로 156","(혜화동,동성중고교)","37.5849703196581","127.003097645548","02-3671-9100","02-765-8239","http://www.dongsung.hs.kr","남"
"서울특별시교육청","서울특별시교육청","서울특별시 금천구","S010000425","동일여자고등학교","04","사립","일반고등학교","N","단설","주간","19680910","19721219","1154510300","서울특별시 금천구 시흥동","산100-4번지.","08656","08656","서울특별시 금천구 탑골로10길 45","(시흥동, 동일여자고등학교)","37.450980","126.916270","02-803-9806","02-894-5554","http://dongilg.sen.hs.kr","녀"
"서울특별시교육청","서울특별시교육청","서울특별시 금천구","S010000426","서울매그넷고등학교","04","사립","특성화고등학교","N","단설","주간","19870303","19870112","1154510300","서울특별시 금천구 시흥동","산100-4번지.","08656","08656","서울특별시 금천구 탑골로10길 45","(시흥동, 동일여자상업고등학교)","37.451491","126.917384","02-807-6333","02-804-9040","seoulmagnet.sen.hs.kr","녀"
"서울특별시교육청","서울특별시교육청","서울특별시 금천구","S010000426","서울매그넷고등학교","04","사립","특성화고등학교","N","단설","주간","19870303","19870112","1154510300","서울특별시 금천구 시흥동","산100-4번지.","08656","08656","서울특별시 금천구 탑골로10길 45","(시흥동, 동일여자상업고등학교)","37.451491","126.917384","02-807-6333","02-804-9040","seoulmagnet.sen.hs.kr","녀"
"서울특별시교육청","서울특별시교육청","서울특별시 동작구","S010000427","동작고등학교","04","공립","일반고등학교","N","단설","주간","19910430","19911023","1159010700","서울특별시 동작구 사당동","236-4.","156095","07031","서울특별시 동작구 솔밭로 51","(사당동,동작고등학교(복합정보센타))","37.4824277299317","126.965230826373","02-588-4196","02-523-3410","http://dongjak.sen.hs.kr","남녀공학"
"서울특별시교육청","서울특별시교육청","서울특별시 강동구","S010000428","둔촌고등학교","04","공립","일반고등학교","N","단설","주간","19970412","19970115","1174010600","서울특별시 강동구 둔촌동","79-3.","134062","05367","서울특별시 강동구 명일로 140","(둔촌동,둔촌고등학교)","37.5314320408088","127.143810743359","02-485-9873","02-485-9874","https://doonchon.sen.hs.kr/","남녀공학"
"서울특별시교육청","서울특별시교육청","서울특별시 강서구","S010000429","마포고등학교","04","사립","일반고등학교","N","단설","주간","19530601","19530601","1150010200","서울특별시 강서구 등촌동","82-1번지.","157033","07576","서울특별시 강서구 화곡로 403","(등촌동,마포고등학교)","37.559989927598","126.853132848803","02-3663-2583","02-3663-2590","http://mapo.sen.hs.kr","남"
"서울특별시교육청","서울특별시교육청","서울특별시 중랑구","S010000430","면목고등학교","04","공립","자율고등학교","N","단설","주간","19830420","19821130","1126010100","서울특별시 중랑구 면목동","30번지 .","02193","02193","서울특별시 중랑구 용마산로72길 36-14","(면목동,면목고등학교)","37.584781","127.096719","02-435-0002","02-435-0774","http://mmhs.sen.hs.kr","남"
"서울특별시교육청","서울특별시교육청","서울특별시 강서구","S010000431","명덕고등학교","04","사립","일반고등학교","N","단설","주간","19841015","19841217","1150010600","서울특별시 강서구 내발산동","169-1번지.","157726","07633","서울특별시 강서구 강서로47길 34-10","(내발산동,명덕고등학교)","37.554327","126.835450","02-2664-8817","02-2664-8875","http://myungduk.sen.hs.kr","남"
"서울특별시교육청","서울특별시교육청","서울특별시 강서구","S010000432","명덕여자고등학교","04","사립","일반고등학교","N","단설","주간","19841015","19831226","1150010600","서울특별시 강서구 내발산동","169-1번지.","157726","07633","서울특별시 강서구 강서로47길 34-10","(내발산동)","37.553987","126.834306","02-2664-8815","02-2664-8343","mdgh.sen.hs.kr","녀"
"서울특별시교육청","서울특별시교육청","서울특별시 광진구","S010000433","동국대학교사범대학부속여자고등학교","04","사립","일반고등학교","N","부속","주간","19300620","19300620","1121510300","서울특별시 광진구 구의동","238-1번지.","143824","05038","서울특별시 광진구 광나루로36길 47",", 동국대부속여고 (구의동)","37.543210","127.087073","02-2049-1577","02-2049-1588","http://donggukgirls.sen.hs.kr","녀"
"서울특별시교육청","서울특별시교육청","서울특별시 강동구","S010000434","명일여자고등학교","04","공립","일반고등학교","N","단설","주간","19850508","19841217","1174010100","서울특별시 강동구 명일동","40번지.","134825","05268","서울특별시 강동구 명일로 350","(명일동,명일여자고등학교)","37.5497764231025","127.149581167399","02-481-8192","02-481-8197","http://myungil.sen.hs.kr","녀"
"서울특별시교육청","서울특별시교육청","서울특별시 서대문구","S010000435","명지고등학교","04","사립","일반고등학교","N","단설","주간","19480412","19480412","1141011800","서울특별시 서대문구 홍은동","361-30번지.","120848","03656","서울특별시 서대문구 명지2길 56",", 명지고등학교 (홍은동)","37.584250","126.927381","02-303-1540","02-309-7289","http://myongji.sen.hs.kr","남녀공학"
"서울특별시교육청","서울특별시교육청","서울특별시 성동구","S010000436","무학여자고등학교","04","공립","일반고등학교","N","단설","주간","19400420","19400330","1120010700","서울특별시 성동구 행당동","322-1.","04716","04716","서울특별시 성동구 고산자로 197","무학여자고등학교","37.5567680311439","127.03359949927","02-2200-1724","02-2299-5065","http://muhak.sen.hs.kr","녀"
"서울특별시교육청","서울특별시교육청","서울특별시 관악구","S010000437","서울문영여자고등학교","04","사립","일반고등학교","N","단설","주간","19911107","19911107","1162010100","서울특별시 관악구 봉천동","1695번지.","151050","08833","서울특별시 관악구 관악로 85",", 서울문영여자고등학교 (봉천동)","37.473416","126.951081","02-873-3622","02-873-3625","http://moonyoung.sen.hs.kr","녀"
"서울특별시교육청","서울특별시교육청","서울특별시 금천구","S010000438","문일고등학교","04","사립","일반고등학교","N","단설","주간","19741227","19741227","1154510300","서울특별시 금천구 시흥동","559-1번지.","153030","08634","서울특별시 금천구 시흥대로47길 45","(시흥동)","37.449124","126.898969","02-802-2301","02-893-5094","http://moonil.sen.hs.kr","남"
"서울특별시교육청","서울특별시교육청","서울특별시 관악구","S010000439","미림여자고등학교","04","사립","일반고등학교","N","단설","주간","19790531","19671230","1162010200","서울특별시 관악구 신림동","1557-1번지.","08821","08821","서울특별시 관악구 호암로 546",", 미림여자고등학교 (신림동)","37.466758","126.933272","02-886-1811","02-878-2188","http://www.mirim.hs.kr","녀"
"서울특별시교육청","서울특별시교육청","서울특별시 서초구","S010000440","반포고등학교","04","공립","일반고등학교","N","단설","주간","19840426","19831226","1165010700","서울특별시 서초구 반포동","30-19.","137041","06598","서울특별시 서초구 고무래로 71","(반포동,반포고등학교)","37.5027043552097","127.016511680172","02-2258-4300,4100","02-2258-4242","http://banpo.sen.hs.kr","남녀공학"
"서울특별시교육청","서울특별시교육청","서울특별시 송파구","S010000441","배명고등학교","04","사립","일반고등학교","N","병설","주간","19341007","19490307","1171010600","서울특별시 송파구 삼전동","172-1번지.","138841","05598","서울특별시 송파구 삼학사로 11",", 배명고등학교 (삼전동)","37.4988176","127.0957019","070-4014-2632","02-421-8716","http://bm.sen.hs.kr","남"
"서울특별시교육청","서울특별시교육청","서울특별시 용산구","S010000442","배문고등학교","04","사립","일반고등학교","N","단설","주간","19551231","19551231","1117010800","서울특별시 용산구 서계동","259-3번지.","140830","04305","서울특별시 용산구 효창원로 258","(서계동)","37.550311","126.964274","02-3480-7100","02-714-0062","http://www.baemoon.hs.kr","남"
"서울특별시교육청","서울특별시교육청","서울특별시 강동구","S010000443","배재고등학교","04","사립","자율고등학교","N","단설","주간","18850608","18850608","1174010200","서울특별시 강동구 고덕동","313번지/고덕동길227.","134878","05234","서울특별시 강동구 고덕로 227","(고덕동,배재중 고등학교)","37.556089","127.150977","02-428-1885","02-429-7845","www.paichai.hs.kr","남"
"서울특별시교육청","서울특별시교육청","서울특별시 종로구","S010000444","배화여자고등학교","04","사립","일반고등학교","N","단설","주간","18981002","18981002","1111011300","서울특별시 종로구 필운동","12번지.","110044","03039","서울특별시 종로구 필운대로1길 34","(필운동,배화여자고등학교)","37.5783704496126","126.966911553041","02-724-0300","02-723-0752","http://paiwha.sen.hs.kr","녀"
"서울특별시교육청","서울특별시교육청","서울특별시 양천구","S010000445","백암고등학교","04","사립","일반고등학교","N","단설","주간","19841217","19840409","1147010100","서울특별시 양천구 신정동","733번지.","158855","08080","서울특별시 양천구 신정로13길 16",", 백암고등학교 (신정동)","37.511928","126.8448662","02-2696-0110","02-2691-0111","http://baegam.sen.hs.kr","남녀공학"
"서울특별시교육청","서울특별시교육청","서울특별시 송파구","S010000446","보성고등학교","04","사립","일반고등학교","N","단설","주간","19060905","19060905","1171011100","서울특별시 송파구 방이동","89-22번지.","05649","05649","서울특별시 송파구 양재대로 1278","(방이동,보성중고등학교)","37.5194034","127.135273","02-2152-2430","02-449-9355","http://posung.sen.hs.kr","남"
"서울특별시교육청","서울특별시교육청","서울특별시 용산구","S010000447","보성여자고등학교","04","사립","일반고등학교","N","단설","주간","19071010","19071010","1117010200","서울특별시 용산구 용산동2가","1-1123번지.","140022","04338","서울특별시 용산구 신흥로3가길 66",", 보성여자고등학교 (용산동2가)","37.5430801931244","126.984285080607","07040003030","027984145","http://bosung.sen.hs.kr","녀"
"서울특별시교육청","서울특별시교육청","서울특별시 관악구","S010000448","삼성고등학교","04","공립","일반고등학교","N","단설","주간","19860112","19860112","1162010200","서울특별시 관악구 신림동","222번지.","151858","08815","서울특별시 관악구 신림로 41","(신림동)","37.4691385338904","126.943668358055","02-871-7583","02-886-7251","http://samsung.sen.hs.kr","남녀공학"
"서울특별시교육청","서울특별시교육청","서울특별시 노원구","S010000449","상계고등학교","04","공립","일반고등학교","N","단설","주간","19880428","19871215","1135010500","서울특별시 노원구 상계동","738.","139207","01761","서울특별시 노원구 노해로 432","(상계동, 상계고등학교)","37.6527260351964","127.055454678401","02-6477-0700","02-933-9795","http://sanggye.sen.hs.kr","남"
"서울특별시교육청","서울특별시교육청","서울특별시 종로구","S010000450","상명대학교사범대학부속여자고등학교","04","사립","일반고등학교","N","부속","주간","19670307","19661219","1111018500","서울특별시 종로구 홍지동","7번지.","110020","03016","서울특별시 종로구 홍지문2길 20","(홍지동,상명대학교)","37.603516","126.953837","02-396-6302","02-396-6305","http://sangmyung-agh.sen.hs.kr","녀"
"서울특별시교육청","서울특별시교육청","서울특별시 노원구","S010000451","상명고등학교","04","사립","일반고등학교","N","단설","주간","19370517","19371201","1135010600","서울특별시 노원구 중계동","515번지.","139223","01758","서울특별시 노원구 덕릉로 553","(중계동)","37.6495479858419","127.068043987253","02-971-6211","02-971-6216","http://sangmyung.sen.hs.kr","남녀공학"
"서울특별시교육청","서울특별시교육청","서울특별시 서초구","S010000452","상문고등학교","04","사립","일반고등학교","N","단설","주간","19721223","19721223","1165010100","서울특별시 서초구 방배동","1000-1.","137060","06707","서울특별시 서초구 명달로 45","(방배동,상문고등학교)","37.4797549820771","127.003916367374","02-586-3141","02-586-3136","http://sangmoon.sen.hs.kr","남"
"서울특별시교육청","서울특별시교육청","서울특별시 강동구","S010000453","상일여자고등학교","04","사립","일반고등학교","N","단설","주간","19791006","19791006","1174010300","서울특별시 강동구 상일동","189번지.","134090","05282","서울특별시 강동구 천호대로219길 61",", 상일여자고등학교 (상일동)","37.549220","127.169635","02-428-0435","02-481-3130","http://sangil.sen.hs.kr","녀"
"서울특별시교육청","서울특별시교육청","서울특별시 노원구","S010000454","서라벌고등학교","04","사립","일반고등학교","N","단설","주간","19560305","19560305","1135010600","서울특별시 노원구 중계동","313번지.","139221","01745","서울특별시 노원구 한글비석로5길 18",", (중계1동 313, 서라벌고등학교)","37.6452418","127.0758368","02-2092-2200","02-2092-2270","http://sorabol.sen.hs.kr","남"
"서울특별시교육청","서울특별시교육청","서울특별시 서초구","S010000455","서문여자고등학교","04","사립","일반고등학교","N","단설","주간","19721229","19721229","1165010100","서울특별시 서초구 방배동","1514번지.","137064","06565","서울특별시 서초구 동광로12길 84","(방배동,서문여자고등학교)","37.4885743","126.985083","02-599-6061","02-594-8065","http://suhmoon.sen.hs.kr","녀"
"서울특별시교육청","서울특별시교육청","서울특별시 서초구","S010000456","서울고등학교","04","공립","일반고등학교","N","단설","주간","19460201","19460201","1165010800","서울특별시 서초구 서초동","1526-1번지.","137871","06669","서울특별시 서초구 효령로 197","(서초동,서울고등학교)","37.4842924259607","127.004902539216","02-582-8151","02-587-3933","http://seoul.sen.hs.kr","남"
"서울특별시교육청","서울특별시교육청","서울특별시 관악구","S010000458","서울미술고등학교","04","사립","일반고등학교","N","단설","주간","19720525","19710926","1162010100","서울특별시 관악구 봉천동","1690-133번지.","151727","08802","서울특별시 관악구 남부순환로247길 26","(봉천동,서울미술고등학교)","37.477056","126.966983","02-872-2111","02-872-2115","http://seoul-art.sen.hs.kr","남녀공학"
"서울특별시교육청","서울특별시교육청","서울특별시 강남구","S010000459","서울세종고등학교","04","사립","일반고등학교","N","단설","주간","19581228","19581228","1168011500","서울특별시 강남구 수서동","711.","135220","06348","서울특별시 강남구 광평로51길 36",", 서울세종고등학교 (수서동)","37.490313","127.102365","070-8668-3119","02-451-3292","http://seoulsejong.sen.hs.kr","남녀공학"
"서울특별시교육청","서울특별시교육청","서울특별시 마포구","S010000460","서울여자고등학교","04","공립","자율고등학교","N","단설","주간","19580415","19580415","1144010900","서울특별시 마포구 염리동","128-2.","121090","04140","서울특별시 마포구 백범로25길 34",", 서울여자고등학교 (염리동)","37.548077","126.9481861","02-703-2211","02-711-5667","http://seoulgs.sen.hs.kr","녀"
"서울특별시교육청","서울특별시교육청","서울특별시 송파구","S010000461","서울체육고등학교","04","공립","특수목적고등학교","N","단설","주간","19710320","19710320","1171011100","서울특별시 송파구 방이동","88-14번지.","138050","05541","서울특별시 송파구 강동대로 232",", 서울체육고등학교 (방이동)","37.5217588","127.1305913","02-2140-9801","02-2203-9803","http://seoul-ph.sen.hs.kr","남녀공학"
"서울특별시교육청","서울특별시교육청","서울특별시 서초구","S010000463","서초고등학교","04","공립","일반고등학교","N","단설","주간","19840418","19840112","1165010800","서울특별시 서초구 서초동","1504.","137870","06656","서울특별시 서초구 반포대로27길 29","(서초동)","37.4896119572237","127.005377797477","02-584-4234","02-583-6035","http://seocho.sen.hs.kr","남녀공학"
"서울특별시교육청","서울특별시교육청","서울특별시 성북구","S010000464","석관고등학교","04","공립","일반고등학교","N","단설","주간","19830413","19821130","1129013900","서울특별시 성북구 석관동","77-1번지.","136816","02782","서울특별시 성북구 한천로70길 30",", 석관고등학교 (석관동)","37.6095882065761","127.066716455279","02-958-1000","02-962-5364","http://seokgwan.sen.hs.kr","남녀공학"
"서울특별시교육청","서울특별시교육청","서울특별시 도봉구","S010000465","선덕고등학교","04","사립","자율고등학교","N","단설","주간","19830305","19821003","1132010500","서울특별시 도봉구 쌍문동","263번지.","132715","01375","서울특별시 도봉구 시루봉로 53",",  선덕고등학교 (쌍문동)","37.6550787254627","127.0261507392","02-997-4111","02-994-1797","http://sunduck.sen.hs.kr","남"
"서울특별시교육청","서울특별시교육청","서울특별시 은평구","S010000466","선일여자고등학교","04","사립","일반고등학교","N","단설","주간","19711227","19711227","1138010400","서울특별시 은평구 갈현동","240-1번지.","122802","03322","서울특별시 은평구 갈현로29길 27","(갈현동)","37.619140","126.912870","02-355-6691","02-388-1698","http://sunil.sen.hs.kr","녀"
"서울특별시교육청","서울특별시교육청","서울특별시 은평구","S010000467","선정고등학교","04","사립","일반고등학교","N","단설","주간","19500522","19500522","1138010400","서울특별시 은평구 갈현동","227-5번지.","122801","03327","서울특별시 은평구 서오릉로20길 19",", 선정고등학교 (갈현동)","37.6187044223061","126.909031272015","02-3156-1500","02-355-2259","http://sunjung.sen.hs.kr","남녀공학"
"서울특별시교육청","서울특별시교육청","서울특별시 동작구","S010000468","성남고등학교","04","사립","일반고등학교","N","단설","주간","19380425","19380224","1159010800","서울특별시 동작구 대방동","375-1호.","156809","06946","서울특별시 동작구 대방동길 74",", 성남고등학교 (대방동)","37.506078","126.926218","02-815-3645","02-815-1333","http://www.sungnam.hs.kr","남"
"서울특별시교육청","서울특별시교육청","서울특별시 중구","S010000469","성동고등학교","04","공립","자율고등학교","N","단설","주간","19490824","19490824","1114016200","서울특별시 중구 신당동","161번지.","100821","04579","서울특별시 중구 퇴계로90길 17",", 성동고등학교 (신당동)","37.564162467484","127.022388297785","02-2237-2412","02-2237-5748","http://sungdong.sen.hs.kr","남"
"서울특별시교육청","서울특별시교육청","서울특별시 관악구","S010000470","성보고등학교","04","사립","일반고등학교","N","단설","주간","19820531","19811231","1162010200","서울특별시 관악구 신림동","1690번지.","151907","08773","서울특별시 관악구 남부순환로156길 39","(신림동,성보고등학교)","37.479815","126.919719","02-862-8409","02-863-3999","http://sungbo.sen.hs.kr","남"
"서울특별시교육청","서울특별시교육청","서울특별시 성북구","S010000471","성신여자고등학교","04","사립","일반고등학교","N","단설","주간","19360428","19360428","1129010300","서울특별시 성북구 돈암동","산11-269번지.","02840","02840","서울특별시 성북구 동소문로26가길 80","(돈암동)","37.5942880990823","127.022406378529","02-6930-9100","02-924-0540","http://sungshin.sen.hs.kr","녀"
"서울특별시교육청","서울특별시교육청","서울특별시 용산구","S010000472","성심여자고등학교","04","사립","일반고등학교","N","단설","주간","19600401","19600126","1117011800","서울특별시 용산구 원효로4가","1번지.","140850","04361","서울특별시 용산구 원효로19길 49",", 성심여자고등학교 (원효로4가)","37.5343665","126.9537281","02-702-5501","02-711-6887","http://sacredheart.sen.hs.kr","녀"
"서울특별시교육청","서울특별시교육청","서울특별시 서초구","S010000473","세화고등학교","04","사립","자율고등학교","N","단설","주간","19861230","19861230","1165010700","서울특별시 서초구 반포동","753번지.","137049","06548","서울특별시 서초구 신반포로 56-7","(반포동)","37.5019519709483","126.991617579061","02-594-8721","02-599-3101","http://www.sehwa.hs.kr","남"
"서울특별시교육청","서울특별시교육청","서울특별시 서초구","S010000474","세화여자고등학교","04","사립","자율고등학교","N","단설","주간","19780303","19771230","1165010700","서울특별시 서초구 반포동","753번지.","137049","06548","서울특별시 서초구 신반포로 56-7",", 세화여자고등학교","37.5021638","126.9932495","02-537-2131","02-595-6586","http://www.sehwa-gs.hs.kr","녀"
"서울특별시교육청","서울특별시교육청","서울특별시 중랑구","S010000475","송곡고등학교","04","사립","일반고등학교","N","단설","주간","19861231","19861231","1126010500","서울특별시 중랑구 망우동","239-1번지.","131800","02062","서울특별시 중랑구 양원역로 50","(망우동,송곡고등학교)","37.6058469672297","127.106463737134","02-435-0660","02-437-3093","http://sg.sen.hs.kr","남"
"서울특별시교육청","서울특별시교육청","서울특별시 중랑구","S010000476","송곡여자고등학교","04","사립","일반고등학교","N","단설","주간","19730524","19721231","1126010500","서울특별시 중랑구 망우동","252-1번지.","131800","02057","서울특별시 중랑구 양원역로 67","(망우동)","37.6063172","127.1053091","02-434-4598","02-438-8508","http://songgok.sen.hs.kr","녀"
"서울특별시교육청","서울특별시교육청","서울특별시 동작구","S010000477","수도여자고등학교","04","공립","일반고등학교","N","단설","주간","19460610","19460610","1159010900","서울특별시 동작구 신대방동","470-13번지.","156850","07062","서울특별시 동작구 여의대방로10길 73",", 수도여자고등학교 (신대방동)","37.4933845","126.915414","02-2102-3506","02-2102-3529","http://sudogh.sen.hs.kr","녀"
"서울특별시교육청","서울특별시교육청","서울특별시 노원구","S010000478","수락고등학교","04","공립","자율고등학교","N","단설","주간","20020426","20020301","1135010500","서울특별시 노원구 상계동","1253번지.","139838","01602","서울특별시 노원구 동일로245길 143","(상계동,수락고등학교)","37.6827335","127.0535593","070-8677-2100","02-935-1460","http://surak.sen.hs.kr","남녀공학"
"서울특별시교육청","서울특별시교육청","서울특별시 강남구","S010000479","숙명여자고등학교","04","사립","일반고등학교","N","단설","주간","19060522","19060522","1168011800","서울특별시 강남구 도곡동","91.","135505","06277","서울특별시 강남구 남부순환로 2807",", 숙명여자고등학교 (도곡동)","37.491474460406","127.052612355929","02-3462-5011","02-3462-0791","http://sm.sen.hs.kr","녀"
"서울특별시교육청","서울특별시교육청","서울특별시 마포구","S010000480","숭문고등학교","04","사립","자율고등학교","N","단설","주간","19460828","19460828","1144010800","서울특별시 마포구 대흥동","28번지.","121809","04126","서울특별시 마포구 숭문길 99","(대흥동)","37.5508894566401","126.945770631189","02-716-2980","02-711-2980","http://soongmoon.sen.hs.kr","남"
"서울특별시교육청","서울특별시교육청","서울특별시 은평구","S010000481","숭실고등학교","04","사립","일반고등학교","N","단설","주간","18971010","18971010","1138010900","서울특별시 은평구 신사동","300-88번지.","122890","03445","서울특별시 은평구 은평터널로7길 6","(신사동)","37.5928731619049","126.902404801657","02-373-5910","02-374-7166","http://soongsil.sen.hs.kr","남"
"서울특별시교육청","서울특별시교육청","서울특별시 동작구","S010000482","숭의여자고등학교","04","사립","일반고등학교","N","단설","주간","19031031","19031031","1159010800","서울특별시 동작구 대방동","20-114번지.","156807","06944","서울특별시 동작구 여의대방로36길 79",", 숭의여자고등학교 (대방동)","37.5073623378813","126.929244189965","02-810-7800","02-813-0976","http://soongeui.sen.hs.kr","녀"
"서울특별시교육청","서울특별시교육청","서울특별시 용산구","S010000483","신광여자고등학교","04","사립","일반고등학교","N","단설","주간","19530608","19530608","1117011100","서울특별시 용산구 청파동3가","100번지(청파로 208).","140133","04313","서울특별시 용산구 청파로 263",", 신광여자고등학교 (청파동3가)","37.5429006906627","126.969448314913","02-710-6940","02-703-6910","http://shinkwang.sen.hs.kr","녀"
"서울특별시교육청","서울특별시교육청","서울특별시 관악구","S010000484","신림고등학교","04","공립","일반고등학교","N","단설","주간","19870506","19861217","1162010200","서울특별시 관악구 신림동","산197-1.","151022","08772","서울특별시 관악구 문성로 119",", 신림고등학교 (신림동)","37.4783835","126.9166401","02-6219-8300","02-869-1466","http://sillim.sen.hs.kr","남녀공학"
"서울특별시교육청","서울특별시교육청","서울특별시 양천구","S010000485","신목고등학교","04","공립","일반고등학교","N","단설","주간","19870528","19861217","1147010100","서울특별시 양천구 신정동","330-3.","158070","08018","서울특별시 양천구 안양천로 739","(신정동,신목고등학교)","37.512763","126.873615","070-8720-5010","02-2645-5902","http://shinmok.sen.hs.kr","남녀공학"
"서울특별시교육청","서울특별시교육청","서울특별시 강북구","S010000486","신일고등학교","04","사립","자율고등학교","N","단설","주간","19661013","19661013","1130510100","서울특별시 강북구 미아동","13번지.","142711","01133","서울특별시 강북구 솔매로49길 20","(미아동,신일중고등학교)","37.628190","127.027724","02-989-4151","02-986-9565","http://www.shin-il.hs.kr","남"
"서울특별시교육청","서울특별시교육청","서울특별시 서초구","S010000487","양재고등학교","04","공립","일반고등학교","N","단설","주간","19901123","19900120","1165010800","서울특별시 서초구 서초동","1376-4번지.","137072","06750","서울특별시 서초구 남부순환로346길 9","(서초동,양재고등학교)","37.4824212830849","127.032078268462","02-571-4457","02-578-7507","http://yangjae.sen.hs.kr","남녀공학"
"서울특별시교육청","서울특별시교육청","서울특별시 양천구","S010000488","양정고등학교","04","사립","자율고등학교","N","단설","주간","19050512","19050512","1147010200","서울특별시 양천구 목동","911-2번지.","158050","07985","서울특별시 양천구 안양천로 1039","(목동,양정고등학교)","37.5348671","126.8869776","02-2649-7071","02-2649-7079","http://www.yangchung.hs.kr","남"
"서울특별시교육청","서울특별시교육청","서울특별시 양천구","S010000489","양천고등학교","04","사립","일반고등학교","N","단설","주간","19840312","19840206","1147010100","서울특별시 양천구 신정동","산109-1번지.","158867","08108","서울특별시 양천구 신정로14길 13","(신정동,양천고등학교)","37.508667","126.845736","02-2605-5996","02-2605-5986","http://yangcheon.sen.hs.kr","남"
"서울특별시교육청","서울특별시교육청","서울특별시 양천구","S010000490","목동고등학교","04","사립","일반고등학교","N","단설","주간","19900914","19891208","1147010100","서울특별시 양천구 신정동","325-8번지.","158077","08099","서울특별시 양천구 목동동로2길 68",", 목동고등학교 (신정동)","37.5092145349735","126.860199559639","02-2652-1701","02-2652-9229","https://mokdong.sen.hs.kr/","녀"
"서울특별시교육청","서울특별시교육청","서울특별시 서초구","S010000491","언남고등학교","04","공립","일반고등학교","N","단설","주간","19860430","19860125","1165010200","서울특별시 서초구 양재동","309.","06780","06780","서울 서초구 동산로13길 35","(양재동,언남고등학교)","37.4723301092255","127.043003427664","02-575-2680","02-579-7227","http://eonnam.sen.hs.kr","남녀공학"
"서울특별시교육청","서울특별시교육청","서울특별시 영등포구","S010000492","여의도고등학교","04","공립","일반고등학교","N","단설","주간","19730303","19721229","1156011000","서울특별시 영등포구 여의도동","30-1번지.","150882","07338","서울특별시 영등포구 국제금융로7길 37",", 여의도고등학교 (여의도동)","37.525050109363","126.934218669262","070-8661-3005","02-782-1279","http://yeouido.sen.hs.kr","남"
"서울특별시교육청","서울특별시교육청","서울특별시 영등포구","S010000493","여의도여자고등학교","04","공립","일반고등학교","N","단설","주간","19840506","19840301","1156011000","서울특별시 영등포구 여의도동","40-2번지.","150888","07341","서울특별시 영등포구 국제금융로7가길 13",", 여의도여자고등학교 (여의도동)","37.5228881855605","126.935089360825","02-3780-4400","02-3780-4424","http://yeouido-gh.sen.hs.kr","녀"
"서울특별시교육청","서울특별시교육청","서울특별시 노원구","S010000494","염광고등학교","04","사립","일반고등학교","N","단설","주간","19830302","19821019","1135010200","서울특별시 노원구 월계동","820번지.","139724","01874","서울특별시 노원구 월계로45가길 9","(월계동)","37.628422","127.049528","02-905-4221","02-994-0122","http://yumkwang.sen.hs.kr","남녀공학"
"서울특별시교육청","서울특별시교육청","서울특별시 강남구","S010000495","영동고등학교","04","사립","일반고등학교","N","단설","주간","19730603","19720418","1168010400","서울특별시 강남구 청담동","23-4번지.","135100","06065","서울특별시 강남구 선릉로 742","(청담동, 영동고등학교)","37.520183","127.043348","02-542-5071","02-542-5075","yd.sen.hs.kr","남"
"서울특별시교육청","서울특별시교육청","서울특별시 송파구","S010000496","영동일고등학교","04","사립","일반고등학교","N","단설","주간","19780324","19771230","1171010100","서울특별시 송파구 잠실동","35-1번지.","138915","05555","서울특별시 송파구 석촌호수로 93",", 영동일고등학교 (잠실동)","37.5100019005981","127.089868468297","02-430-6822","02-430-3595","http://ydi.sen.hs.kr","남녀공학"
"서울특별시교육청","서울특별시교육청","서울특별시 동작구","S010000497","영등포고등학교","04","공립","일반고등학교","N","단설","주간","19590407","19590313","1159010800","서울특별시 동작구 대방동","13-2번지.","156807","06933","서울특별시 동작구 등용로8길 5","(대방동,영등포고등학교)","37.508441","126.933946","02-816-8323","02-824-4370","http://ydp.sen.hs.kr","남"
"서울특별시교육청","서울특별시교육청","서울특별시 영등포구","S010000498","영등포여자고등학교","04","공립","일반고등학교","N","단설","주간","19530331","19530331","1156013200","서울특별시 영등포구 신길동","184-3번지.","150050","07310","서울특별시 영등포구 영등포로62길 13",", 영등포여자고등학교  (신길동)184-3","37.5153901589433","126.915355407006","02-843-0479","02-831-1114","http://ydpg.sen.hs.kr","녀"
"서울특별시교육청","서울특별시교육청","서울특별시 관악구","S010000499","영락고등학교","04","사립","일반고등학교","N","단설","주간","19550301","19590409","1162010100","서울특별시 관악구 봉천동","1558-1번지.","151917","08831","서울특별시 관악구 청룡16길 25",", 영락고등학교 (봉천동)","37.476283","126.944206","02-884-1003","02-884-8741","https://yrgo.sen.hs.kr/","남녀공학"
"서울특별시교육청","서울특별시교육청","서울특별시 양천구","S010000500","서울영상고등학교","04","사립","특성화고등학교","N","단설","주간","19611208","19611208","1147010100","서울특별시 양천구 신정동","984번지.","08021","08021","서울특별시 양천구 목동로11길 46",", 서울영상고등학교 (신정동)","37.5233027304044","126.860295450942","02-2602-7121","02-2606-1804","http://youngsang.sen.hs.kr","남녀공학"
"서울특별시교육청","서울특별시교육청","서울특별시 영등포구","S010000501","영신고등학교","04","공립","일반고등학교","N","단설","주간","19910501","19900120","1156013200","서울특별시 영등포구 신길동","4656-2.","150860","07436","서울 영등포구 대방천로14길 18",", 영신고등학교 (신길동,영신고등학교)","37.49748","126.90952","02-834-6051","02-831-3539","http://youngsin.sen.hs.kr","남녀공학"
"서울특별시교육청","서울특별시교육청","서울특별시 노원구","S010000502","영신여자고등학교","04","사립","일반고등학교","N","단설","주간","19871215","19871215","1135010600","서울특별시 노원구 중계동","118번지.","139229","01721","서울특별시 노원구 중계로16나길 13","(중계동,영신여자고등학교)","37.6524537965424","127.083276898896","02-930-8455","02-934-8565","http://ys.sen.hs.kr","녀"
"서울특별시교육청","서울특별시교육청","서울특별시 강서구","S010000503","영일고등학교","04","사립","일반고등학교","N","단설","주간","19750515","19740607","1150010200","서울특별시 강서구 등촌동","525번지.","157836","07669","서울특별시 강서구 등촌로51가길 26",", 영일고등학교 (등촌동)","37.5472858232229","126.862061279139","02-2653-8134","02-2652-2846","http://youngil.sen.hs.kr","남"
"서울특별시교육청","서울특별시교육청","서울특별시 송파구","S010000504","영파여자고등학교","04","사립","일반고등학교","N","단설","주간","19671028","19721229","1171010300","서울특별시 송파구 풍납동","501번지.","138879","05529","서울특별시 송파구 올림픽로 565",", 영파여자고등학교 (풍납동)","37.5321334","127.1198218","02-483-8881","02-488-2358","http://youngpa.sen.hs.kr","녀"
"서울특별시교육청","서울특별시교육청","서울특별시 강북구","S010000505","영훈고등학교","04","사립","일반고등학교","N","단설","주간","19730327","19721229","1130510100","서울특별시 강북구 미아동","471-2번지.","142709","01211","서울특별시 강북구 도봉로13가길 19","(미아동,학교법인영훈학원)","37.613509","127.027784","02-986-2500","02-983-0217","http://younghoon.sen.hs.kr","남녀공학"
"서울특별시교육청","서울특별시교육청","서울특별시 은평구","S010000506","예일여자고등학교","04","사립","일반고등학교","N","단설","주간","19650926","19650926","1138010500","서울특별시 은평구 구산동","8-3번지.","122819","03412","서울특별시 은평구 연서로 117",", 예일여자고등학교 (구산동,수위실)","37.6108146","126.9153478","02-380-0812","02-380-0840","www.yale.hs.kr","녀"
"서울특별시교육청","서울특별시교육청","서울특별시 송파구","S010000507","오금고등학교","04","공립","일반고등학교","N","단설","주간","19880421","19871215","1171011200","서울특별시 송파구 오금동","34-3번지.","138130","05660","서울특별시 송파구 중대로 247","(오금동)","37.504526","127.129541","02-406-0592","02-448-5671","http://ogeum.sen.hs.kr","남녀공학"
"서울특별시교육청","서울특별시교육청","서울특별시 구로구","S010000508","오류고등학교","04","사립","일반고등학교","N","단설","주간","19991127","19991127","1153010900","서울특별시 구로구 궁동","110-1번지.","152883","08248","서울특별시 구로구 오리로21길 2","(궁동, 오류고등학교)","37.500202","126.828238","02-2684-2300","02-2685-5980","http://oryu.sen.hs.kr","녀"
"서울특별시교육청","서울특별시교육청","서울특별시 용산구","S010000509","오산고등학교","04","사립","일반고등학교","N","단설","주간","19070515","19070515","1117013600","서울특별시 용산구 보광동","168번지.","140823","04396","서울특별시 용산구 보광로7길 17","(보광동)","37.523464","126.999574","02-7999-500","02-7999-699","http://osan.sen.hs.kr","남"
"서울특별시교육청","서울특별시교육청","서울특별시 성북구","S010000510","용문고등학교","04","사립","일반고등학교","N","단설","주간","19461012","19461012","1129012200","서울특별시 성북구 안암동2가","96-1.","136072","02843","서울특별시 성북구 고려대로17가길 46","(안암동2가, 용문중고등학교)","37.5879326","127.0251981","02-928-3871","02-927-0860","http://yongmoon.sen.hs.kr","남"
"서울특별시교육청","서울특별시교육청","서울특별시 용산구","S010000511","용산고등학교","04","공립","일반고등학교","N","단설","주간","19460909","19460909","1117010200","서울특별시 용산구 용산동2가","1번지.","140833","04353","서울특별시 용산구 두텁바위로 60","(용산동2가,용산고등학교)","37.5458654901583","126.980328461827","02-3706-6700","02-318-4439","http://yongsan.sen.hs.kr","남"
"서울특별시교육청","서울특별시교육청","서울특별시 노원구","S010000512","용화여자고등학교","04","사립","일반고등학교","N","단설","주간","19870422","19871215","1135010500","서울특별시 노원구 상계동","696번지.","01687","01687","서울특별시 노원구 동일로 1461",", 용화여자고등학교 (상계동,용화여자고등학교)","37.6591324586967","127.058279107316","02-950-3500","02-933-1677","http://www.yonghwa.hs.kr/","녀"
"서울특별시교육청","서울특별시교육청","서울특별시 구로구","S010000513","우신고등학교","04","사립","일반고등학교","N","단설","주간","19740523","19740105","1153010900","서울특별시 구로구 궁동","230번지.","152883","08258","서울특별시 구로구 부일로 917",", 우신고등학교 (궁동)","37.495324","126.826705","02-2610-1599","02-2610-1559","http://wooshin.sen.hs.kr","남"
"서울특별시교육청","서울특별시교육청","서울특별시 강남구","S010000514","은광여자고등학교","04","사립","일반고등학교","N","단설","주간","19461015","19550315","1168011800","서울특별시 강남구 도곡동","938-10번지.","135859","06264","서울특별시 강남구 남부순환로359길 36","(도곡동)","37.4879414","127.0359252","02-3462-2005","02-3462-2002","http://eunkwang.sen.hs.kr","녀"
"서울특별시교육청","서울특별시교육청","서울특별시 은평구","S010000515","은평메디텍고등학교","04","사립","특성화고등학교","N","단설","주간","19910807","19700302","1138011400","서울특별시 은평구 진관동","197-20번지.","03306","03306","서울특별시 은평구 진관2로 57-57","(진관동,은평메디텍고등학교)","37.635284","126.929185","070-4020-6800","02-357-0836","http://eunpyeong.sen.hs.kr","남녀공학"
"서울특별시교육청","서울특별시교육청","서울특별시 중구","S010000516","이화여자고등학교","04","사립","자율고등학교","N","단설","주간","18860531","18860531","1114016700","서울특별시 중구 정동","32번지.","100120","04516","서울특별시 중구 정동길",", 26 (정동)","37.5656998204545","126.970557312083","02-752-3353","02-319-0669","http://www.ewha.hs.kr","녀"
"서울특별시교육청","서울특별시교육청","서울특별시 서대문구","S010000517","이화여자대학교사범대학부속이화금란고등학교","04","사립","자율고등학교","N","부속","주간","19580401","19580215","1141011300","서울특별시 서대문구 대신동","113번지.","120160","03759","서울특별시 서대문구 성산로 560",", 이대부속고등학교 (대신동)","37.5663658352211","126.947661003508","02-361-6200","02-313-5602","http://edaebugo.sen.hs.kr","남녀공학"
"서울특별시교육청","서울특별시교육청","서울특별시 서대문구","S010000518","인창고등학교","04","사립","일반고등학교","N","단설","주간","19531010","19531010","1141010100","서울특별시 서대문구 충정로2가","70번지.","120012","03746","서울특별시 서대문구 경기대로 65",", 인창고등학교 (충정로2가)","37.565414","126.963492","02-360-3700","02-360-3737","http://inchang.sen.hs.kr","남"
"서울특별시교육청","서울특별시교육청","서울특별시 관악구","S010000519","인헌고등학교","04","공립","일반고등학교","N","단설","주간","19850605","19841207","1162010100","서울특별시 관악구 봉천동","174-5.","08796","08796","서울특별시 관악구 인헌9길 74","(봉천동,인헌고등학교)","37.4723090200753","126.970485457711","02-886-6253","02-872-0495","inhun.sen.hs.kr","남녀공학"
"서울특별시교육청","서울특별시교육청","서울특별시 광진구","S010000521","자양고등학교","04","공립","일반고등학교","N","단설","주간","19840515","19831226","1121510500","서울특별시 광진구 자양동","524번지.","05069","05069","서울특별시 광진구 뚝섬로37길 28","(자양동,자양고등학교)","37.5357534","127.0729905","02-2049-4100","02-2049-4288","http://jayang.sen.hs.kr","남녀공학"
"서울특별시교육청","서울특별시교육청","서울특별시 송파구","S010000522","잠신고등학교","04","공립","일반고등학교","N","단설","주간","19881223","19881223","1171010100","서울특별시 송파구 잠실동","22-7번지.","138222","05502","서울특별시 송파구 잠실로 24",", 잠신고등학교 (잠실동)","37.5147063515082","127.088263397494","02-417-8771","02-421-9751","http://jamsin.sen.hs.kr","남녀공학"
"서울특별시교육청","서울특별시교육청","서울특별시 송파구","S010000523","잠실고등학교","04","공립","일반고등학교","N","단설","주간","19830404","19821130","1171010200","서울특별시 송파구 신천동","17-1.","138240","05507","서울특별시 송파구 올림픽로33길 71",", 잠실고등학교 (신천동)","37.5226167","127.1062937","02-2141-3700","02-2141-3880","http://jamsil.sen.hs.kr","남"
"서울특별시교육청","서울특별시교육청","서울특별시 송파구","S010000524","잠실여자고등학교","04","사립","일반고등학교","N","단설","주간","19830513","19821130","1171010400","서울특별시 송파구 송파동","99-2번지.","138170","05676","서울특별시 송파구 송파대로38길 8","(송파동) 잠실여자고등학교","37.5023233","127.1130974","02-2140-8031","02-2140-8024","http://jamsilg.sen.hs.kr","녀"
"서울특별시교육청","서울특별시교육청","서울특별시 중구","S010000525","장충고등학교","04","사립","일반고등학교","N","단설","주간","19470901","19470901","1114016200","서울특별시 중구 신당동","432-460번지.","04603","04603","서울특별시 중구 동호로15길 93","(신당동)","37.5526811","127.006058","02-2233-9990","02-2236-6660","http://jangchung.sen.hs.kr","남"
"서울특별시교육청","서울특별시교육청","서울특별시 영등포구","S010000526","장훈고등학교","04","사립","자율고등학교","N","단설","주간","19640113","19640113","1156013200","서울특별시 영등포구 신길동","176번지.","150050","07316","서울특별시 영등포구 영등포로64길 26",", 장훈고등학교 (신길동)","37.5133437027597","126.91623092527","02-842-6921","02-831-7435","http://www.janghoon.hs.kr","남"
"서울특별시교육청","서울특별시교육청","서울특별시 노원구","S010000527","재현고등학교","04","사립","일반고등학교","N","단설","주간","19780303","19780303","1135010600","서울특별시 노원구 중계동","129-1번지.","139220","01717","서울특별시 노원구 덕릉로82길 64",", 재현고등학교 (중계동)","37.660141","127.079847","02-932-4812","02-6000-9358","http://jaehyun.sen.hs.kr","남"
"서울특별시교육청","서울특별시교육청","서울특별시 송파구","S010000528","정신여자고등학교","04","사립","일반고등학교","N","단설","주간","19871020","18871020","1171010100","서울특별시 송파구 잠실동","50-4번지.","138227","05571","서울특별시 송파구 올림픽로4길 16",", 정신여자고등학교 (잠실동)","37.508824","127.071909","02-423-2775","02-420-9607","http://chungshin.sen.hs.kr","녀"
"서울특별시교육청","서울특별시교육청","서울특별시 도봉구","S010000529","정의여자고등학교","04","사립","일반고등학교","N","단설","주간","19761007","19760305","1132010500","서울특별시 도봉구 쌍문동","150-1번지.","132716","01438","서울특별시 도봉구 노해로49길 69","(쌍문동,정의여자고등학교)","37.652905","127.031038","02-992-5104","02-991-0876","http://jeongeui.sen.hs.kr","녀"
"서울특별시교육청","서울특별시교육청","서울특별시 용산구","S010000530","중경고등학교","04","공립","자율고등학교","N","단설","주간","19820301","19820301","1117012900","서울특별시 용산구 이촌동","300-322번지.","140853","04426","서울특별시 용산구 이촌로84길 34","(이촌동)","37.5176812969154","126.975639274039","02-793-2540","02-796-5727","http://jungkyung.sen.hs.kr","남녀공학"
"서울특별시교육청","서울특별시교육청","서울특별시 강남구","S010000531","중동고등학교","04","사립","자율고등학교","N","단설","주간","19060510","19060510","1168011400","서울특별시 강남구 일원동","618번지.","135943","06338","서울특별시 강남구 일원로 7","(일원동)","37.4937145904613","127.080911097298","02-3411-0100","02-3411-0154","www.joongdong.hs.kr","남"
"서울특별시교육청","서울특별시교육청","서울특별시 강남구","S010000532","중산고등학교","04","사립","일반고등학교","N","단설","주간","19940325","19940301","1168011400","서울특별시 강남구 일원동","714.","06350","06350","서울특별시 강남구 일원로14길 22","(일원동,중산고등학교)","37.4857168874808","127.081436152561","02-2112-9000","02-2226-0196","http://www.jungsan.hs.kr","남"
"서울특별시교육청","서울특별시교육청","서울특별시 종로구","S010000533","중앙고등학교","04","사립","자율고등학교","N","단설","주간","19080620","19080620","1111014800","서울특별시 종로구 계동","1번지.","110800","03051","서울특별시 종로구 창덕궁길 164","(계동)","37.5840273","126.9868771","02-742-1321","02-745-6322","http://choongang.sen.hs.kr","남"
"서울특별시교육청","서울특별시교육청","서울특별시 강남구","S010000534","중앙대학교사범대학부속고등학교","04","사립","일반고등학교","N","부속","주간","19340415","19340415","1168011800","서울특별시 강남구 도곡동","108번지.","135505","06277","서울특별시 강남구 선릉로 207",", 중앙대학교사범대학부속고등학교 (도곡동)","37.4919071662934","127.052110595753","02-579-4005","02-572-7455","http://cau.sen.hs.kr","남녀공학"
"서울특별시교육청","서울특별시교육청","서울특별시 서대문구","S010000535","중앙여자고등학교","04","사립","일반고등학교","N","단설","주간","19401010","19401010","1141011000","서울특별시 서대문구 북아현동","190-1번지.","120818","03762","서울특별시 서대문구 북아현로11가길 7","(북아현동)","37.5626955021907","126.952702536807","02-362-3062","02-393-5129","http://jungang-girls.sen.hs.kr","녀"
"서울특별시교육청","서울특별시교육청","서울특별시 중랑구","S010000536","중화고등학교","04","공립","일반고등학교","N","단설","주간","19880423","19871215","1126010300","서울특별시 중랑구 중화동","21-4번지.","131121","02047","서울특별시 중랑구 봉화산로27길 62","(중화동, 중화고등학교)","37.604737","127.082893","02-491-6807","02-438-9762","http://jung-hwa.sen.hs.kr","남녀공학"
"서울특별시교육청","서울특별시교육청","서울특별시 양천구","S010000537","진명여자고등학교","04","사립","일반고등학교","N","단설","주간","19060421","19060421","1147010200","서울특별시 양천구 목동","927-6.","08002","08002","서울특별시 양천구 목동로 170",", 진명여자고등학교 (목동)","37.5240479976338","126.865855326889","02-2643-1711","02-2649-8327","http://jm.sen.hs.kr","녀"
"서울특별시교육청","서울특별시교육청","서울특별시 강남구","S010000538","진선여자고등학교","04","사립","일반고등학교","N","단설","주간","19761228","19761228","1168010100","서울특별시 강남구 역삼동","713번지.","135919","06213","서울특별시 강남구 선릉로85길 27","(진선여자고등학교,역삼동)","37.501828","127.046904","02-2148-0400","02-561-7210","http://jinseon.sen.hs.kr","녀"
"서울특별시교육청","서울특별시교육청","서울특별시 송파구","S010000539","창덕여자고등학교","04","공립","일반고등학교","N","단설","주간","19410422","19410402","1171011100","서울특별시 송파구 방이동","89-6번지.","138829","05649","서울특별시 송파구 양재대로 1240",", 창덕여자고등학교 (방이동)","37.5162417994073","127.140275053621","02-401-4924","02-430-5601","http://changduk.sen.hs.kr","녀"
"서울특별시교육청","서울특별시교육청","서울특별시 도봉구","S010000540","창동고등학교","04","공립","일반고등학교","N","단설","주간","20020301","20020301","1132010700","서울특별시 도봉구 창동","694-10번지.","132041","01483","서울특별시 도봉구 노해로62길 7","(창동, 창동고등학교)","37.6510352309408","127.038818302116","02-3146-0600","02-994-7622","http://changdong.sen.hs.kr","남녀공학"
"서울특별시교육청","서울특별시교육청","서울특별시 강북구","S010000541","창문여자고등학교","04","사립","일반고등학교","N","단설","주간","19751010","19741227","1130510100","서울특별시 강북구 미아동","8-16  창문여자고등학교.","142802","01237","서울특별시 강북구 월계로 61",", 창문여자고등학교 (미아동)","37.6131144","127.0362812","02-986-1701","02-985-1316","http://changmun.sen.hs.kr","녀"
"서울특별시교육청","서울특별시교육청","서울특별시 강남구","S010000542","청담고등학교","04","공립","일반고등학교","N","단설","주간","19900522","19900120","1168011000","서울특별시 강남구 압구정동","526.","135906","06009","서울특별시 강남구 압구정로 419",", 청담고등학교 (압구정동)","37.5280012141455","127.043700581709","02-3496-8203","02-3496-8398","http://chungdam.sen.hs.kr","남녀공학"
"서울특별시교육청","서울특별시교육청","서울특별시 동대문구","S010000543","청량고등학교","04","공립","자율고등학교","N","단설","주간","19820402","19811231","1123010700","서울특별시 동대문구 청량리동","7번지.","130866","02461","서울특별시 동대문구 왕산로 303","(청량리동, 청량고등학교)","37.588887535546","127.051313102483","02-959-4362","02-959-1887","http://chungryang.sen.hs.kr","남녀공학"
"서울특별시교육청","서울특별시교육청","서울특별시 노원구","S010000544","청원고등학교","04","사립","일반고등학교","N","단설","주간","19890510","19881112","1135010500","서울특별시 노원구 상계동","641번지.","139822","01672","서울특별시 노원구 한글비석로 506",", 청원고등학교 (상계동)","37.666697","127.063081","02-3399-7771","02-3399-7774","http://cheongwon.sen.hs.kr","남"
"서울특별시교육청","서울특별시교육청","서울특별시 노원구","S010000545","청원여자고등학교","04","사립","일반고등학교","N","단설","주간","20010510","20010301","1135010500","서울특별시 노원구 상계동","641번지 (한글비석로 506번지 ).","139209","01672","서울특별시 노원구 한글비석로 506",", 청원여자고등학교 (상계동,청원초/중/고등학교)","37.666141","127.061236","02-3399-7811","02-3399-7842","http://cheongwon-gh.sen.hs.kr","녀"
"서울특별시교육청","서울특별시교육청","서울특별시 은평구","S010000546","충암고등학교","04","사립","일반고등학교","N","단설","주간","19681109","19680110","1138010700","서울특별시 은평구 응암동","산9-1번지.","122010","03481","서울특별시 은평구 가좌로5길 5","(응암동)","37.584813","126.921298","02-309-0236","02-302-8779","http://www.cham.sen.hs.kr","남"
"서울특별시교육청","서울특별시교육청","서울특별시 중랑구","S010000547","태릉고등학교","04","공립","일반고등학교","N","단설","주간","19850507","19841217","1126010400","서울특별시 중랑구 묵동","6번지.","131141","02021","서울특별시 중랑구 신내로23길 36",", 태릉고등학교 (묵동)","37.6191625660392","127.085559518959","02-6211-8585","02-6211-8586","http://taereung.sen.hs.kr","남녀공학"
"서울특별시교육청","서울특별시교육청","서울특별시 강남구","S010000548","풍문고등학교","04","사립","일반고등학교","N","단설","주간","19440410","19440410","1168011200","서울특별시 강남구 자곡동","175-2번지.","135200","06373","서울특별시 강남구 자곡로 152","(자곡동)","37.471327","127.0999477","02-3451-8800","02-732-4536","http://poongmoon.sen.hs.kr","남녀공학"
"서울특별시교육청","서울특별시교육청","서울특별시 양천구","S010000549","한가람고등학교","04","사립","자율고등학교","N","단설","주간","19961210","19961210","1147010200","서울특별시 양천구 목동","909.","07984","07984","서울특별시 양천구 목동서로 15","(목동)","37.5374633014218","126.884007088991","02-2642-3862","02-2642-3865","http://www.hangaram.hs.kr","남녀공학"
"서울특별시교육청","서울특별시교육청","서울특별시 영등포구","S010000550","한강미디어고등학교","04","공립","특성화고등학교","N","단설","주간","19950110","19950110","1156012800","서울특별시 영등포구 양평동4가","315-1번지.","07206","07206","서울특별시 영등포구 선유로55길 22","(양평동4가,한강미디어고등학교)","37.5392919915526","126.897260779464","02-2671-1448","02-2635-6399","http://hangang-ech.sen.hs.kr","남녀공학"
"서울특별시교육청","서울특별시교육청","서울특별시 강서구","S010000551","한광고등학교","04","사립","일반고등학교","N","단설","주간","19870119","19870119","1150010300","서울특별시 강서구 화곡동","488-2.","157894","07732","서울특별시 강서구 등촌로13길 110","(화곡동)","37.5388439841648","126.857940134347","070-7458-1003","02-2652-4529","http://hankwang.sen.hs.kr","남녀공학"
"서울특별시교육청","서울특별시교육청","서울특별시 노원구","S010000552","한국삼육고등학교","04","사립","일반고등학교","N","단설","주간","19491113","19491113","1135010300","서울특별시 노원구 공릉동","26-38번지.","139242","01795","서울특별시 노원구 화랑로 815","(공릉동)","37.6433582691137","127.108851364256","02-6395-3636","02-971-8029","https://sahmyook.sen.hs.kr","남녀공학"
"서울특별시교육청","서울특별시교육청","서울특별시 강서구","S010000554","한서고등학교","04","사립","일반고등학교","N","단설","주간","19850311","19840217","1150010900","서울특별시 강서구 방화동","478-34.","157849","07507","서울특별시 강서구 양천로11길 47","(방화동)","37.5747918032976","126.808144279758","02-2662-0021","02-2664-0028","http://hanseo.sen.hs.kr","남녀공학"
"서울특별시교육청","서울특별시교육청","서울특별시 서대문구","S010000555","한성고등학교","04","사립","일반고등학교","N","단설","주간","19280925","19280925","1141011000","서울특별시 서대문구 북아현동","170-1번지.","120190","03771","서울특별시 서대문구 북아현로1길 24","(북아현동)","37.5598356","126.9545114","02-363-4943","02-364-6926","http://hanseong.sen.hs.kr","남"
"서울특별시교육청","서울특별시교육청","서울특별시 성북구","S010000556","한성여자고등학교","04","사립","일반고등학교","N","단설","주간","19451005","19451005","1129011200","서울특별시 성북구 삼선동2가","392-2번지.","136042","02876","서울특별시 성북구 삼선교로16길 117",", 한성여자고등학교 (삼선동2가)","37.583201","127.011775","02-742-2845","02-743-8182","http://hansung-g.sen.hs.kr","녀"
"서울특별시교육청","서울특별시교육청","서울특별시 성동구","S010000557","한양대학교사범대학부속고등학교","04","사립","자율고등학교","N","부속","주간","19600515","19600515","1120010600","서울특별시 성동구 사근동","223번지.","133817","04761","서울특별시 성동구 마조로 42","(사근동)","37.5619189281293","127.042325968822","02-2200-3520","02-2298-3173","http://www.hanyang-u.hs.kr/","남녀공학"
"서울특별시교육청","서울특별시교육청","서울특별시 강동구","S010000558","한영고등학교","04","사립","일반고등학교","N","단설","주간","19330418","19330418","1174010300","서울특별시 강동구 상일동","166번지.","134837","05279","서울특별시 강동구 동남로 832","(상일동, 한영고등학교)","37.548915","127.158204","02-6954-1504","02-6954-1244","http://hanyoung.sen.hs.kr","남녀공학"
"서울특별시교육청","서울특별시교육청","서울특별시 강남구","S010000559","현대고등학교","04","사립","자율고등학교","N","단설","주간","19850429","19841217","1168011000","서울특별시 강남구 압구정동","425번지.","135899","06000","서울특별시 강남구 압구정로 127","(압구정동, 현대고등학교)","37.525398","127.022736","02-546-6323","02-514-3106","http://www.hyundai.hs.kr","남녀공학"
"서울특별시교육청","서울특별시교육청","서울특별시 노원구","S010000560","혜성여자고등학교","04","사립","일반고등학교","N","단설","주간","19821010","19821130","1135010400","서울특별시 노원구 하계동","16-38.","139230","01749","서울특별시 노원구 노원로16길 2","(하계동)","37.640785","127.073503","02-972-4040","02-972-0992","http://hyesung.sen.hs.kr","녀"
"서울특별시교육청","서울특별시교육청","서울특별시 중랑구","S010000561","혜원여자고등학교","04","사립","일반고등학교","N","단설","주간","19730305","19721226","1126010500","서울특별시 중랑구 망우동","519번지.","131807","02174","서울특별시 중랑구 봉우재로58길 39","(망우동)","37.5932808652466","127.097043165508","02-434-5946","02-437-6687","http://hyewon.sen.hs.kr","녀"
"서울특별시교육청","서울특별시교육청","서울특별시 강북구","S010000562","혜화여자고등학교","04","공립","일반고등학교","N","단설","주간","19660305","19660305","1130510300","서울특별시 강북구 수유동","468-43번지.","01095","01095","서울특별시 강북구 인수봉로 127","(수유동,혜화여자고등학교)","37.6312378","127.0130453","02-985-8415","02-987-8343","http://hyehwa-h.sen.hs.kr","녀"
"서울특별시교육청","서울특별시교육청","서울특별시 성북구","S010000563","홍익대학교사범대학부속고등학교","04","사립","일반고등학교","N","부속","주간","19540412","19540304","1129010100","서울특별시 성북구 성북동","151번지.","136825","02835","서울특별시 성북구 성북로14가길 23","(성북동,홍익대학교부속중고등학교)","37.594336","127.003863","02-762-0826","02-765-4549","hongik.sen.hs.kr","남"
"서울특별시교육청","서울특별시교육청","서울특별시 마포구","S010000564","홍익대학교사범대학부속여자고등학교","04","사립","일반고등학교","N","부속","주간","19680312","19671229","1144012500","서울특별시 마포구 성산동","11-31번지.","03967","03967","서울특별시 마포구 성미산로 51","(성산동, 여자고등학교)","37.560173","126.912680","02-331-7584","02-331-7300","http://hongik68.sen.hs.kr","녀"
"서울특별시교육청","서울특별시교육청","서울특별시 강서구","S010000565","화곡고등학교","04","사립","일반고등학교","N","단설","주간","19780130","19780130","1150010600","서울특별시 강서구 내발산동","산48-3.","07640","07640","서울특별시 강서구 강서로45길 69",", 화곡고등학교 (내발산동)","37.5480514","126.83169799999996","070-8277-2900","02-2662-1825","http://hwagok.sen.hs.kr","남"
"서울특별시교육청","서울특별시교육청","서울특별시 중구","S010000566","환일고등학교","04","사립","일반고등학교","N","단설","주간","19470624","19470624","1114017400","서울특별시 중구 만리동2가","218번지.","100372","04500","서울특별시 중구 환일길 47","(만리동2가)","37.5538259080566","126.962209971463","02-390-7113","02-363-5200","https://www.hwanil.hs.kr","남"
"서울특별시교육청","서울특별시교육청","서울특별시 동대문구","S010000567","휘경여자고등학교","04","사립","일반고등학교","N","단설","주간","19750519","19750303","1123010900","서울특별시 동대문구 휘경동","43-7번지.","130090","02503","서울특별시 동대문구 한천로 247","(휘경동,휘경여자고등학교)","37.583858","127.067362","02-2245-2307","02-2213-2803","http://hwikyung.sen.hs.kr","녀"
"서울특별시교육청","서울특별시교육청","서울특별시 강남구","S010000568","휘문고등학교","04","사립","자율고등학교","N","단설","주간","19060501","19060501","1168010600","서울특별시 강남구 대치동","952-1번지.","135847","06183","서울특별시 강남구 역삼로 541","(대치동)","37.505109","127.061420","02-500-9500","02-568-7079","http://whimoon.hs.kr/","남"
"서울특별시교육청","서울특별시교육청","서울특별시 종로구","S010000569","서울과학고등학교","04","공립","특수목적고등학교","N","단설","주간","19880914","19880914","1111016900","서울특별시 종로구 혜화동","1-1번지.","110530","03066","서울특별시 종로구 혜화로 63","(명륜1가)","37.5915572","126.9984688","02-740-6299","02-741-1368","http://www.sshs.hs.kr","남녀공학"
"서울특별시교육청","서울특별시교육청","서울특별시 서대문구","S010000570","한성과학고등학교","04","공립","특수목적고등학교","N","단설","주간","19920925","19920301","1141010900","서울특별시 서대문구 현저동","산 5번지 한성과학고등학교.","120080","03732","서울특별시 서대문구 통일로 279-79",", 한성과학고등학교 (현저동)","37.57602","126.95279","02-6917-0000","02-6917-0099","https://hansungsh.sen.hs.kr","남녀공학"
"서울특별시교육청","서울특별시교육청","서울특별시 광진구","S010000571","대원외국어고등학교","04","사립","특수목적고등학교","N","단설","주간","19840520","19831007","1121510100","서울특별시 광진구 중곡동","176-124.","04939","04939","서울특별시 광진구 용마산로22길 26","(중곡동)","37.563653","127.089124","02-2204-1530","02-2204-1537","http://www.dwfl.hs.kr/","남녀공학"
"서울특별시교육청","서울특별시교육청","서울특별시 성북구","S010000572","대일외국어고등학교","04","사립","특수목적고등학교","N","단설","주간","19840924","19840304","1129013300","서울특별시 성북구 정릉동","산17-180.","136857","02713","서울특별시 성북구 서경로 116","(정릉동,대일외국어고등학교)","37.6133038725943","127.014175744309","02-940-1000","02-940-0605","www.daeil.or.kr","남녀공학"
"서울특별시교육청","서울특별시교육청","서울특별시 강서구","S010000573","명덕외국어고등학교","04","사립","특수목적고등학교","N","단설","주간","19910911","19910911","1150010600","서울특별시 강서구 내발산동","169-1 명덕외국어고등학교.","07633","07633","서울특별시 강서구 강서로47길 34-10",", 명덕외국어고등학교 (내발산동,명덕고등학교)","37.55424","126.83343","02-2665-8821","02-2665-5777","http://www.mdfh.or.kr","남녀공학"
"서울특별시교육청","서울특별시교육청","서울특별시 도봉구","S010000574","서울외국어고등학교","04","사립","특수목적고등학교","N","단설","주간","19931005","19931005","1132010700","서울특별시 도봉구 창동","35번지.","132901","01489","서울특별시 도봉구 덕릉로66길 22","(창동)","37.6457794408002","127.051510848861","1670-1005","02-994-2435","http://sfl.sen.hs.kr","남녀공학"
"서울특별시교육청","서울특별시교육청","서울특별시 중구","S010000575","이화여자외국어고등학교","04","사립","특수목적고등학교","N","단설","주간","19910911","19910911","1114016800","서울특별시 중구 순화동","1-1번지.","100130","04516","서울특별시 중구 통일로4길 30","(순화동)","37.5655770533831","126.969642795884","02-2176-1992","02-2176-1994","http://www.ewha-gfh.hs.kr","녀"
"서울특별시교육청","서울특별시교육청","서울특별시 강동구","S010000576","한영외국어고등학교","04","사립","특수목적고등학교","N","단설","주간","19900418","19900301","1174010300","서울특별시 강동구 상일동","166.","134710","05279","서울특별시 강동구 동남로 832","(상일동)","37.548158","127.157312","02-6954-1703","02-429-0360","http://hyfl.sen.hs.kr","남녀공학"
"서울특별시교육청","서울특별시교육청","서울특별시 강남구","S010000577","서울로봇고등학교","04","공립","특수목적고등학교","N","단설","주간","19940104","19940104","1168011400","서울특별시 강남구 일원동","738.","135230","06363","서울특별시 강남구 광평로20길 63",", 서울로봇고등학교 (일원동)","37.4806836265885","127.084329560375","02-2226-2141","02-2226-5346","http://srobot.sen.hs.kr","남녀공학"
"서울특별시교육청","서울특별시교육청","서울특별시 강서구","S010000578","강서공업고등학교","04","공립","특성화고등학교","N","단설","주간","19940105","19940105","1150010900","서울특별시 강서구 방화동","834번지.","157223","07514","서울특별시 강서구 방화대로47길 9","(방화동,강서공업고등학교)","37.5760335492399","126.816183130957","02-2666-2106","02-2666-2161","https://gangseo-th.sen.hs.kr/","남녀공학"
"서울특별시교육청","서울특별시교육청","서울특별시 노원구","S010000579","경기기계공업고등학교","04","공립","특성화고등학교","N","단설","주간","19570215","19570215","1135010400","서울특별시 노원구 하계동","78번지.","139230","01810","서울특별시 노원구 공릉로 264","(하계동)","37.6322413093993","127.074929812341","02-2289-1600","02-978-4327","http://ggmt.sen.hs.kr","남녀공학"
"서울특별시교육청","서울특별시교육청","서울특별시 노원구","S010000580","광운인공지능고등학교","04","사립","특성화고등학교","N","병설","주간","19340520","19340520","1135010200","서울특별시 노원구 월계동","500번지(우이내길 99).","01890","01890","서울특별시 노원구 광운로1길 24","(월계동,광운중학교/전자공업고등학교)","37.620734","127.056261","02-918-7761","02-917-5091","http://kwangwoon.sen.hs.kr","남"
"서울특별시교육청","서울특별시교육청","서울특별시 노원구","S010000580","광운인공지능고등학교","04","사립","특성화고등학교","N","병설","주간","19340520","19340520","1135010200","서울특별시 노원구 월계동","500번지(우이내길 99).","01890","01890","서울특별시 노원구 광운로1길 24","(월계동,광운중학교/전자공업고등학교)","37.620734","127.056261","02-918-7761","02-917-5091","http://kwangwoon.sen.hs.kr","남"
"서울특별시교육청","서울특별시교육청","서울특별시 강남구","S010000581","단국대학교부속소프트웨어고등학교","04","사립","특성화고등학교","N","단설","주간","19501103","19471103","1168010600","서울특별시 강남구 대치동","1013.","135852","06278","서울특별시 강남구 도곡로64길 21","(대치동 1013)","37.4956166844415","127.057767323009","02-2116-0115","02-2116-0176","http://dankook.sen.hs.kr","남"
"서울특별시교육청","서울특별시교육청","서울특별시 구로구","S010000582","덕일전자공업고등학교","04","사립","특성화고등학교","N","단설","주간","19941005","19941005","1153010800","서울특별시 구로구 오류동","199-1번지.","152100","08357","서울특별시 구로구 서해안로21길 5-12","(오류동)","37.490578","126.8371543","02-2613-2762","02-2681-0528","http://di.sen.hs.kr","남녀공학"
"서울특별시교육청","서울특별시교육청","서울특별시 마포구","S010000583","서울디자인고등학교","04","사립","특성화고등학교","N","단설","주간","19550112","19550112","1144010900","서울특별시 마포구 염리동","150번지.","121090","04140","서울특별시 마포구 백범로 139",", 서울디자인고등학교 (염리동)","37.546691","126.947828","02-715-2261","02-716-6967","http://seodi.sen.hs.kr","남녀공학"
"서울특별시교육청","서울특별시교육청","서울특별시 강서구","S010000584","동양고등학교","04","사립","일반고등학교","N","단설","주간","19530519","19530519","1150010400","서울특별시 강서구 가양동","1464번지.","157806","07529","서울특별시 강서구 허준로 50","(가양동,동양고등학교)","37.5690210287916","126.84707962501","02-2657-0800","02-3664-9463","http://dongyang.sen.hs.kr","남"
"서울특별시교육청","서울특별시교육청","서울특별시 성동구","S010000585","서울방송고등학교","04","공립","특성화고등학교","N","단설","주간","19911030","19911030","1120011300","서울특별시 성동구 옥수동","556-1번지.","133846","04731","서울특별시 성동구 동호로5길 131","(옥수동)","37.5477731268416","127.011035534375","02-2281-0091","02-2281-0095","https://seb.sen.hs.kr","남녀공학"
"서울특별시교육청","서울특별시교육청","서울특별시 강동구","S010000586","상일미디어고등학교","04","사립","특성화고등학교","N","단설","주간","19841006","19831226","1174010300","서울특별시 강동구 상일동","189번지.","134837","05282","서울특별시 강동구 천호대로219길 61",", 상일미디어고등학교 (상일동)","37.5","127.1","02-428-0733","02-3427-0733","http://sangilmedia.sen.hs.kr","남녀공학"
"서울특별시교육청","서울특별시교육청","서울특별시 노원구","S010000587","미래산업과학고등학교","04","사립","특성화고등학교","N","단설","주간","19940323","19940301","1135010600","서울특별시 노원구 중계동","369-3.","139224","01717","서울특별시 노원구 덕릉로82길 54","(중계동)","37.6587784006058","127.078442505271","02-933-7671","02-933-7855","http://mist.sen.hs.kr","남녀공학"
"서울특별시교육청","서울특별시교육청","서울특별시 동작구","S010000588","서울공업고등학교","04","공립","특성화고등학교","N","단설","주간","18990505","18990505","1159010800","서울특별시 동작구 대방동","390-5번지.","156810","06955","서울특별시 동작구 대방동1길 46",", 서울공업고등학교 (대방동)","37.5019015290089","126.922364274151","02-2082-1810","02-825-2030","http://seoul-th.sen.hs.kr","남녀공학"
"서울특별시교육청","서울특별시교육청","서울특별시 용산구","S010000589","서울디지텍고등학교","04","사립","특성화고등학교","N","단설","주야간","19751004","19751004","1117013000","서울특별시 용산구 이태원동","214-4번지.","140857","04346","서울특별시 용산구 회나무로12길 27","(이태원동)","37.5389687027653","126.990617730656","02-798-3641","02-794-0822","http://www.sdh.hs.kr","남녀공학"
"서울특별시교육청","서울특별시교육청","서울특별시 성북구","S010000590","서울도시과학기술고등학교","04","공립","특수목적고등학교","N","단설","주간","19640108","19640108","1129013600","서울특별시 성북구 하월곡동","90.","136130","02736","서울특별시 성북구 종암로 196","(하월곡동,서울도시과학기술고등학교)","37.6078112720375","127.033042593144","02-940-2500","02-940-2508","http://sust.sen.hs.kr","남녀공학"
"서울특별시교육청","서울특별시교육청","서울특별시 중구","S010000591","성동공업고등학교","04","공립","특성화고등학교","N","단설","주간","19440401","19440401","1114016300","서울특별시 중구 흥인동","1-1번지.","100878","04571","서울특별시 중구 다산로 290","(흥인동)","37.5693638736436","127.01728252277","070-8685-7600","02-2234-1950","http://sdth.sen.hs.kr","남녀공학"
"서울특별시교육청","서울특별시교육청","서울특별시 성동구","S010000592","성수공업고등학교","04","공립","특성화고등학교","N","단설","주간","19980605","19980301","1120011500","서울특별시 성동구 성수동2가","330-10.","133121","04780","서울특별시 성동구 뚝섬로 365","(성수동2가,성수공업고등학교)","37.5405400895433","127.051298055381","02-3409-0944","02-3409-0945","http://sungsu.sen.hs.kr","남녀공학"
"서울특별시교육청","서울특별시교육청","서울특별시 송파구","S010000593","서울인공지능고등학교","04","공립","특성화고등학교","N","단설","주간","19910301","19910301","1171011300","서울특별시 송파구 거여동","331.","138110","05771","서울특별시 송파구 양산로 21","(거여동)","37.491476","127.142528","02-6711-0508,0595","02-6711-0599","https://seoulai.sen.hs.kr","남녀공학"
"서울특별시교육청","서울특별시교육청","서울특별시 송파구","S010000593","서울인공지능고등학교","04","공립","특성화고등학교","N","단설","주간","19910301","19910301","1171011300","서울특별시 송파구 거여동","331.","138110","05771","서울특별시 송파구 양산로 21","(거여동)","37.491476","127.142528","02-6711-0508,0595","02-6711-0599","https://seoulai.sen.hs.kr","남녀공학"
"서울특별시교육청","서울특별시교육청","서울특별시 강남구","S010000594","수도전기공업고등학교","04","사립","특수목적고등학교","N","단설","주간","19240302","19240301","1168010300","서울특별시 강남구 개포동","155번지.","135800","06324","서울특별시 강남구 개포로 410",", 수도전기공업고등학교 (개포동)","37.4849380750283","127.064479796351","070-4673-9800","070-529-6381","http://sudo.sen.hs.kr","남녀공학"
"서울특별시교육청","서울특별시교육청","서울특별시 은평구","S010000595","신진과학기술고등학교","04","사립","특성화고등학교","N","단설","주간","19700316","19700130","1138010700","서울특별시 은평구 응암동","114-1번지.","122010","03453","서울특별시 은평구 은평로6길 16","(응암동,학교법인신진학원)","37.5987132149902","126.918834921758","02-385-3451","02-383-3481","http://shinjin.sen.hs.kr","남녀공학"
"서울특별시교육청","서울특별시교육청","서울특별시 강서구","S010000596","영등포공업고등학교","04","사립","특성화고등학교","N","단설","주간","19530409","19530409","1150010400","서울특별시 강서구 가양동","1468.","157200","07524","서울특별시 강서구 허준로5길 15","(가양동)","37.5698357089002","126.850030085637","02-2659-2981","02-2659-2986","https://younggong.sen.hs.kr","남"
"서울특별시교육청","서울특별시교육청","서울특별시 용산구","S010000597","용산철도고등학교","04","공립","특성화고등학교","N","단설","주간","19630518","19630518","1117012800","서울특별시 용산구 한강로3가","65.","140240","04388","서울특별시 용산구 서빙고로 24","(한강로3가, 용산철도고등학교)","37.5243431153836","126.967356259046","02-6905-7777","02-6905-7890","http://yongsan-th.sen.hs.kr","남녀공학"
"서울특별시교육청","서울특별시교육청","서울특별시 구로구","S010000598","유한공업고등학교","04","사립","특성화고등학교","N","병설","주간","19641229","19641229","1153011200","서울특별시 구로구 항동","1-7번지.","152140","08360","서울특별시 구로구 경인로 8","(항동)","37.488282","126.823964","02-2610-0993","02-2618-1868","http://yuhan.sen.hs.kr","남녀공학"
"서울특별시교육청","서울특별시교육청","서울특별시 노원구","S010000599","서울아이티고등학교","04","사립","특성화고등학교","N","단설","주간","19921030","19921030","1135010600","서울특별시 노원구 중계동","504번지.","01773","01773","서울특별시 노원구 섬밭로 299","(중계동,서울아이티고등학교)","37.6424188935368","127.062449274127","02-948-1901","02-977-8269","http://seoulit.sen.hs.kr","남녀공학"
"서울특별시교육청","서울특별시교육청","서울특별시 노원구","S010000600","인덕과학기술고등학교","04","사립","특성화고등학교","N","단설","주간","19631214","19631214","1135010200","서울특별시 노원구 월계동","산76번지.","139052","01878","서울특별시 노원구 초안산로 12",", 인덕과학기술고등학교 (월계동, 인덕대학교,인덕공업고등학교)","37.631885","127.055742","02-902-2060","02-996-9278","http://induk.sen.hs.kr","남녀공학"
"서울특별시교육청","서울특별시교육청","서울특별시 중구","S010000601","한양공업고등학교","04","사립","특성화고등학교","N","단설","주간","19450901","19450901","1114016200","서울특별시 중구 신당동","251.","100450","04566","서울특별시 중구 을지로 299","(신당동)","37.565319","127.011933","02-2238-5181","02-2235-3154","http://hanyang.sen.hs.kr","남"
"서울특별시교육청","서울특별시교육청","서울특별시 동대문구","S010000602","휘경공업고등학교","04","공립","특성화고등학교","N","단설","주간","19980702","19971220","1123010900","서울특별시 동대문구 휘경동","49-327번지.","130092","02511","서울특별시 동대문구 겸재로 21",", 휘경공업고등학교 (휘경동)","37.5852200630418","127.069728954408","02-2230-9885","02-2216-3646","http://hgt.sen.hs.kr","남녀공학"
"서울특별시교육청","서울특별시교육청","서울특별시 종로구","S010000603","경기상업고등학교","04","공립","특성화고등학교","N","단설","주간","19230514","19230206","1111010100","서울특별시 종로구 청운동","89번지.","110030","03047","서울특별시 종로구 자하문로 136","(청운동)","37.58925","126.9697","02-737-6490","02-722-0504","http://ggc.sen.hs.kr","남녀공학"
"서울특별시교육청","서울특별시교육청","서울특별시 중구","S010000604","서울의료보건고등학교","04","사립","특성화고등학교","N","단설","주간","19921002","19710531","1114017300","서울특별시 중구 만리동1가","54-5번지.","100808","04502","서울특별시 중구 만리재로37길 30","(만리동1가)","37.5572979085555","126.966721683085","02-392-6666","02-392-2233","http://smh.sen.hs.kr","녀"
"서울특별시교육청","서울특별시교육청","서울특별시 성북구","S010000605","동구마케팅고등학교","04","사립","특성화고등학교","N","단설","주간","19420617","19420617","1129010100","서울특별시 성북구 성북동","168-275번지.","136825","02834","서울특별시 성북구 성북로8길 71",", 동구마케팅고등학교 (성북동)","37.5931322","127.0067429","02-762-1301","02-747-6525","donggoo.sen.hs.kr","녀"
"서울특별시교육청","서울특별시교육청","서울특별시 강동구","S010000606","서울컨벤션고등학교","04","사립","특성화고등학교","N","단설","주간","19611215","19611215","1174010200","서울특별시 강동구 고덕동","295-1번지.","05225","05225","서울특별시 강동구 동남로 964",", 서울컨벤션고등학교 (고덕동)","37.559207","127.158087","02-3427-7400","02-3427-7711","http://seoul-chs.sen.hs.kr","남녀공학"
"서울특별시교육청","서울특별시교육청","서울특별시 관악구","S010000607","서울여자상업고등학교","04","사립","특성화고등학교","N","단설","주간","19260929","19260929","1162010100","서울특별시 관악구 봉천동","1695번지.","08833","08833","서울특별시 관악구 관악로 85","(봉천동,서울여자상업고등학교)","37.472732","126.950557","02-873-3613","02-873-3620","http://sys.sen.hs.kr","녀"
"서울특별시교육청","서울특별시교육청","서울특별시 은평구","S010000608","선일빅데이터고등학교","04","사립","특성화고등학교","N","단설","주간","19850311","19850108","1138010400","서울특별시 은평구 갈현동","240-1번지.","03322","03322","서울특별시 은평구 갈현로29길 27",", 선일빅데이터고등학교 (갈현동)","37.620336","126.912002","02-355-5648","02-354-0935","https://bigdata.sen.hs.kr/","녀"
"서울특별시교육청","서울특별시교육청","서울특별시 은평구","S010000608","선일빅데이터고등학교","04","사립","특성화고등학교","N","단설","주간","19850311","19850108","1138010400","서울특별시 은평구 갈현동","240-1번지.","03322","03322","서울특별시 은평구 갈현로29길 27",", 선일빅데이터고등학교 (갈현동)","37.620336","126.912002","02-355-5648","02-354-0935","https://bigdata.sen.hs.kr/","녀"
"서울특별시교육청","서울특별시교육청","서울특별시 강동구","S010000609","성덕고등학교","04","사립","일반고등학교","N","단설","주간","19770905","19761228","1174010900","서울특별시 강동구 천호동","23-3번지.","134861","05306","서울특별시 강동구 구천면로 396","(천호동)","37.5495007","127.1425564","02-475-4620","02-3784-6939","http://ssd.hs.kr","남녀공학"
"서울특별시교육청","서울특별시교육청","서울특별시 강서구","S010000610","서울신정고등학교","04","사립","특성화고등학교","N","단설","주간","19780130","19780130","1150010300","서울특별시 강서구 화곡동","477-1번지.","157894","07736","서울특별시 강서구 등촌로13아길 20","(화곡동, 서울신정고등학교)","37.538583","126.856999","02-2644-3543","02-2644-0021","http://shinjeong.sen.hs.kr","녀"
"서울특별시교육청","서울특별시교육청","서울특별시 관악구","S010000611","영락의료과학고등학교","04","사립","특성화고등학교","N","단설","주간","19590409","19520610","1162010100","서울특별시 관악구 봉천동","1558-1번지.","151918","08831","서울특별시 관악구 청룡16길 25","(봉천동, 서울영락고등학교, 영락의료과학고등학교)","37.476564","126.944783","02-884-1004","02-876-2708","http://youngnak-c.sen.hs.kr","남녀공학"
"서울특별시교육청","서울특별시교육청","서울특별시 송파구","S010000612","일신여자상업고등학교","04","사립","특성화고등학교","N","단설","주간","19580406","19560316","1171010400","서울특별시 송파구 송파동","179번지.","138854","05676","서울특별시 송파구 송파대로38길 8","(송파동,일신여자상업고등학교)","37.5019724365461","127.114526590439","02-2140-8223","02-2140-8224","http://ilshin.sen.hs.kr","녀"
"서울특별시교육청","서울특별시교육청","서울특별시 동대문구","S010000613","정화여자상업고등학교","04","사립","특성화고등학교","N","단설","주간","19080901","19080901","1123010300","서울특별시 동대문구 제기동","293번지.","130862","02480","서울특별시 동대문구 홍릉로15길 50","(제기동)정화여자상업고등학교","37.5857885388121","127.041030665551","02-960-1495","02-965-9155","http://jeonghwa.sen.hs.kr","녀"
"서울특별시교육청","서울특별시교육청","서울특별시 동대문구","S010000614","해성국제컨벤션고등학교","04","사립","특성화고등학교","N","단설","주간","19610404","19560328","1123010400","서울특별시 동대문구 전농동","90-3번지.","130850","02505","서울특별시 동대문구 전농로20길 31",", 해성국제컨벤션고등학교 (전농동)","37.581757","127.057237","070-8786-1300","02-2214-1958","http://haesung.sen.hs.kr","녀"
"서울특별시교육청","서울특별시교육청","서울특별시 마포구","S010000615","홍익디자인고등학교","04","사립","특성화고등학교","N","병설","주간","19920727","19920727","1144012400","서울특별시 마포구 연남동","369-1번지.","121866","03977","서울특별시 마포구 성미산로 111","(연남동)","37.562686","126.919720","02-3140-1256","02-3140-1340","http://hid.sen.hs.kr","녀"
"서울특별시교육청","서울특별시교육청","서울특별시 은평구","S010000616","선정국제관광고등학교","04","사립","특성화고등학교","N","단설","주간","19500522","19941005","1138010400","서울특별시 은평구 갈현동","227-5번지.","122050","03327","서울특별시 은평구 서오릉로20길 19",", 선정국제관광고등학교 (갈현동)","37.618819","126.908452","02-3156-1600","02-352-5073","http://sjt.sen.hs.kr","남녀공학"
"서울특별시교육청","서울특별시교육청","서울특별시 중구","S010000617","성동글로벌경영고등학교","04","공립","특성화고등학교","N","단설","주간","19610303","19610303","1114016200","서울특별시 중구 신당동","250-3번지.","100823","04566","서울특별시 중구 퇴계로 375","(신당동, 성동글로벌경영고등학교)","37.5658540844951","127.013523833761","02-2252-1932","02-2235-7150","http://sdglobal.sen.hs.kr","녀"
"서울특별시교육청","서울특별시교육청","서울특별시 도봉구","S010000618","세그루패션디자인고등학교","04","사립","특성화고등학교","N","단설","주간","19740915","19741227","1132010500","서울특별시 도봉구 쌍문동","263번지.","132030","01375","서울특별시 도봉구 시루봉로 53",", 세그루패션디자인고등학교 (쌍문동)","37.655556","127.026449","02-993-0211","02-998-7912","http://sfd.sen.hs.kr","녀"
"서울특별시교육청","서울특별시교육청","서울특별시 노원구","S010000619","영신간호비즈니스고등학교","04","사립","특성화고등학교","N","단설","주간","19930508","19921007","1135010600","서울특별시 노원구 중계동","118번지.","139229","01721","서울특별시 노원구 중계로16나길 13",", 영신간호비즈니스고등학교 (중계동)","37.6524537965424","127.083276898896","02-951-5772","02-3391-9702","http://youngshin.sen.hs.kr","녀"
"서울특별시교육청","서울특별시교육청","서울특별시 은평구","S010000620","예일디자인고등학교","04","사립","특성화고등학교","N","단설","주간","19930926","19930926","1138010500","서울특별시 은평구 구산동","8-3.","122819","03412","서울특별시 은평구 연서로 117",", 예일디자인고등학교 (구산동)","37.609594","126.915797","02-380-0855","02-380-0880","http://yaledesign.sen.hs.kr","녀"
"서울특별시교육청","서울특별시교육청","서울특별시 강서구","S010000622","덕원예술고등학교","04","사립","특수목적고등학교","N","단설","주간","19920429","19911107","1150010600","서울특별시 강서구 내발산동","산59-2번지.","157280","07640","서울특별시 강서구 강서로45길 91-44",", 덕원예술고등학교 (내발산동)","37.549372","126.828448","02-2660-7911","02-2660-7914","http://dwarts.sen.hs.kr","남녀공학"
"서울특별시교육청","서울특별시교육청","서울특별시 종로구","S010000625","서울예술고등학교","04","사립","특수목적고등학교","N","단설","주간","19530321","19530321","1111018300","서울특별시 종로구 평창동","217.","110847","03011","서울특별시 종로구 평창문화로 70",", 서울예술고등학교 (평창동)","37.6057572732323","126.967891491595","02-2287-0500","02-2287-0400","http://yego.or.kr","남녀공학"
"서울특별시교육청","서울특별시교육청","서울특별시 광진구","S010000626","선화예술고등학교","04","사립","특수목적고등학교","N","단설","주간","19760705","19741201","1121510200","서울특별시 광진구 능동","25번지.","04991","04991","서울특별시 광진구 천호대로 664","(능동)","37.549994","127.087558","02-2204-1303","02-458-4582","http://www.sunhwa.org","남녀공학"
"서울특별시교육청","서울특별시교육청","서울특별시 강서구","S010000628","경복비즈니스고등학교","04","사립","특성화고등학교","N","단설","주간","19721002","19721002","1150010200","서울특별시 강서구 등촌동","131번지.","157733","07589","서울특별시 강서구 화곡로 379","(등촌동)","37.5581044443617","126.852652150808","02-3661-3425","02-3661-8372","http://kbb.sen.hs.kr","녀"
"서울특별시교육청","서울특별시교육청","서울특별시 성북구","S010000629","고명외식고등학교","04","사립","특성화고등학교","N","단설","주간","19560221","19560221","1129010300","서울특별시 성북구 돈암동","45-88번지.","136060","02828","서울특별시 성북구 북악산로 870","(돈암동)","37.597320","127.020190","02-928-8366","02-924-6059","http://komyung.sen.hs.kr","남녀공학"
"서울특별시교육청","서울특별시교육청","서울특별시 관악구","S010000630","서울관광고등학교","04","사립","특성화고등학교","N","단설","주간","19780315","19780315","1162010100","서울특별시 관악구 봉천동","1694번지.","151826","08714","서울특별시 관악구 은천로15길 25","(봉천동,서울관광고등학교)","37.488222","126.943542","02-886-9165","02-872-9170","http://seoul-tour.sen.hs.kr","남녀공학"
"서울특별시교육청","서울특별시교육청","서울특별시 관악구","S010000631","광신방송예술고등학교","04","사립","특성화고등학교","N","단설","주간","19051010","19051010","1162010200","서울특별시 관악구 신림동","328.","151863","08847","서울특별시 관악구 광신길 141","(신림동, 광신방송예술고등학교)","37.465719","126.924699","02-881-8612","02-881-8637","http://ksmedia.sen.hs.kr","남녀공학"
"서울특별시교육청","서울특별시교육청","서울특별시 구로구","S010000632","예림디자인고등학교","04","사립","특성화고등학교","N","단설","주간","20211205","19651205","1153010900","서울특별시 구로구 궁동","110-1번지.","152883","08248","서울특별시 구로구 오리로21길 2","(궁동,예림디자인고등학교)","37.4996945","126.8282053","02-2617-2333","02-2615-5415","http://yerim.sen.hs.kr","녀"
"서울특별시교육청","서울특별시교육청","서울특별시 중구","S010000633","대경생활과학고등학교","04","사립","특성화고등학교","N","단설","주간","19560416","19560228","1114016200","서울특별시 중구 신당동","333-579번지.","100450","04592","서울특별시 중구 매봉18길 111","(신당동)","37.556695826265","127.017533109204","02-2235-5155","02-2237-9142","http://daekyeong.sen.hs.kr","남녀공학"
"서울특별시교육청","서울특별시교육청","서울특별시 중구","S010000633","대경생활과학고등학교","04","사립","특성화고등학교","N","단설","주간","19560416","19560228","1114016200","서울특별시 중구 신당동","333-579번지.","100450","04592","서울특별시 중구 매봉18길 111","(신당동)","37.556695826265","127.017533109204","02-2235-5155","02-2237-9142","http://daekyeong.sen.hs.kr","남녀공학"
"서울특별시교육청","서울특별시교육청","서울특별시 종로구","S010000634","대동세무고등학교","04","사립","특성화고등학교","N","단설","주간","19250418","19250418","1111014800","서울특별시 종로구 계동","35번지.","110800","03057","서울특별시 종로구 계동길 84-10","(계동)","37.5815820100934","126.987949618108","02-763-1631","02-763-1632","http://daedong.sen.hs.kr","남녀공학"
"서울특별시교육청","서울특별시교육청","서울특별시 양천구","S010000635","대일관광고등학교","04","사립","특성화고등학교","N","단설","주간","19800926","19800926","1147010100","서울특별시 양천구 신정동","1318-3.","158070","08051","서울특별시 양천구 신정이펜1로 11",", 대일관광고등학교 (신정동, 대일관광고등학교)","37.6139563320043","127.01292545602","070-4377-8871","02-2603-7361","http://daeil-tour.sen.hs.kr","녀"
"서울특별시교육청","서울특별시교육청","서울특별시 성동구","S010000636","덕수고등학교","04","공립","특성화고등학교","N","단설","주간","19100413","19100413","1120010700","서울특별시 성동구 행당동","70-28번지.","133070","04764","서울특별시 성동구 왕십리로 199","(행당동)","37.5552627804963","127.04114067706","02-2292-5707","02-2299-0703","http://duksoo.sen.hs.kr","남녀공학"
"서울특별시교육청","서울특별시교육청","서울특별시 도봉구","S010000637","서울문화고등학교","04","공립","특성화고등학교","N","단설","주간","19840507","19831226","1132010600","서울특별시 도봉구 방학동","723.","132854","01338","서울특별시 도봉구 마들로 598",", 서울문화고등학교 (방학동)","37.6641324185721","127.047284681742","02-955-9100","02-3491-7697","http://seoulculture.sen.hs.kr","남녀공학"
"서울특별시교육청","서울특별시교육청","서울특별시 은평구","S010000638","동명생활경영고등학교","04","사립","특성화고등학교","N","단설","주간","19210603","19210603","1138010600","서울특별시 은평구 대조동","91-20.","03390","03390","서울특별시 은평구 통일로 793","(대조동)","37.614210","126.923068","02-383-2628","02-389-5011","http://dmgcab.sen.hs.kr/","녀"
"서울특별시교육청","서울특별시교육청","서울특별시 관악구","S010000639","미림여자정보과학고등학교","04","사립","특수목적고등학교","N","단설","주간","19910531","19910301","1162010200","서울특별시 관악구 신림동","1557-1번지.","151897","08821","서울특별시 관악구 호암로 546","(신림동)","37.466336","126.932907","02-872-4071","02-887-0856","http://www.e-mirim.hs.kr","녀"
"서울특별시교육청","서울특별시교육청","서울특별시 송파구","S010000640","보인고등학교","04","사립","자율고등학교","N","단설","주간","19080608","19080608","1171011200","서울특별시 송파구 오금동","162.","138860","05742","서울특별시 송파구 오금로49길 18",", 보인고등학교 (오금동)","37.496983","127.138291","02-2043-6021","02-449-8063","http://www.boin.hs.kr","남"
"서울특별시교육청","서울특별시교육청","서울특별시 구로구","S010000641","서서울생활과학고등학교","04","사립","특성화고등학교","N","단설","주간","19720331","19720305","1153010900","서울특별시 구로구 궁동","35번지.","152881","08248","서울특별시 구로구 오리로 1355-10",", 서서울생활과학고등학교 (궁동)","37.503440","126.827752","02-2613-5272","02-2612-0554","http://ssls.sen.hs.kr","남녀공학"
"서울특별시교육청","서울특별시교육청","서울특별시 양천구","S010000642","서울금융고등학교","04","공립","특성화고등학교","N","단설","주간","19841217","19841217","1147010300","서울특별시 양천구 신월동","43-8번지.","158823","07909","서울특별시 양천구 가로공원로61길 19",", 서울금융고등학교 (신월동)","37.537615","126.825664","02-2694-3710","02-2690-6754","http://seoulfc.sen.hs.kr","남녀공학"
"서울특별시교육청","서울특별시교육청","서울특별시 종로구","S010000644","서일문화예술고등학교","04","사립","특성화고등학교","N","단설","주간","19690715","19661208","1111017400","서울특별시 종로구 창신동","13번지.","110540","03094","서울특별시 종로구 지봉로17길 49","(창신동)","37.5793799031129","127.012792681778","02-763-5863","02-765-8573","http://seoil.sen.hs.kr","남녀공학"
"서울특별시교육청","서울특별시교육청","서울특별시 강북구","S010000645","성암국제무역고등학교","04","사립","특성화고등학교","N","단설","주간","19601001","19600219","1130510100","서울특별시 강북구 미아동","327번지(성암학교길 26).","01174","01174","서울특별시 강북구 도봉로29길 52","(미아동, 성암국제무역고등학교)","37.620895","127.024682","02-2179-1717","02-985-5399","http://seongam.sen.hs.kr","녀"
"서울특별시교육청","서울특별시교육청","서울특별시 강서구","S010000646","서울항공비즈니스고등학교","04","사립","특성화고등학교","N","단설","주간","19870605","19870109","1150010900","서울특별시 강서구 방화동","242-8번지.","157221","07597","서울특별시 강서구 방화대로34길 13","(방화동)","37.5692161622632","126.817042049721","02-2665-5900","02-2666-0065","http://sab.sen.hs.kr","남녀공학"
"서울특별시교육청","서울특별시교육청","서울특별시 중랑구","S010000647","송곡관광고등학교","04","사립","특성화고등학교","N","단설","주간","19970524","19970902","1126010500","서울특별시 중랑구 망우동","252-1번지.","131800","02057","서울특별시 중랑구 양원역로 67","(망우동)","37.606334","127.105440","02-432-1837","02-433-2183","http://sgi.sen.hs.kr","녀"
"서울특별시교육청","서울특별시교육청","서울특별시 노원구","S010000649","염광여자메디텍고등학교","04","사립","특성화고등학교","N","단설","주간","19680301","19680301","1135010200","서울특별시 노원구 월계동","820번지.","139724","01874","서울특별시 노원구 월계로45가길 9",", 염광여자메디텍고등학교 (월계동)","37.629901","127.048562","02-994-3104","02-903-2813","http://ykm.sen.hs.kr","녀"
"서울특별시교육청","서울특별시교육청","서울특별시 중랑구","S010000650","이화여자대학교병설미디어고등학교","04","사립","특성화고등학교","N","병설","주간","19690918","19690110","1126010500","서울특별시 중랑구 망우동","220번지.","131802","02061","서울특별시 중랑구 망우로73길 56",", 02061 (망우동)","37.6031305977125","127.105331940687","02-2209-0146","02-438-1549","https://ewhamedia.sen.hs.kr","녀"
"서울특별시교육청","서울특별시교육청","서울특별시 노원구","S010000651","서울동산고등학교","04","사립","특성화고등학교","N","단설","주간","19680429","19680302","1135010300","서울특별시 노원구 공릉동","481-3.","01832","01832","서울특별시 노원구 공릉로 257","(공릉동)","37.6302021","127.07506","02-971-0903","02-973-3052","http://seouldongsan.sen.hs.kr","남녀공학"
"서울특별시교육청","서울특별시교육청","서울특별시 강서구","S010000655","화곡보건경영고등학교","04","사립","특성화고등학교","N","단설","주간","19870916","19870108","1150010600","서울특별시 강서구 내발산동","715번지.","157280","07638","서울특별시 강서구 강서로45길 70","(내발산동, 화곡보건경영고등학교)","37.549041","126.832793","070-8644-6300","02-2664-2803","http://hwagok-gii.sen.hs.kr","녀"
"서울특별시교육청","서울특별시교육청","서울특별시 중구","S010000656","리라아트고등학교","04","사립","특성화고등학교","N","단설","주간","19520520","19520520","1114014200","서울특별시 중구 예장동","8번지.","100250","04628","서울특별시 중구 소파로2길",", 24 (예장동,리라아트고등학교)","37.5571299","126.9882245","02-775-6541","02-319-0681","http://lila.sen.hs.kr","남녀공학"
"서울특별시교육청","서울특별시교육청","서울특별시 서초구","S010000657","서울전자고등학교","04","공립","특성화고등학교","N","단설","주간","19940506","19940105","1165010100","서울특별시 서초구 방배동","2727번지.","137853","06761","서울특별시 서초구 과천대로 852-23","(방배동)","37.4697208265508","126.988360990773","02-6011-4100","02-597-9693","http://e-seoul.sen.hs.kr","남녀공학"
"서울특별시교육청","서울특별시교육청","서울특별시 용산구","S010000658","선린인터넷고등학교","04","공립","특성화고등학교","N","단설","주간","18990624","18990624","1117011100","서울특별시 용산구 청파동3가","131번지.","140133","04314","서울특별시 용산구 원효로97길 33-4","(청파동3가)","37.5429755716584","126.966488162658","02-713-6211","02-704-0960","http://sunrint.sen.hs.kr","남녀공학"
"서울특별시교육청","서울특별시교육청","서울특별시 은평구","S010000659","세명컴퓨터고등학교","04","사립","특성화고등학교","N","단설","주간","19740429","19740429","1138010300","서울특별시 은평구 불광동","445-35.","122867","03337","서울특별시 은평구 통일로92가길 33",", 세명컴퓨터고등학교 (불광동)","37.62776307202797","126.92318998405358","02-354-1323","02-388-1381","http://smc.sen.hs.kr","남녀공학"
"서울특별시교육청","서울특별시교육청","서울특별시 마포구","S010000662","한세사이버보안고등학교","04","사립","특성화고등학교","N","단설","주간","19941005","19941005","1144010100","서울특별시 마포구 아현동","457-30.","121862","04129","서울특별시 마포구 마포대로11길 44-80","(아현동)","37.552009","126.952001","02-362-0130","02-312-3996","http://hansei.sen.hs.kr","남녀공학"
"서울특별시교육청","서울특별시교육청","서울특별시 도봉구","S010005181","누원고등학교","04","공립","일반고등학교","N","단설","주간","20030506","20030106","1132010800","서울특별시 도봉구 도봉동","646.","132010","01318","서울특별시 도봉구 마들로 849",", 누원고등학교 (도봉동)","37.6855674262612","127.049933022634","02-3492-7595","02-3492-7598","http://noowon.sen.hs.kr","남녀공학"
"서울특별시교육청","서울특별시교육청","서울특별시 송파구","S010005182","방산고등학교","04","공립","일반고등학교","N","단설","주간","20030930","20030301","1171011100","서울특별시 송파구 방이동","220-5번지.","138050","05645","서울특별시 송파구 오금로27길 18","(방이동)","37.5083996972531","127.120472014129","02-418-2602","02-418-9963","http://bangsan.sen.hs.kr","남녀공학"
"서울특별시교육청","서울특별시교육청","서울특별시 중랑구","S010005204","신현고등학교","04","공립","일반고등학교","N","단설","주간","20040429","20040301","1126010200","서울특별시 중랑구 상봉동","482번지.","131863","02075","서울특별시 중랑구 봉화산로 174",", 신현고등학교 (상봉동)","37.6052493151757","127.092950047723","02-3422-2713","02-3422-2716","http://shinhyeon.sen.hs.kr","남녀공학"
"서울특별시교육청","서울특별시교육청","서울특별시 도봉구","S010005205","자운고등학교","04","공립","일반고등학교","N","단설","주간","20040423","20020527","1132010700","서울특별시 도봉구 창동","1번지.","01412","01412","서울특별시 도봉구 노해로69길 150","(창동)","37.6590458656402","127.05069043467","02-998-2929","02-998-2942","http://jawoon.sen.hs.kr","남녀공학"
"서울특별시교육청","서울특별시교육청","서울특별시 도봉구","S010005206","도봉고등학교","04","공립","일반고등학교","N","단설","주간","20040504","20031230","1132010800","서울특별시 도봉구 도봉동","556번지.","132812","01302","서울특별시 도봉구 도봉산길 27","(도봉동,도봉고등학교)","37.6867559974468","127.042578206799","02-3491-4283","02-3491-4287","http://db2004.sen.hs.kr","남녀공학"
"서울특별시교육청","서울특별시교육청","서울특별시 강서구","S010005208","등촌고등학교","04","공립","자율고등학교","N","단설","주간","20040301","20040301","1150010200","서울특별시 강서구 등촌동","691-2번지.","157030","07580","서울특별시 강서구 공항대로39길 115",", 등촌고등학교 (등촌동)","37.5629456691679","126.845045666311","02-3665-6045","02-3665-6047","http://dch.sen.hs.kr","남녀공학"
"서울특별시교육청","서울특별시교육청","서울특별시 성동구","S010005209","경일고등학교","04","공립","자율고등학교","N","단설","주간","20040506","20040506","1120011400","서울특별시 성동구 성수동1가","22-27번지.","133819","04779","서울특별시 성동구 성수일로 27",", 경일고등학교 (성수동1가)","37.5438283756893","127.047869425093","02-463-3520","02-463-4072","http://kyungil.sen.hs.kr","남녀공학"
"서울특별시교육청","서울특별시교육청","서울특별시 영등포구","S010005261","선유고등학교","04","공립","일반고등학교","N","단설","주간","20050526","20050105","1156012800","서울특별시 영등포구 양평동4가","10번지.","150866","07209","서울특별시 영등포구 선유로 227",", 선유고등학교 (양평동4가)","37.5339205","126.89487220000001","02-2069-0036","02-2069-2626","http://seonyoo.sen.hs.kr","남녀공학"
"서울특별시교육청","서울특별시교육청","서울특별시 노원구","S010005262","월계고등학교","04","공립","일반고등학교","N","단설","주간","20050301","20050105","1135010200","서울특별시 노원구 월계동","778.","139050","01874","서울특별시 노원구 초안산로5길 66","(월계동,월계고등학교)","37.6317324735338","127.048714244008","02-908-0062","02-908-0260","http://wg.sen.hs.kr","남녀공학"
"서울특별시교육청","서울특별시교육청","서울특별시 노원구","S010005263","불암고등학교","04","공립","일반고등학교","N","단설","주간","20050301","20050301","1135010600","서울특별시 노원구 중계동","364-10.","139861","01736","서울특별시 노원구 중계로 155","(중계동)","37.6491582603551","127.080304356122","02-936-7500","02-936-9100","http://buram.sen.hs.kr","남녀공학"
"서울특별시교육청","서울특별시교육청","서울특별시 강서구","S010005270","세현고등학교","04","공립","일반고등학교","N","단설","주간","20060506","20060301","1150010400","서울특별시 강서구 가양동","1491.","157810","07531","서울특별시 강서구 허준로 227",", 세현고등학교 (가양동)","37.560416","126.863464","02-3663-1495","02-3663-1056","http://sehyun.sen.hs.kr","남녀공학"
"서울특별시교육청","서울특별시교육청","서울특별시 양천구","S010005285","신서고등학교","04","공립","일반고등학교","N","단설","주간","20060525","20060105","1147010100","서울특별시 양천구 신정동","984-1.","158860","08021","서울특별시 양천구 은행정로 42",", 신서고등학교 (신정동)","37.5","126.8","02-2690-0400","02-2690-2227","http://sinseo.sen.hs.kr","남녀공학"
"서울특별시교육청","서울특별시교육청","서울특별시 도봉구","S010005288","효문고등학교","04","공립","일반고등학교","N","단설","주간","20060605","20051229","1132010500","서울특별시 도봉구 쌍문동","468.","132887","01372","서울특별시 도봉구 우이천로 432","(쌍문동,효문중 고등학교)","37.6526979913186","127.01839876271","02-992-0778","02-992-0528","http://hyomun.sen.hs.kr","남녀공학"
"서울특별시교육청","서울특별시교육청","서울특별시 중랑구","S010005364","원묵고등학교","04","공립","자율고등학교","N","단설","주간","20070531","20031219","1126010400","서울특별시 중랑구 묵동","23.","131846","02041","서울특별시 중랑구 숙선옹주로 82",", 원묵고등학교 (묵동)","37.615506","127.086204","02-3422-3573","02-3422-2578","http://wonmook.sen.hs.kr","남녀공학"
"서울특별시교육청","서울특별시교육청","서울특별시 마포구","S010005365","상암고등학교","04","공립","자율고등학교","N","단설","주간","20070510","20070104","1144012700","서울특별시 마포구 상암동","355-1.","121832","03903","서울특별시 마포구 월드컵북로 445","(상암동)","37.5813412315281","126.883395629746","02-373-0041","02-373-0068","http://sangam.sen.hs.kr","남녀공학"
"서울특별시교육청","서울특별시교육청","서울특별시 종로구","S010005494","서울국제고등학교","04","공립","특수목적고등학교","N","단설","주간","20080507","20070719","1111017000","서울특별시 종로구 명륜1가","1-27.","110521","03066","서울특별시 종로구 성균관로13길 40",", 서울국제고 (명륜1가)","37.59154","126.99600","02-743-9385","02-743-9409","http://sghs.sen.hs.kr","남녀공학"
"서울특별시교육청","서울특별시교육청","서울특별시 송파구","S010005498","문정고등학교","04","공립","일반고등학교","N","단설","주간","20080422","20071101","1171010800","서울특별시 송파구 문정동","90.","05809","05809","서울특별시 송파구 송이로34길 62","(문정동,문정고등학교)","37.4851796679256","127.126694119788","02-406-0061","02-406-6756","http://mj.sen.hs.kr","남녀공학"
"서울특별시교육청","서울특별시교육청","서울특별시 구로구","S010005500","세종과학고등학교","04","공립","특수목적고등학교","N","단설","주간","20080415","20080301","1153010900","서울특별시 구로구 궁동","산18-21.","152110","08258","서울특별시 구로구 오리로21길 79","(궁동)","37.497155","126.827580","02-2060-4133","02-2060-4144","http://sjsh.sen.hs.kr","남녀공학"
"서울특별시교육청","서울특별시교육청","서울특별시 구로구","S010005501","구현고등학교","04","공립","자율고등학교","N","단설","주간","20080301","20080301","1153010200","서울특별시 구로구 구로동","625-92.","152865","08217","서울특별시 구로구 경인로53가길 17","(구로동)","37.5022819578577","126.874416965288","02-2628-8916","02-2628-8915","http://guhyun.sen.hs.kr","남녀공학"
"서울특별시교육청","서울특별시교육청","서울특별시 강북구","S010005518","삼각산고등학교","04","공립","일반고등학교","N","단설","주간","20110301","20110301","1130510100","서울특별시 강북구 미아동","1267-38.","142818","01199","서울특별시 강북구 삼양로19길 40","(미아동,삼각산고등학교)","37.6162870851529","127.020106892432","02-980-2290","02-989-6930","http://samgaksan.sen.hs.kr","남녀공학"
"서울특별시교육청","서울특별시교육청","서울특별시 구로구","S010005521","신도림고등학교","04","공립","일반고등학교","N","단설","주간","20090301","20090301","1153010100","서울특별시 구로구 신도림동","270-2.","152886","08200","서울특별시 구로구 경인로67길 159","(신도림동,신도림고등학교)","37.5137691","126.8822616","02-2068-7979","02-2068-7622","https://shindorim.sen.hs.kr/","남녀공학"
"서울특별시교육청","서울특별시교육청","서울특별시 강동구","S010005522","강일고등학교","04","공립","일반고등학교","N","단설","주간","20100404","20100301","1174011000","서울특별시 강동구 강일동","685-1.","134100","05213","서울특별시 강동구 아리수로98길 40","(강일동)","37.5638287267624","127.17790573834","02-428-6200","02-428-6810","http://gang-il.sen.hs.kr","남녀공학"
"서울특별시교육청","서울특별시교육청","서울특별시 성동구","S010005523","성수고등학교","04","공립","일반고등학교","N","단설","주간","20090301","20090301","1120011400","서울특별시 성동구 성수동1가","685-143.","133825","04768","서울특별시 성동구 서울숲길 18",", 성수고등학교 (성수동1가)","37.547342174946","127.038252978856","02-6913-3520","02-461-3346","http://seongsu.sen.hs.kr","남녀공학"
"서울특별시교육청","서울특별시교육청","서울특별시 송파구","S010005524","문현고등학교","04","공립","일반고등학교","N","단설","주간","20100301","20100301","1171010900","서울특별시 송파구 장지동",".","","05811","서울특별시 송파구 충민로 115","(장지동)","37.481244","127.128992","02-6951-8702","02-3012-0880","http://munhyeon.sen.hs.kr","남녀공학"
"서울특별시교육청","서울특별시교육청","서울특별시 은평구","S010005525","진관고등학교","04","공립","일반고등학교","N","단설","주간","20090604","20090102","1138011400","서울특별시 은평구 진관동","392-1.","03302","03302","서울특별시 은평구 진관4로 26","(진관동)","37.64361","126.92443","02-358-0783","02-358-0866","http://jingwan.sen.hs.kr","남녀공학"
"서울특별시교육청","서울특별시교육청","서울특별시 관악구","S010005528","구암고등학교","04","공립","일반고등학교","N","단설","주간","20120501","20120301","1162010100","서울특별시 관악구 봉천동","1712-25.","151050","08723","서울특별시 관악구 성현로 57","(봉천동,구암고등학교)","37.492457","126.950056","02-879-9823","02-879-1981","http://guahm.sen.hs.kr","남녀공학"
"서울특별시교육청","서울특별시교육청","서울특별시 은평구","S010005530","신도고등학교","04","공립","일반고등학교","N","단설","주간","20110301","20110301","1138011400","서울특별시 은평구 진관동","243-1.","122200","03312","서울특별시 은평구 통일로 961","(진관동)","37.629382","126.918451","02-3157-0021","02-3157-0035","http://sindo.sen.hs.kr","남녀공학"
"서울특별시교육청","서울특별시교육청","서울특별시 동대문구","S010005536","해성여자고등학교","04","사립","일반고등학교","N","단설","주간","20080301","20080301","1123010400","서울특별시 동대문구 전농동","90-3.","02505","02505","서울특별시 동대문구 전농로20길 31","(전농동,해성여자고등학교)","37.580759","127.057155","070-7860-7100","070-8769-9458","http://haesung-g.hs.kr","녀"
"서울특별시교육청","서울특별시교육청","서울특별시 강북구","S010005541","미양고등학교","04","공립","자율고등학교","N","단설","주간","20090610","20090301","1130510100","서울특별시 강북구 미아동","837-735.","142100","01190","서울특별시 강북구 인수봉로 39",", 미양고등학교 (미아동)","37.624020","127.012109","02-982-6104","02-982-6106","http://mi-yang.sen.hs.kr","남녀공학"
"서울특별시교육청","서울특별시교육청","서울특별시 강동구","S010005563","선사고등학교","04","공립","일반고등학교","N","단설","주간","20110501","20110301","1174010700","서울특별시 강동구 암사동","448.","05237","05237","서울특별시 강동구 고덕로25길 17",", 선사고등학교 (암사동)","37.556548","127.135694","02-426-1749","02-426-1748","http://sunsa.sen.hs.kr","남녀공학"
"서울특별시교육청","서울특별시교육청","서울특별시 송파구","S010005566","잠일고등학교","04","공립","일반고등학교","N","단설","주간","20120506","20120301","1171010100","서울특별시 송파구 잠실동","19-2.","138220","05501","서울특별시 송파구 백제고분로 21","(잠실동)","37.51443","127.082425","02-2141-2000","02-414-9973","http://jamil.sen.hs.kr","남녀공학"
"서울특별시교육청","서울특별시교육청","서울특별시 동대문구","S010005573","휘봉고등학교","04","공립","일반고등학교","N","단설","주간","20120501","20120106","1123010900","서울특별시 동대문구 휘경동","43-1.","130092","02511","서울특별시 동대문구 한천로 290","(휘경동)","37.5865082","127.0689973","02-2116-7211","02-2249-7121","http://hwibong.sen.hs.kr","남녀공학"
"서울특별시교육청","서울특별시교육청","서울특별시 강서구","S010005582","수명고등학교","04","공립","일반고등학교","N","단설","주간","20090504","20090301","1150010600","서울특별시 강서구 내발산동","758.","157280","07635","서울특별시 강서구 수명로2길 15",", 수명고등학교 (내발산동)","37.549759140477","126.824753126888","02-2660-5500","02-2660-5519","http://sumyeong.sen.hs.kr","남녀공학"
"서울특별시교육청","서울특별시교육청","서울특별시 은평구","S010005583","은평고등학교","04","공립","일반고등학교","N","단설","주간","20090301","20090301","1138010500","서울특별시 은평구 구산동","산41-1.","03428","03429","서울특별시 은평구 갈현로15길 47","(구산동, 은평고등학교)","37.609211","126.906042","02-383-0872","02-383-0860","http://ep.sen.hs.kr","남녀공학"
"서울특별시교육청","서울특별시교육청","서울특별시 구로구","S010005584","서울공연예술고등학교","04","사립","특수목적고등학교","N","단설","주간","19661002","19660306","1153010900","서울특별시 구로구 궁동","147-1.","152883","08249","서울특별시 구로구 오리로22나길 16-26",", 서울공연예술고등학교 (궁동)","37.5000850741111","126.832152256271","02-3281-9760","02-3281-9768","http://sopa.hs.kr","남녀공학"
"서울특별시교육청","서울특별시교육청","서울특별시 서대문구","S010005591","가재울고등학교","04","공립","일반고등학교","N","단설","주간","20130501","20130301","1141011900","서울특별시 서대문구 북가좌동","476.","120811","03709","서울특별시 서대문구 수색로 100-35","(북가좌동)","37.574297","126.909499","02-6351-0500","02-307-6605","http://gajaeul.sen.hs.kr","남녀공학"
"서울특별시교육청","서울특별시교육청","서울특별시 은평구","S010005616","하나고등학교","04","사립","자율고등학교","N","단설","주간","20091031","20090821","1138011400","서울특별시 은평구 진관동","129.","122200","03305","서울특별시 은평구 연서로 535",", 하나고등학교 (진관동)","37.641636509259","126.936930475086","02-6913-1111","02-6913-1785","http://www.hana.hs.kr","남녀공학"
"서울특별시교육청","서울특별시교육청","서울특별시 성동구","S010006381","금호고등학교","04","공립","일반고등학교","N","단설","주간","20170522","20170301","1120010900","서울특별시 성동구 금호동1가",".","","04727","서울특별시 성동구 금호로 118","(금호동1가)","37.55325","127.02362","02-2022-0800","02-2022-0840","http://geumho.sen.hs.kr","남녀공학"
"서울특별시교육청","서울특별시교육청","서울특별시 성동구","S010006382","도선고등학교","04","공립","일반고등학교","N","단설","주간","20170524","20170301","1120010200","서울특별시 성동구 하왕십리동",".","","04701","서울특별시 성동구 마장로 156","(하왕십리동)","37.567131","127.026809","02-2292-8176","02-2292-7556","http://dosun.sen.hs.kr","남녀공학"
"서울특별시교육청","서울특별시교육청","서울특별시 송파구","S010006558","덕수고등학교(일반고)","04","공립","일반고등학교","N","단설","주간","19100413","19100413","1171011300","서울특별시 송파구 거여동",".","","05846","서울특별시 송파구 위례북로 10","(거여동, 덕수고등학교)","37.485367","127.146854","02-6952-2801","02-449-9069","https://duksoowr.sen.hs.kr","남녀공학"
"교육부","부산광역시교육청","부산광역시 금정구","S000003509","부산대학교사범대학부설고등학교","04","국립","일반고등학교","N","부설","주간","19720106","19720106","2641010900","부산광역시 금정구 부곡동","부산대학교사범대학부설고등학교.","609822","46269","부산광역시 금정구 기찰로22번길 30","(부곡동, 부산대학교사범대학부설고등학교)","35.232817453587","129.095652759996","051-515-1345","051-515-1346","http://pnu.hs.kr","남녀공학"
"교육부","부산광역시교육청","부산광역시 해운대구","S000003543","부산기계공업고등학교","04","국립","특수목적고등학교","N","단설","주간","19670311","19670109","2635010500","부산광역시 해운대구 우동","산114-1.","612021","48088","부산광역시 해운대구 해운대로 569","(우동)","35.164280","129.153962","051-741-5111","051-741-5045","http://school.busanedu.net/bmt-h/main.do","남"
"교육부","부산광역시교육청","부산광역시 영도구","S000003604","부산해사고등학교","04","국립","특수목적고등학교","N","단설","주간","19770830","19770830","2620012100","부산광역시 영도구 동삼동","1125-21.","606080","49111","부산광역시 영도구 해양로 425","(동삼동)","35.0741923078464","129.077017122364","051-410-2000","051-412-9261","http://www.maritime.hs.kr","남녀공학"
"부산광역시교육청","부산광역시교육청","부산광역시 부산진구","S020000338","가야고등학교","04","사립","일반고등학교","N","단설","주간","19540904","19540904","2623011000","부산광역시 부산진구 가야동","산34번지.","614803","47341","부산광역시 부산진구 엄광로 152","(가야동, 가야고등학교)","35.146454","129.031498","051-893-1881","051-892-1888","http://www.gaya.hs.kr","남녀공학"
"부산광역시교육청","부산광역시교육청","부산광역시 부산진구","S020000339","개금고등학교","04","공립","일반고등학교","N","단설","주간","19881221","19881221","2623011100","부산광역시 부산진구 개금3동 8-1","개금고등학교.","614113","47169","부산광역시 부산진구 백양대로208번길 71","(개금동, 개금고등학교)","35.161139","129.025055","051-890-5600","051-894-1716","http://kaekeum.hs.kr","남"
"부산광역시교육청","부산광역시교육청","부산광역시 사하구","S020000340","건국고등학교","04","사립","일반고등학교","N","단설","주간","19490831","19490831","2638010300","부산광역시 사하구 하단동","건국고등학교.","604020","49326","부산광역시 사하구 승학로17번길","(하단동)","35.1107337","128.9696128","051-292-0061","051-292-0048","www.keonkuk.hs.kr","남"
"부산광역시교육청","부산광역시교육청","부산광역시 서구","S020000342","경남고등학교","04","공립","자율고등학교","N","단설","주간","19420430","19420430","2614010300","부산광역시 서구 동대신동3가","경남고등학교.","602103","49201","부산광역시 서구 망양로111번길 65","(동대신동3가, 경남고등학교)","35.1201995318201","129.020041182916","051-250-5000","051-250-5099","http://kyungnam.hs.kr","남"
"부산광역시교육청","부산광역시교육청","부산광역시 부산진구","S020000344","경남공업고등학교","04","공립","특성화고등학교","N","단설","주간","19440211","19440211","2623010200","부산광역시 부산진구 전포동","696-1번지.","614041","47297","부산광역시 부산진구 전포대로175번길 22","(전포동,경남공업고등학교)","35.1533485793582","129.063639965461","051-607-7300","051-607-7490","www.knt.hs.kr","남녀공학"
"부산광역시교육청","부산광역시교육청","부산광역시 서구","S020000345","부경고등학교","04","공립","일반고등학교","N","단설","주간","19451114","19451114","2614010600","부산광역시 서구 서대신동3가","부경고등학교.","602825","49210","부산광역시 서구 망양로33번길 12","(서대신동3가, 부경고등학교)","35.11491","129.01304","051-600-8500","051-600-8599","http://www.saja.hs.kr/","남녀공학"
